"ï»¿X","Y","OBJECTID","FOD_ID","FPA_ID","SOURCE_SYSTEM_TYPE","SOURCE_SYSTEM","NWCG_REPORTING_AGENCY","NWCG_REPORTING_UNIT_ID","NWCG_REPORTING_UNIT_NAME","SOURCE_REPORTING_UNIT","SOURCE_REPORTING_UNIT_NAME","LOCAL_FIRE_REPORT_ID","LOCAL_INCIDENT_ID","FIRE_CODE","FIRE_NAME","ICS_209_PLUS_INCIDENT_JOIN_ID","ICS_209_PLUS_COMPLEX_JOIN_ID","MTBS_ID","MTBS_FIRE_NAME","COMPLEX_NAME","FIRE_YEAR","DISCOVERY_DATE","DISCOVERY_DOY","DISCOVERY_TIME","NWCG_CAUSE_CLASSIFICATION","NWCG_GENERAL_CAUSE","NWCG_CAUSE_AGE_CATEGORY","CONT_DATE","CONT_DOY","CONT_TIME","FIRE_SIZE","FIRE_SIZE_CLASS","LATITUDE","LONGITUDE","OWNER_DESCR","STATE","COUNTY","FIPS_CODE","FIPS_NAME"
"-83.750273674","35.333604317","35001","35184","FS-1476384","FED","FS-FIRESTAT","FS","USNCNCF","National Forests in North Carolina","0811","National Forests in North Carolina","73","10","EK26","ENGLAND BRANCH","","","","","","2009","2009/04/29 00:00:00+00","119","1330","Human","Debris and open burning","","2009/04/29 00:00:00+00","119","1700","0.3","B","35.33361111","-83.75027778","STATE OR PRIVATE","NC","75","37075","Graham County"
"-83.196662744","35.02165992","35002","35185","FS-1476385","FED","FS-FIRESTAT","FS","USNCNCF","National Forests in North Carolina","0811","National Forests in North Carolina","59","11","EK26","ORCHARD","","","","","","2009","2009/04/22 00:00:00+00","112","1215","Human","Debris and open burning","","2009/04/22 00:00:00+00","112","1700","1","B","35.02166667","-83.19666667","MISSING/NOT SPECIFIED","NC","113","37113","Macon County"
"-112.0830444","35.178883542","35003","35186","FS-1476387","FED","FS-FIRESTAT","FS","USAZKNF","Kaibab National Forest","0307","Kaibab National Forest","3","002","EV68","PONCHO","","","","","","2009","2009/05/08 00:00:00+00","128","0735","Human","Recreation and ceremony","","2009/05/08 00:00:00+00","128","1550","0.25","A","35.17888889","-112.08305556","USFS","AZ","5","04005","Coconino County"
"-109.933044912","34.212494663","35004","35187","FS-1476390","FED","FS-FIRESTAT","FS","USAZASF","Apache-Sitgreaves National Forest","0301","Apache-Sitgreaves National Forest","17","005","EKV0","CHOLLA","","","","","","2009","2009/05/09 00:00:00+00","129","1025","Human","Recreation and ceremony","","2009/05/09 00:00:00+00","129","1117","0.1","A","34.2125","-109.93305556","USFS","AZ","17","04017","Navajo County"
"-111.079711329","34.335828038","35005","35188","FS-1476395","FED","FS-FIRESTAT","FS","USAZTNF","Tonto National Forest","0312","Tonto National Forest","42","16","EKW0","HATCHERY","","","","","","2009","2009/05/30 00:00:00+00","150","1450","Natural","Natural","","2009/05/30 00:00:00+00","150","1630","0.1","A","34.33583333","-111.07972222","USFS","AZ","7","04007","Gila County"
"-120.450264715","39.05110591","35006","35189","FS-1476396","FED","FS-FIRESTAT","FS","USCAENF","Eldorado National Forest","0503","Eldorado National Forest","8","3","EK1U","DESERT","","","","","","2009","2009/05/27 00:00:00+00","147","1630","Natural","Natural","","2009/05/27 00:00:00+00","147","2130","0.3","B","39.05111111","-120.45027778","USFS","CA","61","06061","Placer County"
"-122.28304188","41.394161436","35007","35190","FS-1476397","FED","FS-FIRESTAT","FS","USCASHF","Shasta-Trinity National Forest","0514","Shasta-Trinity National Forest","24","5","EK15","DILLER","","","","","","2009","2009/05/31 00:00:00+00","151","0815","Natural","Natural","","2009/05/31 00:00:00+00","151","1915","0.1","A","41.39416667","-122.28305556","USFS","CA","93","06093","Siskiyou County"
"-111.595266715","35.197494621","35008","35191","FS-1476398","FED","FS-FIRESTAT","FS","USAZKNF","Kaibab National Forest","0307","Kaibab National Forest","4","003","EKV6","MOUNTAIN","","","","","","2009","2009/05/19 00:00:00+00","139","0736","Natural","Natural","","2009/05/19 00:00:00+00","139","1428","0.1","A","35.1975","-111.59527778","USFS","AZ","5","04005","Coconino County"
"-120.539709144","39.01805037","35009","35192","FS-1476401","FED","FS-FIRESTAT","FS","USCAENF","Eldorado National Forest","0503","Eldorado National Forest","9","4","EK1U","CHIPMONK","","","","","","2009","2009/05/28 00:00:00+00","148","1620","Natural","Natural","","2009/05/29 00:00:00+00","149","1713","0.5","B","39.01805556","-120.53972222","USFS","CA","61","06061","Placer County"
"-111.198322414","34.363605821","35010","35193","FS-1476402","FED","FS-FIRESTAT","FS","USAZTNF","Tonto National Forest","0312","Tonto National Forest","45","18","EKW0","ELLIS","","","","","","2009","2009/05/31 00:00:00+00","151","0832","Natural","Natural","","2009/05/31 00:00:00+00","151","1600","0.3","B","34.36361111","-111.19833333","USFS","AZ","7","04007","Gila County"
"-109.932489352","34.211939103","35011","35194","FS-1476403","FED","FS-FIRESTAT","FS","USAZASF","Apache-Sitgreaves National Forest","0301","Apache-Sitgreaves National Forest","15","004","3KV0","PORTER","","","","","","2009","2009/05/05 00:00:00+00","125","1600","Human","Recreation and ceremony","","2009/05/05 00:00:00+00","125","1700","0.1","A","34.21194444","-109.9325","USFS","AZ","17","04017","Navajo County"
"-120.369709186","38.901661477","35012","35195","FS-1476404","FED","FS-FIRESTAT","FS","USCAENF","Eldorado National Forest","0503","Eldorado National Forest","7","1","EW87","TELLS","","","","","","2009","2009/05/24 00:00:00+00","144","1419","Human","Recreation and ceremony","","2009/05/24 00:00:00+00","144","1530","0.1","A","38.90166667","-120.36972222","USFS","CA","17","06017","El Dorado County"
"-121.48054211","40.68360586","35013","35196","FS-1476405","FED","FS-FIRESTAT","FS","USCALNF","Lassen National Forest","0506","Lassen National Forest","11","007","EK1X","SUGARLOAF","","","","","","2009","2009/05/27 00:00:00+00","147","1600","Natural","Natural","","2009/05/28 00:00:00+00","148","1230","0.25","A","40.68361111","-121.48055556","USFS","CA","89","06089","Shasta County"
"-111.412488965","35.265550162","35014","35197","FS-1476408","FED","FS-FIRESTAT","FS","USAZCOF","Coconino National Forest","0304","Coconino National Forest","41","011","EKV3","CRUISER","","","","","","2009","2009/05/21 00:00:00+00","141","1400","Human","Arson/incendiarism","","2009/05/21 00:00:00+00","141","1415","0.1","A","35.26555556","-111.4125","USFS","AZ","5","04005","Coconino County"
"-111.475266723","35.377216811","35015","35198","FS-1476417","FED","FS-FIRESTAT","FS","USAZCOF","Coconino National Forest","0304","Coconino National Forest","46","014","EKV3","FIVE FORTY-SIX","","","","","","2009","2009/05/26 00:00:00+00","146","0755","Natural","Natural","","2009/05/26 00:00:00+00","146","1100","0.1","A","35.37722222","-111.47527778","USFS","AZ","5","04005","Coconino County"
"-111.473877829","35.421939025","35016","35199","FS-1476424","FED","FS-FIRESTAT","FS","USAZCOF","Coconino National Forest","0304","Coconino National Forest","47","015","EKV3","MERIDIAN","","","","","","2009","2009/05/26 00:00:00+00","146","0910","Natural","Natural","","2009/05/26 00:00:00+00","146","1100","0.1","A","35.42194444","-111.47388889","USFS","AZ","5","04005","Coconino County"
"-111.813877776","35.265550185","35017","35200","FS-1476431","FED","FS-FIRESTAT","FS","USAZCOF","Coconino National Forest","0304","Coconino National Forest","37","010","EKV3","TWO FLAT","","","","","","2009","2009/05/18 00:00:00+00","138","1518","Natural","Natural","","2009/05/18 00:00:00+00","138","1900","0.5","B","35.26555556","-111.81388889","USFS","AZ","5","04005","Coconino County"
"-109.769988144","44.457493386","35018","35201","FS-1476432","FED","FS-FIRESTAT","FS","USWYSHF","Shoshone National Forest","0214","Shoshone National Forest","7","007","EWL2","POWERLINE #1","","","","","","2009","2009/05/12 00:00:00+00","132","2050","Human","Power generation/transmission/distribution","","2009/05/13 00:00:00+00","133","0900","0.1","A","44.4575","-109.77","USFS","WY","29","56029","Park County"
"-105.608323454","36.084716366","35019","35202","FS-1476433","FED","FS-FIRESTAT","FS","USNMCAF","Carson National Forest","0302","Carson National Forest","27","27","EX31","SANTA BARBARA ACF #1","","","","","","2009","2009/05/31 00:00:00+00","151","1440","Human","Recreation and ceremony","","2009/05/31 00:00:00+00","151","1445","0.01","A","36.08472222","-105.60833333","USFS","NM","55","35055","Taos County"
"-111.707211126","35.274439058","35020","35203","FS-1476434","FED","FS-FIRESTAT","FS","USAZCOF","Coconino National Forest","0304","Coconino National Forest","44","013","EKV3","WOLVERINE","","","","","","2009","2009/05/25 00:00:00+00","145","1030","Human","Recreation and ceremony","","2009/05/25 00:00:00+00","145","1200","0.1","A","35.27444444","-111.70722222","USFS","AZ","5","04005","Coconino County"
"-111.554433383","35.195827949","35021","35204","FS-1476435","FED","FS-FIRESTAT","FS","USAZCOF","Coconino National Forest","0304","Coconino National Forest","55","018","EKV3","CASEY","","","","","","2009","2009/05/31 00:00:00+00","151","1433","Natural","Natural","","2009/05/31 00:00:00+00","151","1630","0.1","A","35.19583333","-111.55444444","USFS","AZ","5","04005","Coconino County"
"-111.860266648","35.365550175","35022","35205","FS-1476436","FED","FS-FIRESTAT","FS","USAZKNF","Kaibab National Forest","0307","Kaibab National Forest","6","004","EKV6","AL","","","","","","2009","2009/05/25 00:00:00+00","145","0744","Natural","Natural","","2009/05/25 00:00:00+00","145","1130","0.1","A","35.36555556","-111.86027778","USFS","AZ","5","04005","Coconino County"
"-92.623882544","31.009716669","35023","35206","FS-1476437","FED","FS-FIRESTAT","FS","USLAKIF","Kisatchie National Forest","0806","Kisatchie National Forest","26","D2/09","ETW2","026 FOOL","","","","","","2009","2009/04/01 00:00:00+00","91","1440","Human","Arson/incendiarism","","2009/04/01 00:00:00+00","91","1638","12","C","31.00972222","-92.62388889","USFS","LA","79","22079","Rapides Parish"
"-92.57471586","31.558605444","35024","35207","FS-1476438","FED","FS-FIRESTAT","FS","USLAKIF","Kisatchie National Forest","0806","Kisatchie National Forest","28","D1/11","EVT1","028 NEVER ENDING","","","","","","2009","2009/04/09 00:00:00+00","99","0745","Human","Arson/incendiarism","","2009/04/09 00:00:00+00","99","2100","2","B","31.55861111","-92.57472222","USFS","LA","43","22043","Grant Parish"
"-85.859439026","43.755269511","35025","35208","FS-1476439","FED","FS-FIRESTAT","FS","USMIHMF","Huron-Manistee National Forest","0904","Huron-Manistee National Forest","46","46","EK3D","14 MILE","","","","","","2009","2009/04/24 00:00:00+00","114","1440","Human","Recreation and ceremony","","2009/04/24 00:00:00+00","114","1530","0.25","A","43.75527778","-85.85944444","STATE OR PRIVATE","MI","123","26123","Newaygo County"
"-94.505547132","47.115825129","35026","35209","FS-1476440","FED","FS-FIRESTAT","FS","USMNCPF","Chippewa National Forest","0903","Chippewa National Forest","19","WR-10","EK3C","MIDWAY","","","","","","2009","2009/06/01 00:00:00+00","152","1822","Human","Arson/incendiarism","","2009/06/01 00:00:00+00","152","1927","0.1","A","47.11583333","-94.50555556","STATE OR PRIVATE","MN","21","27021","Cass County"
"-92.444438117","31.510272119","35027","35210","FS-1476441","FED","FS-FIRESTAT","FS","USLAKIF","Kisatchie National Forest","0806","Kisatchie National Forest","29","D1/12","EU21","029 STUART LAKE","","","","","","2009","2009/04/21 00:00:00+00","111","0700","Human","Arson/incendiarism","","2009/04/21 00:00:00+00","111","0800","1","B","31.51027778","-92.44444444","USFS","LA","43","22043","Grant Parish"
"-94.580547113","47.099158477","35028","35211","FS-1476442","FED","FS-FIRESTAT","FS","USMNCPF","Chippewa National Forest","0903","Chippewa National Forest","20","WR-11","EK3C","4TH STREET","","","","","","2009","2009/06/01 00:00:00+00","152","2029","Human","Missing data/not specified/undetermined","","2009/06/01 00:00:00+00","152","2110","0.1","A","47.09916667","-94.58055556","STATE OR PRIVATE","MN","21","27021","Cass County"
"-111.278877944","34.534161362","35029","35212","FS-1476443","FED","FS-FIRESTAT","FS","USAZCOF","Coconino National Forest","0304","Coconino National Forest","36","006","EKV3","ZELLA","","","","","","2009","2009/05/18 00:00:00+00","138","0958","Human","Missing data/not specified/undetermined","","2009/05/18 00:00:00+00","138","1600","0.4","B","34.53416667","-111.27888889","USFS","AZ","5","04005","Coconino County"
"-93.092493503","31.556661024","35030","35213","FS-1476444","FED","FS-FIRESTAT","FS","USLAKIF","Kisatchie National Forest","0806","Kisatchie National Forest","31","D3/03","EVZ2","031 J&H HYDROAXE","","","","","","2009","2009/04/27 00:00:00+00","117","1030","Human","Equipment and vehicle use","","2009/04/27 00:00:00+00","117","1500","1","B","31.55666667","-93.0925","STATE OR PRIVATE","LA","69","22069","Natchitoches Parish"
"-92.87443798","31.954160935","35031","35214","FS-1476445","FED","FS-FIRESTAT","FS","USLAKIF","Kisatchie National Forest","0806","Kisatchie National Forest","30","D4/06","EVT1","030 SAND POINT","","","","","","2009","2009/04/27 00:00:00+00","117","0700","Human","Debris and open burning","","2009/04/27 00:00:00+00","117","1630","1","B","31.95416667","-92.87444444","USFS","LA","127","22127","Winn Parish"
"-92.365827031","31.44527213","35032","35215","FS-1476446","FED","FS-FIRESTAT","FS","USLAKIF","Kisatchie National Forest","0806","Kisatchie National Forest","32","D1/13","EXU8","032 CLEAR CREEK RD","","","","","","2009","2009/05/29 00:00:00+00","149","0645","Human","Fireworks","","2009/05/29 00:00:00+00","149","0900","1","B","31.44527778","-92.36583333","USFS","LA","79","22079","Rapides Parish"
"-122.82831951","41.761383678","35033","35216","FS-1476447","FED","FS-FIRESTAT","FS","USCAKNF","Klamath National Forest","0505","Klamath National Forest","20","05","EK1W","DEADWOOD","","","","","","2009","2009/06/01 00:00:00+00","152","0625","Natural","Natural","","2009/06/01 00:00:00+00","152","1040","0.1","A","41.76138889","-122.82833333","USFS","CA","93","06093","Siskiyou County"
"-123.119152994","40.52305046","35034","35217","FS-1476448","FED","FS-FIRESTAT","FS","USCASHF","Shasta-Trinity National Forest","0514","Shasta-Trinity National Forest","17","4","EK15","STAR","","","","","","2009","2009/05/29 00:00:00+00","149","1910","Natural","Natural","","2009/05/30 00:00:00+00","150","1050","0.25","A","40.52305556","-123.11916667","USFS","CA","105","06105","Trinity County"
"-111.07471133","34.336939148","35035","35218","FS-1476452","FED","FS-FIRESTAT","FS","USAZTNF","Tonto National Forest","0312","Tonto National Forest","41","15","EKW0","DOUBTFUL","","","","","","2009","2009/05/30 00:00:00+00","150","1355","Natural","Natural","","2009/05/30 00:00:00+00","150","1800","0.1","A","34.33694444","-111.07472222","USFS","AZ","7","04007","Gila County"
"-119.681097246","44.876105386","35036","35219","FS-1476454","FED","FS-FIRESTAT","FS","USORUMF","Umatilla National Forest","0614","Umatilla National Forest","1","","EK2L","HAYSTACK","","","","","","2009","2009/05/29 00:00:00+00","149","0654","Natural","Natural","","2009/05/30 00:00:00+00","150","1220","0.25","A","44.87611111","-119.68111111","USFS","OR","69","41069","Wheeler County"
"-115.140541639","48.956104627","35037","35220","FS-1476456","FED","FS-FIRESTAT","FS","USMTKNF","Kootenai National Forest","0114","Kootenai National Forest","7","001","EV0Z","SOPHIE PINE","","","","","","2009","2009/04/30 00:00:00+00","120","1526","Human","Missing data/not specified/undetermined","","2009/04/30 00:00:00+00","120","1800","1.5","B","48.95611111","-115.14055556","STATE OR PRIVATE","MT","53","30053","Lincoln County"
"-115.209986075","48.917771307","35038","35221","FS-1476457","FED","FS-FIRESTAT","FS","USMTKNF","Kootenai National Forest","0114","Kootenai National Forest","10","002","EKT1","GREEN BOXES","","","","","","2009","2009/05/13 00:00:00+00","133","2000","Human","Missing data/not specified/undetermined","","2009/05/13 00:00:00+00","133","2153","1","B","48.91777778","-115.21","USFS","MT","53","30053","Lincoln County"
"-123.124152993","40.52582823","35039","35222","FS-1476458","FED","FS-FIRESTAT","FS","USCASHF","Shasta-Trinity National Forest","0514","Shasta-Trinity National Forest","18","5","EK15","TWENTY THREE","","","","","","2009","2009/05/29 00:00:00+00","149","1930","Natural","Natural","","2009/05/30 00:00:00+00","150","1245","0.5","B","40.52583333","-123.12416667","USFS","CA","105","06105","Trinity County"
"-118.502764034","45.316383018","35040","35223","FS-1476459","FED","FS-FIRESTAT","FS","USORWWF","Wallowa-Whitman National Forest","0616","Wallowa-Whitman National Forest","1","123","EK2N","RANGER","","","","","","2009","2009/06/01 00:00:00+00","152","1158","Natural","Natural","","2009/06/04 00:00:00+00","155","1207","0.6","B","45.31638889","-118.50277778","USFS","OR","61","41061","Union County"
"-119.206375055","45.14443865","35041","35224","FS-1476460","FED","FS-FIRESTAT","FS","USORUMF","Umatilla National Forest","0614","Umatilla National Forest","2","","EK2L","TAYLOR","","","","","","2009","2009/05/29 00:00:00+00","149","1214","Human","Missing data/not specified/undetermined","","2009/05/29 00:00:00+00","149","1520","0.1","A","45.14444444","-119.20638889","USFS","OR","49","41049","Morrow County"
"-115.21609717","48.974715743","35042","35225","FS-1476461","FED","FS-FIRESTAT","FS","USMTKNF","Kootenai National Forest","0114","Kootenai National Forest","11","003","EKT1","BORDER LANE","","","","","","2009","2009/05/18 00:00:00+00","138","1600","Human","Missing data/not specified/undetermined","","2009/05/18 00:00:00+00","138","1620","0.5","B","48.97472222","-115.21611111","STATE OR PRIVATE","MT","53","30053","Lincoln County"
"-116.833875426","45.419160626","35043","35226","FS-1476462","FED","FS-FIRESTAT","FS","USORWWF","Wallowa-Whitman National Forest","0616","Wallowa-Whitman National Forest","2","124","EK2N","WILDCAT","","","","","","2009","2009/05/30 00:00:00+00","150","1351","Natural","Natural","","2009/06/03 00:00:00+00","154","1318","1.5","B","45.41916667","-116.83388889","USFS","OR","63","41063","Wallowa County"
"-118.668041843","45.019716386","35044","35227","FS-1476463","FED","FS-FIRESTAT","FS","USORUMF","Umatilla National Forest","0614","Umatilla National Forest","3","","EK2L","WINOM","","","","","","2009","2009/05/29 00:00:00+00","149","2008","Natural","Natural","","2009/05/30 00:00:00+00","150","1102","0.1","A","45.01972222","-118.66805556","USFS","OR","59","41059","Umatilla County"
"-119.17387507","45.09582754","35045","35228","FS-1476464","FED","FS-FIRESTAT","FS","USORUMF","Umatilla National Forest","0614","Umatilla National Forest","4","","EK2L","MATLOCK","","","","","","2009","2009/05/30 00:00:00+00","150","1540","Natural","Natural","","2009/05/31 00:00:00+00","151","1324","0.1","A","45.09583333","-119.17388889","USFS","OR","49","41049","Morrow County"
"-122.574708549","41.041939256","35046","35229","FS-1476465","FED","FS-FIRESTAT","FS","USCASHF","Shasta-Trinity National Forest","0514","Shasta-Trinity National Forest","26","1","EK15","WILDCAT","","","","","","2009","2009/06/01 00:00:00+00","152","1242","Natural","Natural","","2009/06/01 00:00:00+00","152","1400","0.25","A","41.04194444","-122.57472222","STATE OR PRIVATE","CA","105","06105","Trinity County"
"-106.232767739","36.368327471","35047","35230","FS-1476468","FED","FS-FIRESTAT","FS","USNMCAF","Carson National Forest","0302","Carson National Forest","13","1","EKV1","STONE","","","","","","2009","2009/05/16 00:00:00+00","136","1600","Natural","Natural","","2009/05/16 00:00:00+00","136","1730","0.1","A","36.36833333","-106.23277778","USFS","NM","39","35039","Rio Arriba County"
"-110.500822758","31.439995094","35048","35231","FS-1476469","FED","FS-FIRESTAT","FS","USAZCNF","Coronado National Forest","0305","Coronado National Forest","26","03-015","EV5T","A-BAR","","","","","","2009","2009/05/07 00:00:00+00","127","1045","Human","Recreation and ceremony","","2009/05/17 00:00:00+00","137","1830","16.4","C","31.44","-110.50083333","USFS","AZ","23","04023","Santa Cruz County"
"-123.11943076","40.548328228","35049","35232","FS-1476470","FED","FS-FIRESTAT","FS","USCASHF","Shasta-Trinity National Forest","0514","Shasta-Trinity National Forest","20","7","EK15","EAST","","","","","","2009","2009/05/29 00:00:00+00","149","2000","Natural","Natural","","2009/05/30 00:00:00+00","150","1700","0.34","B","40.54833333","-123.11944444","USFS","CA","105","06105","Trinity County"
"-123.124430763","40.52610601","35050","35233","FS-1476471","FED","FS-FIRESTAT","FS","USCASHF","Shasta-Trinity National Forest","0514","Shasta-Trinity National Forest","19","6","EK15","NORTH","","","","","","2009","2009/05/29 00:00:00+00","149","1900","Natural","Natural","","2009/05/29 00:00:00+00","149","2200","0.1","A","40.52611111","-123.12444444","USFS","CA","105","06105","Trinity County"
"-84.138606906","35.063048838","35051","35234","FS-1476472","FED","FS-FIRESTAT","FS","USNCNCF","National Forests in North Carolina","0811","National Forests in North Carolina","56","12","EK26","TABBY LANE","","","","","","2009","2009/04/17 00:00:00+00","107","1525","Human","Debris and open burning","","2009/04/17 00:00:00+00","107","1650","0.7","B","35.06305556","-84.13861111","MISSING/NOT SPECIFIED","NC","39","37039","Cherokee County"
"-83.616662443","37.848326021","35052","35235","FS-1476473","FED","FS-FIRESTAT","FS","USKYDBF","Daniel Boone National Forest","0802","Daniel Boone National Forest","27","27","EVB1","KLABER","2009_KY-DBF-090058_KLAYBER","","","","","2009","2009/04/24 00:00:00+00","114","1530","Human","Recreation and ceremony","","2009/04/29 00:00:00+00","119","1800","132","D","37.84833333","-83.61666667","USFS","KY","165","21165","Menifee County"
"-84.061106929","35.058048836","35053","35236","FS-1476474","FED","FS-FIRESTAT","FS","USNCNCF","National Forests in North Carolina","0811","National Forests in North Carolina","58","13","EK26","HALEY ROAD","","","","","","2009","2009/04/21 00:00:00+00","111","1545","Human","Debris and open burning","","2009/04/21 00:00:00+00","111","1650","0.5","B","35.05805556","-84.06111111","MISSING/NOT SPECIFIED","NC","39","37039","Cherokee County"
"-83.909718083","35.062493269","35054","35237","FS-1476475","FED","FS-FIRESTAT","FS","USNCNCF","National Forests in North Carolina","0811","National Forests in North Carolina","63","14","EK26","SCENIC","","","","","","2009","2009/04/24 00:00:00+00","114","1530","Human","Debris and open burning","","2009/04/24 00:00:00+00","114","1715","2","B","35.0625","-83.90972222","MISSING/NOT SPECIFIED","NC","43","37043","Clay County"
"-83.619440386","35.088326583","35055","35238","FS-1476476","FED","FS-FIRESTAT","FS","USNCNCF","National Forests in North Carolina","0811","National Forests in North Carolina","71","15","EVN6","CHESTNUT BRANCH","","","","","","2009","2009/04/27 00:00:00+00","117","1545","Human","Missing data/not specified/undetermined","","2009/04/27 00:00:00+00","117","2300","250","D","35.08833333","-83.61944444","USFS","NC","43","37043","Clay County"
"-83.450829132","38.134714848","35056","35239","FS-1476477","FED","FS-FIRESTAT","FS","USKYDBF","Daniel Boone National Forest","0802","Daniel Boone National Forest","28","28","EK2U","AMBURGY","","","","","","2009","2009/04/25 00:00:00+00","115","2100","Human","Missing data/not specified/undetermined","","2009/04/26 00:00:00+00","116","1230","3.5","B","38.13472222","-83.45083333","USFS","KY","205","21205","Rowan County"
"-118.776931756","38.169439195","35057","35240","FS-1476479","FED","FS-FIRESTAT","FS","USNVHTF","Humboldt-Toiyabe National Forest","0417","Humboldt-Toiyabe National Forest","6","D2-11-2009","EK1P","POLELINE","","","","","","2009","2009/05/31 00:00:00+00","151","1515","Natural","Natural","","2009/05/31 00:00:00+00","151","1815","0.1","A","38.16944444","-118.77694444","USFS","NV","21","32021","Mineral County"
"-110.598600524","31.337772893","35058","35241","FS-1476480","FED","FS-FIRESTAT","FS","USAZCNF","Coronado National Forest","0305","Coronado National Forest","21","03-011","EV3Q","SANTA CRUZ","","","","","","2009","2009/05/04 00:00:00+00","124","1130","Human","Recreation and ceremony","","2009/05/04 00:00:00+00","124","1730","36","C","31.33777778","-110.59861111","STATE OR PRIVATE","AZ","23","04023","Santa Cruz County"
"-110.354989462","31.365550659","35059","35242","FS-1476481","FED","FS-FIRESTAT","FS","USAZCNF","Coronado National Forest","0305","Coronado National Forest","44","03-023","EKV4","COPPER CANYON","","","","","","2009","2009/05/29 00:00:00+00","149","1300","Natural","Natural","","2009/05/29 00:00:00+00","149","1630","0.1","A","31.36555556","-110.355","USFS","AZ","3","04003","Cochise County"
"-123.216652919","40.937217099","35060","35243","FS-1476482","FED","FS-FIRESTAT","FS","USCASHF","Shasta-Trinity National Forest","0514","Shasta-Trinity National Forest","21","5","EK15","DEVILS","","","","","","2009","2009/05/30 00:00:00+00","150","1545","Natural","Natural","","2009/06/01 00:00:00+00","152","0940","0.5","B","40.93722222","-123.21666667","USFS","CA","105","06105","Trinity County"
"-105.362490435","32.739994656","35061","35244","FS-1476483","FED","FS-FIRESTAT","FS","USNMLNF","Lincoln National Forest","0308","Lincoln National Forest","14","P3EWT4","EWT4","CHIMNEY","","","","","","2009","2009/05/15 00:00:00+00","135","1800","Natural","Natural","","2009/05/18 00:00:00+00","138","1700","104","D","32.74","-105.3625","USFS","NM","35","35035","Otero County"
"-120.907486748","39.913883654","35062","35245","FS-1476484","FED","FS-FIRESTAT","FS","USCAPNF","Plumas National Forest","0511","Plumas National Forest","20","PNF 287","EK12","BRANCH","","","","","","2009","2009/05/29 00:00:00+00","149","1700","Natural","Natural","","2009/05/29 00:00:00+00","149","2200","0.1","A","39.91388889","-120.9075","USFS","CA","63","06063","Plumas County"
"-110.360545022","31.334717323","35063","35246","FS-1476485","FED","FS-FIRESTAT","FS","USAZCNF","Coronado National Forest","0305","Coronado National Forest","12","03-006","EUT6","103 FIRE","","","","","","2009","2009/04/18 00:00:00+00","108","1120","Human","Recreation and ceremony","","2009/04/18 00:00:00+00","108","1730","314","E","31.33472222","-110.36055556","MISSING/NOT SPECIFIED","AZ","3","04003","Cochise County"
"-123.451930657","40.91860601","35064","35247","FS-1476486","FED","FS-FIRESTAT","FS","USCASHF","Shasta-Trinity National Forest","0514","Shasta-Trinity National Forest","27","6","EK15","DYER","","","","","","2009","2009/06/01 00:00:00+00","152","1500","Natural","Natural","","2009/06/02 00:00:00+00","153","1400","0.25","A","40.91861111","-123.45194444","USFS","CA","105","06105","Trinity County"
"-115.800542587","43.82221621","35065","35248","FS-1476487","FED","FS-FIRESTAT","FS","USIDBOF","Boise National Forest","0402","Boise National Forest","3","216","EW6G","BANNOCK CREEK","","","","","","2009","2009/05/22 00:00:00+00","142","1102","Human","Missing data/not specified/undetermined","","2009/05/22 00:00:00+00","142","1401","0.1","A","43.82222222","-115.80055556","USFS","ID","15","16015","Boise County"
"-115.477209261","44.088882827","35066","35249","FS-1476488","FED","FS-FIRESTAT","FS","USIDBOF","Boise National Forest","0402","Boise National Forest","4","234","EKW2","JACKSON CREEK","","","","","","2009","2009/05/31 00:00:00+00","151","1930","Natural","Natural","","2009/06/10 00:00:00+00","161","1300","0.1","A","44.08888889","-115.47722222","USFS","ID","15","16015","Boise County"
"-107.103045186","37.818605098","35067","35250","FS-1476489","FED","FS-FIRESTAT","FS","USCORGF","Rio Grande National Forest","0209","Rio Grande National Forest","1","508","EWB0","SANTA MARIA","","","","","","2009","2009/05/11 00:00:00+00","131","1506","Human","Equipment and vehicle use","","2009/05/14 00:00:00+00","134","1447","20.1","C","37.81861111","-107.10305556","MISSING/NOT SPECIFIED","CO","79","08079","Mineral County"
"-111.25471129","34.39360582","35068","35251","FS-1476493","FED","FS-FIRESTAT","FS","USAZTNF","Tonto National Forest","0312","Tonto National Forest","44","17","EKW0","DUDE","","","","","","2009","2009/05/31 00:00:00+00","151","0807","Natural","Natural","","2009/05/31 00:00:00+00","151","1500","1.2","B","34.39361111","-111.25472222","USFS","AZ","7","04007","Gila County"
"-120.754153561","39.011939267","35069","35252","FS-1476495","FED","FS-FIRESTAT","FS","USCATNF","Tahoe National Forest","0517","Tahoe National Forest","3","001","ETM3","FOREST","","","","","","2009","2009/03/28 00:00:00+00","87","1523","Human","Missing data/not specified/undetermined","","2009/03/28 00:00:00+00","87","1533","0.25","A","39.01194444","-120.75416667","USFS","CA","61","06061","Placer County"
"-122.650819631","41.151383705","35070","35253","FS-1476497","FED","FS-FIRESTAT","FS","USCASHF","Shasta-Trinity National Forest","0514","Shasta-Trinity National Forest","32","3","EK15","RAMSHORN","","","","","","2009","2009/06/02 00:00:00+00","153","1430","Natural","Natural","","2009/06/02 00:00:00+00","153","1440","0.25","A","41.15138889","-122.65083333","USFS","CA","105","06105","Trinity County"
"-122.830819474","41.982216993","35071","35255","FS-1476500","FED","FS-FIRESTAT","FS","USCAKNF","Klamath National Forest","0505","Klamath National Forest","17","04","EK1W","FAT DOE","","","","","","2009","2009/05/31 00:00:00+00","151","1931","Natural","Natural","","2009/06/01 00:00:00+00","152","1500","0.1","A","41.98222222","-122.83083333","USFS","CA","93","06093","Siskiyou County"
"-112.02971075","38.389994247","35072","35256","FS-1476501","FED","FS-FIRESTAT","FS","USUTFIF","Fishlake National Forest","0408","Fishlake National Forest","1","RIF 1","ERZ1","THOMPSON BASIN","","","","","","2009","2009/01/23 00:00:00+00","23","1928","Human","Recreation and ceremony","","2009/01/24 00:00:00+00","24","0945","0.1","A","38.39","-112.02972222","USFS","UT","41","49041","Sevier County"
"-123.076930564","41.876939242","35073","35257","FS-1476502","FED","FS-FIRESTAT","FS","USCAKNF","Klamath National Forest","0505","Klamath National Forest","21","06","EK1W","HORSE","","","","","","2009","2009/06/01 00:00:00+00","152","1140","Natural","Natural","","2009/06/01 00:00:00+00","152","1430","0.1","A","41.87694444","-123.07694444","USFS","CA","93","06093","Siskiyou County"
"-122.909986163","41.785828123","35074","35258","FS-1476504","FED","FS-FIRESTAT","FS","USCAKNF","Klamath National Forest","0505","Klamath National Forest","15","03","EK1W","MCKINNEY","","","","","","2009","2009/05/31 00:00:00+00","151","2000","Natural","Natural","","2009/05/31 00:00:00+00","151","2330","0.1","A","41.78583333","-122.91","STATE OR PRIVATE","CA","93","06093","Siskiyou County"
"-122.778875071","41.800272561","35075","35259","FS-1476505","FED","FS-FIRESTAT","FS","USCAKNF","Klamath National Forest","0505","Klamath National Forest","29","07","EK1W","RIDER","","","","","","2009","2009/06/02 00:00:00+00","153","1500","Natural","Natural","","2009/06/02 00:00:00+00","153","1840","0.1","A","41.80027778","-122.77888889","USFS","CA","93","06093","Siskiyou County"
"-121.126097742","40.499439175","35076","35260","FS-1476506","FED","FS-FIRESTAT","FS","USCALNF","Lassen National Forest","0506","Lassen National Forest","13","05","EXT4","WHEELBARROW 2","","","","","","2009","2009/05/28 00:00:00+00","148","1045","Human","Arson/incendiarism","","2009/05/28 00:00:00+00","148","1503","0.1","A","40.49944444","-121.12611111","USFS","CA","35","06035","Lassen County"
"-119.000265124","37.599717045","35077","35261","FS-1476507","FED","FS-FIRESTAT","FS","USCAINF","Inyo National Forest","0504","Inyo National Forest","7","499","EX8B","PACK STATION","","","","","","2009","2009/06/01 00:00:00+00","152","2237","Human","Equipment and vehicle use","","2009/06/02 00:00:00+00","153","0312","0.1","A","37.59972222","-119.00027778","USFS","CA","51","06051","Mono County"
"-110.906378081","33.734161452","35078","35262","FS-1476508","FED","FS-FIRESTAT","FS","USAZTNF","Tonto National Forest","0312","Tonto National Forest","40","5","EKW0","HACK","","","","","","2009","2009/05/30 00:00:00+00","150","1340","Natural","Natural","","2009/06/01 00:00:00+00","152","1300","0.1","A","33.73416667","-110.90638889","USFS","AZ","7","04007","Gila County"
"-114.144431399","45.909438093","35079","35263","FS-1476509","FED","FS-FIRESTAT","FS","USMTBRF","Bitterroot National Forest","0103","Bitterroot National Forest","3","3","EKS4","CONNER","","","","","","2009","2009/05/29 00:00:00+00","149","1645","Natural","Natural","","2009/05/30 00:00:00+00","150","1429","0.01","A","45.90944444","-114.14444444","USFS","MT","81","30081","Ravalli County"
"-122.015264135","41.431661409","35080","35264","FS-1476513","FED","FS-FIRESTAT","FS","USCASHF","Shasta-Trinity National Forest","0514","Shasta-Trinity National Forest","22","2","EK15","SWAMP","","","","","","2009","2009/05/30 00:00:00+00","150","1600","Natural","Natural","","2009/05/30 00:00:00+00","150","1900","1.1","B","41.43166667","-122.01527778","USFS","CA","93","06093","Siskiyou County"
"-121.094708857","40.495550292","35081","35265","FS-1476514","FED","FS-FIRESTAT","FS","USCALNF","Lassen National Forest","0506","Lassen National Forest","15","3","EXT6","WHEEL BARREL 4","","","","","","2009","2009/05/28 00:00:00+00","148","1030","Human","Arson/incendiarism","","2009/05/28 00:00:00+00","148","1115","0.1","A","40.49555556","-121.09472222","USFS","CA","35","06035","Lassen County"
"-106.040545531","36.694438522","35082","35266","FS-1476516","FED","FS-FIRESTAT","FS","USNMCAF","Carson National Forest","0302","Carson National Forest","14","14","EKV1","ESQUIBEL","","","","","","2009","2009/05/19 00:00:00+00","139","1430","Natural","Natural","","2009/05/20 00:00:00+00","140","1400","0.5","B","36.69444444","-106.04055556","USFS","NM","39","35039","Rio Arriba County"
"-106.119989957","36.661660761","35083","35267","FS-1476517","FED","FS-FIRESTAT","FS","USNMCAF","Carson National Forest","0302","Carson National Forest","28","28","EKV1","SAMBRANO","","","","","","2009","2009/06/01 00:00:00+00","152","1630","Natural","Natural","","2009/06/02 00:00:00+00","153","1230","0.1","A","36.66166667","-106.12","USFS","NM","39","35039","Rio Arriba County"
"-122.019152531","44.309716763","35084","35268","FS-1476518","FED","FS-FIRESTAT","FS","USORWIF","Willamette National Forest","0618","Willamette National Forest","1","MR01","EX9T","BLUE DAY","","","","","","2009","2009/05/21 00:00:00+00","141","1500","Human","Recreation and ceremony","","2009/05/21 00:00:00+00","141","1730","0.1","A","44.30972222","-122.01916667","USFS","OR","43","41043","Linn County"
"-106.168323287","36.546383001","35085","35269","FS-1476519","FED","FS-FIRESTAT","FS","USNMCAF","Carson National Forest","0302","Carson National Forest","29","29","EKV1","ASPEN","","","","","","2009","2009/06/01 00:00:00+00","152","1700","Natural","Natural","","2009/06/02 00:00:00+00","153","1530","0.1","A","36.54638889","-106.16833333","USFS","NM","39","35039","Rio Arriba County"
"-123.464986278","40.490550491","35086","35270","FS-1476520","FED","FS-FIRESTAT","FS","USCASHF","Shasta-Trinity National Forest","0514","Shasta-Trinity National Forest","39","10","EK15","SULPHUR","","","","","","2009","2009/06/02 00:00:00+00","153","1256","Natural","Natural","","2009/06/03 00:00:00+00","154","1200","0.1","A","40.49055556","-123.465","USFS","CA","105","06105","Trinity County"
"-115.457764117","47.604160319","35087","35271","FS-1476521","FED","FS-FIRESTAT","FS","USMTLNF","Lolo National Forest","0116","Lolo National Forest","11","01","EX6A","CLEAR CREEK # 1","","","","","","2009","2009/06/01 00:00:00+00","152","1235","Human","Recreation and ceremony","","2009/06/01 00:00:00+00","152","1415","0.1","A","47.60416667","-115.45777778","USFS","MT","89","30089","Sanders County"
"-123.022486344","40.479161565","35088","35272","FS-1476522","FED","FS-FIRESTAT","FS","USCASHF","Shasta-Trinity National Forest","0514","Shasta-Trinity National Forest","30","8","EK15","CHANCHELULLA","","","","","","2009","2009/06/02 00:00:00+00","153","1255","Natural","Natural","","2009/06/02 00:00:00+00","153","2200","0.1","A","40.47916667","-123.0225","USFS","CA","105","06105","Trinity County"
"-123.26220853","40.471106025","35089","35273","FS-1476523","FED","FS-FIRESTAT","FS","USCASHF","Shasta-Trinity National Forest","0514","Shasta-Trinity National Forest","38","9","EYB1","ROUDY","","","","","","2009","2009/06/03 00:00:00+00","154","1140","Human","Debris and open burning","","2009/06/03 00:00:00+00","154","1900","0.1","A","40.47111111","-123.26222222","STATE OR PRIVATE","CA","105","06105","Trinity County"
"-120.081931503","38.490550381","35090","35274","FS-1476524","FED","FS-FIRESTAT","FS","USCASTF","Stanislaus National Forest","0516","Stanislaus National Forest","9","005","EK17","CORRAL","","","","","","2009","2009/05/31 00:00:00+00","151","1504","Natural","Natural","","2009/06/01 00:00:00+00","152","1104","0.01","A","38.49055556","-120.08194444","USFS","CA","9","06009","Calaveras County"
"-120.175820381","38.46888372","35091","35275","FS-1476525","FED","FS-FIRESTAT","FS","USCASTF","Stanislaus National Forest","0516","Stanislaus National Forest","7","003","EK17","SHOVEL","","","","","","2009","2009/05/30 00:00:00+00","150","0958","Natural","Natural","","2009/06/04 00:00:00+00","155","1500","0.1","A","38.46888889","-120.17583333","USFS","CA","9","06009","Calaveras County"
"-121.179431104","40.216105872","35092","35276","FS-1476526","FED","FS-FIRESTAT","FS","USCALNF","Lassen National Forest","0506","Lassen National Forest","7","03","EW7Q","SPACE 44","","","","","","2009","2009/05/22 00:00:00+00","142","1400","Human","Recreation and ceremony","","2009/05/22 00:00:00+00","142","1420","0.1","A","40.21611111","-121.17944444","USFS","CA","63","06063","Plumas County"
"-120.115264839","38.481383715","35093","35277","FS-1476527","FED","FS-FIRESTAT","FS","USCASTF","Stanislaus National Forest","0516","Stanislaus National Forest","5","001","EK17","SALT","","","","","","2009","2009/05/29 00:00:00+00","149","1332","Natural","Natural","","2009/06/04 00:00:00+00","155","1500","0.1","A","38.48138889","-120.11527778","USFS","CA","9","06009","Calaveras County"
"-120.095264845","38.456939265","35094","35278","FS-1476528","FED","FS-FIRESTAT","FS","USCASTF","Stanislaus National Forest","0516","Stanislaus National Forest","8","004","EK17","7-11","","","","","","2009","2009/05/30 00:00:00+00","150","1502","Natural","Natural","","2009/06/01 00:00:00+00","152","1057","0.01","A","38.45694444","-120.09527778","USFS","CA","9","06009","Calaveras County"
"-122.270263653","44.038605695","35095","35279","FS-1476529","FED","FS-FIRESTAT","FS","USORWIF","Willamette National Forest","0618","Willamette National Forest","3","MR 02","EX9V","CIGARETTE - CAR FIRE","","","","","","2009","2009/05/26 00:00:00+00","146","1300","Human","Smoking","","2009/05/26 00:00:00+00","146","1400","0.1","A","44.03861111","-122.27027778","USFS","OR","39","41039","Lane County"
"-121.577486429","41.394716924","35096","35280","FS-1476530","FED","FS-FIRESTAT","FS","USCASHF","Shasta-Trinity National Forest","0514","Shasta-Trinity National Forest","25","3","EK15","RED","","","","","","2009","2009/05/31 00:00:00+00","151","1200","Natural","Natural","","2009/05/31 00:00:00+00","151","1630","0.1","A","41.39472222","-121.5775","STATE OR PRIVATE","CA","93","06093","Siskiyou County"
"-85.778605743","43.543880651","35097","35281","FS-1476531","FED","FS-FIRESTAT","FS","USMIHMF","Huron-Manistee National Forest","0904","Huron-Manistee National Forest","70","70","EK3D","TOWNLINE","","","","","","2009","2009/05/12 00:00:00+00","132","1550","Human","Recreation and ceremony","","2009/05/12 00:00:00+00","132","1606","0.8","B","43.54388889","-85.77861111","STATE OR PRIVATE","MI","123","26123","Newaygo County"
"-121.520264375","40.327494781","35098","35282","FS-1476532","FED","FS-FIRESTAT","FS","USCALNF","Lassen National Forest","0506","Lassen National Forest","25","07","EK6X","BIRCH","","","","","","2009","2009/06/01 00:00:00+00","152","1400","Human","Debris and open burning","","2009/06/01 00:00:00+00","152","1540","0.1","A","40.3275","-121.52027778","STATE OR PRIVATE","CA","103","06103","Tehama County"
"-122.695819632","41.098883712","35099","35283","FS-1476533","FED","FS-FIRESTAT","FS","USCASHF","Shasta-Trinity National Forest","0514","Shasta-Trinity National Forest","31","02","EK15","SCORPION","","","","","","2009","2009/06/02 00:00:00+00","153","1330","Natural","Natural","","2009/06/02 00:00:00+00","153","1400","0.25","A","41.09888889","-122.69583333","STATE OR PRIVATE","CA","105","06105","Trinity County"
"-120.383042365","40.112772485","35100","35284","FS-1476534","FED","FS-FIRESTAT","FS","USCAPNF","Plumas National Forest","0511","Plumas National Forest","9","151","EK12","MILFORD GRADE","2009_CA-PNF-000151_MILFORD","","","","","2009","2009/04/22 00:00:00+00","112","1422","Natural","Natural","","2009/04/22 00:00:00+00","112","2200","226","D","40.11277778","-120.38305556","USFS","CA","35","06035","Lassen County"
"-109.276378386","34.094716864","35101","35285","FS-1476535","FED","FS-FIRESTAT","FS","USAZASF","Apache-Sitgreaves National Forest","0301","Apache-Sitgreaves National Forest","20","10","EKV0","JUNIPER","","","","","","2009","2009/05/13 00:00:00+00","133","0530","Human","Debris and open burning","","2009/05/13 00:00:00+00","133","0730","1.4","B","34.09472222","-109.27638889","MISSING/NOT SPECIFIED","AZ","1","04001","Apache County"
"-121.593597044","44.281938943","35102","35286","FS-1476536","FED","FS-FIRESTAT","FS","USORDEF","Deschutes National Forest","0601","Deschutes National Forest","14","5-003","EW4D","0080","","","","","","2009","2009/05/20 00:00:00+00","140","1330","Human","Missing data/not specified/undetermined","","2009/05/22 00:00:00+00","142","1300","1.6","B","44.28194444","-121.59361111","USFS","OR","17","41017","Deschutes County"
"-121.363042105","40.841383618","35103","35287","FS-1476537","FED","FS-FIRESTAT","FS","USCALNF","Lassen National Forest","0506","Lassen National Forest","10","006","EK1X","GIBB","","","","","","2009","2009/05/27 00:00:00+00","147","1545","Natural","Natural","","2009/05/27 00:00:00+00","147","1830","0.1","A","40.84138889","-121.36305556","USFS","CA","35","06035","Lassen County"
"-121.229153245","40.780272501","35104","35288","FS-1476538","FED","FS-FIRESTAT","FS","USCALNF","Lassen National Forest","0506","Lassen National Forest","17","08","EK1X","GHOST","","","","","","2009","2009/05/29 00:00:00+00","149","0830","Natural","Natural","","2009/05/29 00:00:00+00","149","1700","0.1","A","40.78027778","-121.22916667","STATE OR PRIVATE","CA","35","06035","Lassen County"
"-120.485542393","39.784716961","35105","35289","FS-1476539","FED","FS-FIRESTAT","FS","USCAPNF","Plumas National Forest","0511","Plumas National Forest","8","147","EU2K","SEMAPHORE","","","","","","2009","2009/04/20 00:00:00+00","110","1430","Human","Debris and open burning","","2009/04/20 00:00:00+00","110","1630","1","B","39.78472222","-120.48555556","STATE OR PRIVATE","CA","63","06063","Plumas County"
"-109.407767252","34.057494657","35106","35290","FS-1476540","FED","FS-FIRESTAT","FS","USAZASF","Apache-Sitgreaves National Forest","0301","Apache-Sitgreaves National Forest","21","11","EVK0","59","","","","","","2009","2009/05/14 00:00:00+00","134","1025","Human","Missing data/not specified/undetermined","","2009/05/15 00:00:00+00","135","1600","0.5","B","34.0575","-109.40777778","USFS","AZ","1","04001","Apache County"
"-109.55998944","34.060550224","35107","35291","FS-1476541","FED","FS-FIRESTAT","FS","USAZASF","Apache-Sitgreaves National Forest","0301","Apache-Sitgreaves National Forest","24","13","EVK0","SHEEP","","","","","","2009","2009/05/16 00:00:00+00","136","1130","Human","Recreation and ceremony","","2009/05/16 00:00:00+00","136","1344","0.1","A","34.06055556","-109.56","USFS","AZ","1","04001","Apache County"
"-109.221933947","34.098883531","35108","35292","FS-1476542","FED","FS-FIRESTAT","FS","USAZASF","Apache-Sitgreaves National Forest","0301","Apache-Sitgreaves National Forest","25","14","EVK0","PICNIC","","","","","","2009","2009/05/17 00:00:00+00","137","0100","Human","Recreation and ceremony","","2009/05/17 00:00:00+00","137","1249","0.1","A","34.09888889","-109.22194444","USFS","AZ","1","04001","Apache County"
"-120.4552646","39.913605837","35109","35293","FS-1476543","FED","FS-FIRESTAT","FS","USCAPNF","Plumas National Forest","0511","Plumas National Forest","24","295","EK12","CROCKER","","","","","","2009","2009/05/30 00:00:00+00","150","0800","Natural","Natural","","2009/05/31 00:00:00+00","151","1739","0.1","A","39.91361111","-120.45527778","USFS","CA","63","06063","Plumas County"
"-109.441378375","33.794439136","35110","35294","FS-1476544","FED","FS-FIRESTAT","FS","USAZASF","Apache-Sitgreaves National Forest","0301","Apache-Sitgreaves National Forest","26","15","EVK0","WEST","","","","","","2009","2009/05/17 00:00:00+00","137","1540","Natural","Natural","","2009/05/18 00:00:00+00","138","1936","0.1","A","33.79444444","-109.44138889","USFS","AZ","1","04001","Apache County"
"-120.358042378","40.048883598","35111","35295","FS-1476545","FED","FS-FIRESTAT","FS","USCAPNF","Plumas National Forest","0511","Plumas National Forest","25","308","EK12","CONKLIN","","","","","","2009","2009/05/30 00:00:00+00","150","1545","Natural","Natural","","2009/05/30 00:00:00+00","150","1745","0.1","A","40.04888889","-120.35805556","USFS","CA","63","06063","Plumas County"
"-109.428322815","33.825272471","35112","35296","FS-1476546","FED","FS-FIRESTAT","FS","USAZASF","Apache-Sitgreaves National Forest","0301","Apache-Sitgreaves National Forest","27","16","EVK0","CONKLIN","","","","","","2009","2009/05/17 00:00:00+00","137","1620","Natural","Natural","","2009/05/18 00:00:00+00","138","1533","0.1","A","33.82527778","-109.42833333","USFS","AZ","1","04001","Apache County"
"-120.352486806","40.13943914","35113","35297","FS-1476547","FED","FS-FIRESTAT","FS","USCAPNF","Plumas National Forest","0511","Plumas National Forest","16","271","EK12","GRAY","","","","","","2009","2009/05/28 00:00:00+00","148","1552","Natural","Natural","","2009/05/28 00:00:00+00","148","1630","0.01","A","40.13944444","-120.3525","STATE OR PRIVATE","CA","63","06063","Plumas County"
"-121.192764363","40.764994719","35114","35298","FS-1476548","FED","FS-FIRESTAT","FS","USCALNF","Lassen National Forest","0506","Lassen National Forest","23","11","EK1X","BLACK","","","","","","2009","2009/05/31 00:00:00+00","151","1700","Natural","Natural","","2009/05/31 00:00:00+00","151","1915","0.1","A","40.765","-121.19277778","USFS","CA","35","06035","Lassen County"
"-117.884710059","34.459995078","35115","35299","FS-1476549","FED","FS-FIRESTAT","FS","USCAANF","Angeles National Forest","0501","Angeles National Forest","63","37","EN0A","BUSH","","","","","","2009","2009/06/03 00:00:00+00","154","2030","Natural","Natural","","2009/06/03 00:00:00+00","154","2040","0.1","A","34.46","-117.88472222","MISSING/NOT SPECIFIED","CA","37","06037","Los Angeles County"
"-121.238319905","40.769716943","35116","35300","FS-1476550","FED","FS-FIRESTAT","FS","USCALNF","Lassen National Forest","0506","Lassen National Forest","24","12","EK1X","HALLS","","","","","","2009","2009/05/31 00:00:00+00","151","1915","Natural","Natural","","2009/05/31 00:00:00+00","151","2000","0.1","A","40.76972222","-121.23833333","STATE OR PRIVATE","CA","35","06035","Lassen County"
"-117.839987849","34.434161749","35117","35301","FS-1476551","FED","FS-FIRESTAT","FS","USCAANF","Angeles National Forest","0501","Angeles National Forest","44","29","EN0A","PINYON","","","","","","2009","2009/05/30 00:00:00+00","150","1724","Natural","Natural","","2009/05/30 00:00:00+00","150","1728","0.1","A","34.43416667","-117.84","MISSING/NOT SPECIFIED","CA","37","06037","Los Angeles County"
"-121.249153238","40.808605831","35118","35302","FS-1476552","FED","FS-FIRESTAT","FS","USCALNF","Lassen National Forest","0506","Lassen National Forest","31","18","EK1X","BEAVER","","","","","","2009","2009/06/02 00:00:00+00","153","1630","Natural","Natural","","2009/06/02 00:00:00+00","153","1830","0.1","A","40.80861111","-121.24916667","USFS","CA","35","06035","Lassen County"
"-118.676098807","34.571384002","35119","35303","FS-1476553","FED","FS-FIRESTAT","FS","USCAANF","Angeles National Forest","0501","Angeles National Forest","46","31","EX4H","DOE","","","","","","2009","2009/05/30 00:00:00+00","150","0011","Human","Arson/incendiarism","","2009/05/30 00:00:00+00","150","0030","0.1","A","34.57138889","-118.67611111","USFS","CA","37","06037","Los Angeles County"
"-123.053041939","40.204994917","35120","35304","FS-1476554","FED","FS-FIRESTAT","FS","USCASHF","Shasta-Trinity National Forest","0514","Shasta-Trinity National Forest","16","3","EK15","HERMIT","","","","","","2009","2009/05/30 00:00:00+00","150","0826","Natural","Natural","","2009/05/30 00:00:00+00","150","1243","0.1","A","40.205","-123.05305556","USFS","CA","105","06105","Trinity County"
"-120.309709074","39.841105832","35121","35305","FS-1476555","FED","FS-FIRESTAT","FS","USCAPNF","Plumas National Forest","0511","Plumas National Forest","27","317","EK12","SUGARLOAF","","","","","","2009","2009/06/02 00:00:00+00","153","1730","Natural","Natural","","2009/06/02 00:00:00+00","153","1914","0.1","A","39.84111111","-120.30972222","STATE OR PRIVATE","CA","63","06063","Plumas County"
"-123.090264156","40.186661591","35122","35306","FS-1476556","FED","FS-FIRESTAT","FS","USCASHF","Shasta-Trinity National Forest","0514","Shasta-Trinity National Forest","23","4","EK15","RAINBOW","","","","","","2009","2009/05/28 00:00:00+00","148","1930","Natural","Natural","","2009/05/30 00:00:00+00","150","1413","0.5","B","40.18666667","-123.09027778","USFS","CA","105","06105","Trinity County"
"-122.903319721","40.277217119","35123","35307","FS-1476557","FED","FS-FIRESTAT","FS","USCASHF","Shasta-Trinity National Forest","0514","Shasta-Trinity National Forest","28","5","EK15","DUTCHMAN","","","","","","2009","2009/06/01 00:00:00+00","152","1642","Natural","Natural","","2009/06/01 00:00:00+00","152","2100","0.1","A","40.27722222","-122.90333333","USFS","CA","105","06105","Trinity County"
"-121.620541436","44.561383378","35124","35308","FS-1476558","FED","FS-FIRESTAT","FS","USORDEF","Deschutes National Forest","0601","Deschutes National Forest","17","5-004","EXD9","0101","","","","","","2009","2009/05/25 00:00:00+00","145","1830","Human","Recreation and ceremony","","2009/05/25 00:00:00+00","145","2100","0.1","A","44.56138889","-121.62055556","USFS","OR","31","41031","Jefferson County"
"-122.938041924","40.430828221","35125","35309","FS-1476559","FED","FS-FIRESTAT","FS","USCASHF","Shasta-Trinity National Forest","0514","Shasta-Trinity National Forest","29","6","EK15","WINDY","","","","","","2009","2009/06/02 00:00:00+00","153","0745","Natural","Natural","","2009/06/02 00:00:00+00","153","1328","0.1","A","40.43083333","-122.93805556","USFS","CA","105","06105","Trinity County"
"-120.498597948","39.728883636","35126","35310","FS-1476560","FED","FS-FIRESTAT","FS","USCAPNF","Plumas National Forest","0511","Plumas National Forest","26","316","EK12","CARMEN","","","","","","2009","2009/06/02 00:00:00+00","153","1253","Natural","Natural","","2009/06/02 00:00:00+00","153","1810","0.1","A","39.72888889","-120.49861111","STATE OR PRIVATE","CA","63","06063","Plumas County"
"-122.939986356","40.483328217","35127","35311","FS-1476561","FED","FS-FIRESTAT","FS","USCASHF","Shasta-Trinity National Forest","0514","Shasta-Trinity National Forest","34","7","EK15","CHINA","","","","","","2009","2009/06/02 00:00:00+00","153","1640","Natural","Natural","","2009/06/03 00:00:00+00","154","1600","0.1","A","40.48333333","-122.94","USFS","CA","105","06105","Trinity County"
"-123.058041937","40.214161587","35128","35312","FS-1476562","FED","FS-FIRESTAT","FS","USCASHF","Shasta-Trinity National Forest","0514","Shasta-Trinity National Forest","35","8","EK15","HERMIT 2","","","","","","2009","2009/06/03 00:00:00+00","154","0800","Natural","Natural","","2009/06/03 00:00:00+00","154","1908","0.1","A","40.21416667","-123.05805556","USFS","CA","105","06105","Trinity County"
"-123.224430789","40.238050489","35129","35313","FS-1476563","FED","FS-FIRESTAT","FS","USCASHF","Shasta-Trinity National Forest","0514","Shasta-Trinity National Forest","36","9","EK15","GAP","","","","","","2009","2009/06/03 00:00:00+00","154","1400","Natural","Natural","","2009/06/03 00:00:00+00","154","1500","0.1","A","40.23805556","-123.22444444","USFS","CA","105","06105","Trinity County"
"-108.90248959","33.881939095","35130","35314","FS-1476564","FED","FS-FIRESTAT","FS","USNMGNF","Gila National Forest","0306","Gila National Forest","16","117","EKV5","HULSEY","","","","","","2009","2009/05/17 00:00:00+00","137","1700","Natural","Natural","","2009/05/17 00:00:00+00","137","1830","0.1","A","33.88194444","-108.9025","USFS","NM","3","35003","Catron County"
"-121.972764104","41.670272498","35131","35315","FS-1476565","FED","FS-FIRESTAT","FS","USCAKNF","Klamath National Forest","0505","Klamath National Forest","3","01","EK1W","KEGG","","","","","","2009","2009/05/27 00:00:00+00","147","1800","Natural","Natural","","2009/05/27 00:00:00+00","147","2010","0.1","A","41.67027778","-121.97277778","USFS","CA","93","06093","Siskiyou County"
"-108.972767371","33.67332802","35132","35316","FS-1476566","FED","FS-FIRESTAT","FS","USNMGNF","Gila National Forest","0306","Gila National Forest","17","120","EKV5","DAVE LEE","","","","","","2009","2009/05/18 00:00:00+00","138","1800","Natural","Natural","","2009/05/18 00:00:00+00","138","1930","0.2","A","33.67333333","-108.97277778","USFS","NM","3","35003","Catron County"
"-109.021378469","33.703883578","35133","35317","FS-1476567","FED","FS-FIRESTAT","FS","USNMGNF","Gila National Forest","0306","Gila National Forest","19","127","EKV5","FRIEBORN","","","","","","2009","2009/05/19 00:00:00+00","139","1300","Natural","Natural","","2009/05/19 00:00:00+00","139","1530","3","B","33.70388889","-109.02138889","USFS","NM","3","35003","Catron County"
"-119.377487334","37.130550457","35134","35318","FS-1476568","FED","FS-FIRESTAT","FS","USCASNF","Sierra National Forest","0515","Sierra National Forest","4","2","EK16","SUGARLOAF","","","","","","2009","2009/05/27 00:00:00+00","147","1555","Natural","Natural","","2009/05/27 00:00:00+00","147","1930","0.01","A","37.13055556","-119.3775","USFS","CA","19","06019","Fresno County"
"-108.913045159","33.740550237","35135","35319","FS-1476569","FED","FS-FIRESTAT","FS","USNMGNF","Gila National Forest","0306","Gila National Forest","27","176","EKV5","BASIN","","","","","","2009","2009/05/29 00:00:00+00","149","0900","Natural","Natural","","2009/05/29 00:00:00+00","149","1400","0.2","A","33.74055556","-108.91305556","USFS","NM","3","35003","Catron County"
"-108.826378491","33.949161312","35136","35320","FS-1476570","FED","FS-FIRESTAT","FS","USNMGNF","Gila National Forest","0306","Gila National Forest","26","176","EKV5","DRAW","","","","","","2009","2009/05/29 00:00:00+00","149","1900","Natural","Natural","","2009/05/29 00:00:00+00","149","2130","0.1","A","33.94916667","-108.82638889","USFS","NM","3","35003","Catron County"
"-119.263876216","37.373050426","35137","35321","FS-1476571","FED","FS-FIRESTAT","FS","USCASNF","Sierra National Forest","0515","Sierra National Forest","8","5","EK16","CHINA","","","","","","2009","2009/05/30 00:00:00+00","150","1600","Natural","Natural","","2009/05/31 00:00:00+00","151","1500","0.01","A","37.37305556","-119.26388889","USFS","CA","19","06019","Fresno County"
"-119.150265133","37.296105975","35138","35322","FS-1476572","FED","FS-FIRESTAT","FS","USCASNF","Sierra National Forest","0515","Sierra National Forest","5","3","EK16","TWIN","","","","","","2009","2009/05/30 00:00:00+00","150","1505","Natural","Natural","","2009/05/30 00:00:00+00","150","2000","0.1","A","37.29611111","-119.15027778","USFS","CA","19","06019","Fresno County"
"-121.453597666","40.669439189","35139","35323","FS-1476573","FED","FS-FIRESTAT","FS","USCALNF","Lassen National Forest","0506","Lassen National Forest","28","15","EK1X","SUGAR","","","","","","2009","2009/06/02 00:00:00+00","153","1600","Natural","Natural","","2009/06/02 00:00:00+00","153","1800","0.1","A","40.66944444","-121.45361111","STATE OR PRIVATE","CA","89","06089","Shasta County"
"-122.645819521","41.860550325","35140","35324","FS-1476574","FED","FS-FIRESTAT","FS","USCAKNF","Klamath National Forest","0505","Klamath National Forest","28","08","EK1W","LITTLE COTTONWOOD","","","","","","2009","2009/06/02 00:00:00+00","153","1500","Natural","Natural","","2009/06/03 00:00:00+00","154","1854","0.1","A","41.86055556","-122.64583333","STATE OR PRIVATE","CA","93","06093","Siskiyou County"
"-117.765543442","34.188606212","35141","35325","FS-1476575","FED","FS-FIRESTAT","FS","USCAANF","Angeles National Forest","0501","Angeles National Forest","58","10","EK1S","TANBARK","","","","","","2009","2009/06/03 00:00:00+00","154","1630","Natural","Natural","","2009/06/03 00:00:00+00","154","1655","1","B","34.18861111","-117.76555556","USFS","CA","37","06037","Los Angeles County"
"-122.06165304","41.284994754","35142","35326","FS-1476585","FED","FS-FIRESTAT","FS","USCASHF","Shasta-Trinity National Forest","0514","Shasta-Trinity National Forest","41","5","EK15","MUD","","","","","","2009","2009/06/03 00:00:00+00","154","1600","Natural","Natural","","2009/06/03 00:00:00+00","154","1900","0.01","A","41.285","-122.06166667","USFS","CA","93","06093","Siskiyou County"
"-110.636377006","43.508049121","35143","35327","FS-1476587","FED","FS-FIRESTAT","FS","USWYBTF","Bridger-Teton National Forest","0403","Bridger-Teton National Forest","2","002","EYR8","SHEEP","","","","","","2009","2009/06/07 00:00:00+00","158","1100","Human","Recreation and ceremony","","2009/06/07 00:00:00+00","158","1230","0.01","A","43.50805556","-110.63638889","USFS","WY","39","56039","Teton County"
"-121.99887521","41.6752725","35144","35328","FS-1476588","FED","FS-FIRESTAT","FS","USCAKNF","Klamath National Forest","0505","Klamath National Forest","4","02","EK1W","DEAD STEER","","","","","","2009","2009/05/27 00:00:00+00","147","1830","Natural","Natural","","2009/05/27 00:00:00+00","147","2130","0.1","A","41.67527778","-121.99888889","USFS","CA","93","06093","Siskiyou County"
"-121.996375212","41.663050281","35145","35329","FS-1476589","FED","FS-FIRESTAT","FS","USCAKNF","Klamath National Forest","0505","Klamath National Forest","5","03","EK1W","ORR","","","","","","2009","2009/05/27 00:00:00+00","147","1900","Natural","Natural","","2009/05/27 00:00:00+00","147","2020","0.1","A","41.66305556","-121.99638889","USFS","CA","93","06093","Siskiyou County"
"-112.578599618","37.604161049","35146","35330","FS-1476590","FED","FS-FIRESTAT","FS","USUTDIF","Dixie National Forest","0407","Dixie National Forest","2","001","EKW4","HATCH ROAD","","","","","","2009","2009/05/29 00:00:00+00","149","1429","Natural","Natural","","2009/05/29 00:00:00+00","149","1805","0.1","A","37.60416667","-112.57861111","USFS","UT","17","49017","Garfield County"
"-112.55748852","37.532772166","35147","35331","FS-1476591","FED","FS-FIRESTAT","FS","USUTDIF","Dixie National Forest","0407","Dixie National Forest","3","002","EKW4","BLACK ROCK","","","","","","2009","2009/05/29 00:00:00+00","149","1851","Natural","Natural","","2009/05/30 00:00:00+00","150","1520","0.3","B","37.53277778","-112.5575","USFS","UT","25","49025","Kane County"
"-112.566377405","37.562216604","35148","35332","FS-1476592","FED","FS-FIRESTAT","FS","USUTDIF","Dixie National Forest","0407","Dixie National Forest","4","003","EKW4","BUCK KNOLL","","","","","","2009","2009/05/30 00:00:00+00","150","0955","Natural","Natural","","2009/05/30 00:00:00+00","150","1106","0.1","A","37.56222222","-112.56638889","USFS","UT","17","49017","Garfield County"
"-113.489988352","37.414994463","35149","35333","FS-1476593","FED","FS-FIRESTAT","FS","USUTDIF","Dixie National Forest","0407","Dixie National Forest","1","001","ET82","WATER CANYON","","","","","","2009","2009/04/12 00:00:00+00","102","1446","Human","Recreation and ceremony","","2009/04/12 00:00:00+00","102","1615","0.1","A","37.415","-113.49","USFS","UT","53","49053","Washington County"
"-113.574710534","37.614716666","35150","35334","FS-1476594","FED","FS-FIRESTAT","FS","USUTDIF","Dixie National Forest","0407","Dixie National Forest","5","002","EKW4","EAST BENCH","","","","","","2009","2009/05/31 00:00:00+00","151","0902","Natural","Natural","","2009/06/01 00:00:00+00","152","1600","0.1","A","37.61472222","-113.57472222","USFS","UT","53","49053","Washington County"
"-82.803885064","35.28443762","35151","35335","FS-1476595","FED","FS-FIRESTAT","FS","USNCNCF","National Forests in North Carolina","0811","National Forests in North Carolina","75","4","EK26","DAVIDSON RIVER","","","","","","2009","2009/04/30 00:00:00+00","120","1700","Human","Power generation/transmission/distribution","","2009/04/30 00:00:00+00","120","2200","1","B","35.28444444","-82.80388889","USFS","NC","175","37175","Transylvania County"
"-80.196941244","37.756937007","35152","35336","FS-1476596","FED","FS-FIRESTAT","FS","USVAVAF","George Washington & Jefferson National Forests","0808","George Washington-Jefferson","19","019","EW55","LEWIS TUNNEL","","","","","","2009","2009/05/21 00:00:00+00","141","1530","Human","Railroad operations and maintenance","","2009/05/26 00:00:00+00","146","1600","22","C","37.75694444","-80.19694444","USFS","VA","5","51005","Alleghany County"
"-120.244987017","38.654161489","35153","35337","FS-1476600","FED","FS-FIRESTAT","FS","USCAENF","Eldorado National Forest","0503","Eldorado National Forest","10","4","EK1U","FORK","","","","","","2009","2009/05/30 00:00:00+00","150","1436","Natural","Natural","","2009/05/30 00:00:00+00","150","1500","0.1","A","38.65416667","-120.245","USFS","CA","17","06017","El Dorado County"
"-117.88248784","34.460272858","35154","35338","FS-1476601","FED","FS-FIRESTAT","FS","USCAANF","Angeles National Forest","0501","Angeles National Forest","45","30","EN0A","FORT","","","","","","2009","2009/05/30 00:00:00+00","150","1737","Natural","Natural","","2009/05/30 00:00:00+00","150","1900","0.2","A","34.46027778","-117.8825","MISSING/NOT SPECIFIED","CA","37","06037","Los Angeles County"
"-105.12665684","36.775549574","35155","35339","FS-1476603","FED","FS-FIRESTAT","FS","USNMCAF","Carson National Forest","0302","Carson National Forest","11","11","EKV1","ABANDANED #1","","","","","","2009","2009/04/08 00:00:00+00","98","1045","Human","Recreation and ceremony","","2009/06/08 00:00:00+00","159","1115","0.1","A","36.77555556","-105.12666667","USFS","NM","55","35055","Taos County"
"-149.806088564","60.48333163","35156","35340","FS-1476605","FED","FS-FIRESTAT","FS","USAKCGF","Chugach National Forest","1004","Chugach National Forest","2","AK-CGF-002","EV1M","SLAUGHTER RIDGE","","","","","","2009","2009/05/01 00:00:00+00","121","2230","Human","Missing data/not specified/undetermined","","2009/05/02 00:00:00+00","122","1400","0.5","B","60.48333333","-149.80611111","STATE OR PRIVATE","AK","122","02122","Kenai Peninsula Borough"
"-121.736653021","41.736105803","35157","35341","FS-1476606","FED","FS-FIRESTAT","FS","USCAKNF","Klamath National Forest","0505","Klamath National Forest","31","10","EK1W","NORTH SISTERS","","","","","","2009","2009/06/03 00:00:00+00","154","1630","Natural","Natural","","2009/06/03 00:00:00+00","154","1815","0.01","A","41.73611111","-121.73666667","USFS","CA","93","06093","Siskiyou County"
"-85.68749467","43.451936212","35158","35342","FS-1476607","FED","FS-FIRESTAT","FS","USMIHMF","Huron-Manistee National Forest","0904","Huron-Manistee National Forest","93","93","EYA2","56TH STREET","","","","","","2009","2009/06/03 00:00:00+00","154","1500","Human","Arson/incendiarism","","2009/06/03 00:00:00+00","154","2130","19","C","43.45194444","-85.6875","STATE OR PRIVATE","MI","123","26123","Newaygo County"
"-85.681383563","43.442769553","35159","35343","FS-1476608","FED","FS-FIRESTAT","FS","USMIHMF","Huron-Manistee National Forest","0904","Huron-Manistee National Forest","94","94","EK3D","THE SECOND FIRE","","","","","","2009","2009/06/03 00:00:00+00","154","1700","Human","Arson/incendiarism","","2009/06/03 00:00:00+00","154","1830","0.25","A","43.44277778","-85.68138889","STATE OR PRIVATE","MI","123","26123","Newaygo County"
"-115.273320525","43.421938418","35160","35344","FS-1476609","FED","FS-FIRESTAT","FS","USIDBOF","Boise National Forest","0402","Boise National Forest","5","257","EKW2","LIME CREEK","","","","","","2009","2009/06/07 00:00:00+00","158","1208","Natural","Natural","","2009/06/07 00:00:00+00","158","1500","0.1","A","43.42194444","-115.27333333","STATE OR PRIVATE","ID","39","16039","Elmore County"
"-115.71054263","43.673327325","35161","35345","FS-1476610","FED","FS-FIRESTAT","FS","USIDBOF","Boise National Forest","0402","Boise National Forest","6","258","EKW2","BADGER CREEK","","","","","","2009","2009/06/07 00:00:00+00","158","1230","Natural","Natural","","2009/06/08 00:00:00+00","159","1301","0.1","A","43.67333333","-115.71055556","USFS","ID","15","16015","Boise County"
"-117.427765765","33.626384037","35162","35346","FS-1476613","FED","FS-FIRESTAT","FS","USCACNF","Cleveland National Forest","0502","Cleveland National Forest","2","2","ESN0","FALLS","","","","","","2009","2009/03/08 00:00:00+00","67","1600","Human","Recreation and ceremony","","2009/03/08 00:00:00+00","67","1620","0.1","A","33.62638889","-117.42777778","USFS","CA","59","06059","Orange County"
"-106.70526766","36.08916088","35163","35347","FS-1476614","FED","FS-FIRESTAT","FS","USNMSNF","Santa Fe National Forest","0310","Santa Fe National Forest","15","4","EKV9","SUEGRO","","","","","","2009","2009/05/25 00:00:00+00","145","1500","Natural","Natural","","2009/05/26 00:00:00+00","146","1430","0.1","A","36.08916667","-106.70527778","USFS","NM","39","35039","Rio Arriba County"
"-117.433321313","33.636106256","35164","35348","FS-1476615","FED","FS-FIRESTAT","FS","USCACNF","Cleveland National Forest","0502","Cleveland National Forest","3","3","ES33","NISSAN","","","","","","2009","2009/03/19 00:00:00+00","78","0935","Human","Arson/incendiarism","","2009/03/19 00:00:00+00","78","1100","0.1","A","33.63611111","-117.43333333","USFS","CA","59","06059","Orange County"
"-111.899155565","34.95943911","35165","35349","FS-1476616","FED","FS-FIRESTAT","FS","USAZCOF","Coconino National Forest","0304","Coconino National Forest","43","012","EKV3","SECRET","","","","","","2009","2009/05/24 00:00:00+00","144","0746","Natural","Natural","","2009/05/24 00:00:00+00","144","1600","0.1","A","34.95944444","-111.89916667","USFS","AZ","5","04005","Coconino County"
"-83.735828484","44.562769259","35166","35350","FS-1476617","FED","FS-FIRESTAT","FS","USMIHMF","Huron-Manistee National Forest","0904","Huron-Manistee National Forest","95","095","EK3D","SPEAR","","","","","","2009","2009/06/06 00:00:00+00","157","1230","Human","Missing data/not specified/undetermined","","2009/06/06 00:00:00+00","157","1315","0.1","A","44.56277778","-83.73583333","STATE OR PRIVATE","MI","1","26001","Alcona County"
"-117.488876853","33.778328463","35167","35351","FS-1476618","FED","FS-FIRESTAT","FS","USCACNF","Cleveland National Forest","0502","Cleveland National Forest","4","4","ES7G","3SPOT","","","","","","2009","2009/03/20 00:00:00+00","79","1705","Human","Missing data/not specified/undetermined","","2009/03/20 00:00:00+00","79","1755","0.1","A","33.77833333","-117.48888889","MISSING/NOT SPECIFIED","CA","65","06065","Riverside County"
"-111.458044515","35.274994603","35168","35352","FS-1476619","FED","FS-FIRESTAT","FS","USAZCOF","Coconino National Forest","0304","Coconino National Forest","49","016","EKV3","O'NEILL","","","","","","2009","2009/05/27 00:00:00+00","147","1257","Natural","Natural","","2009/05/27 00:00:00+00","147","1620","0.1","A","35.275","-111.45805556","USFS","AZ","5","04005","Coconino County"
"-111.826933348","34.981105773","35169","35353","FS-1476620","FED","FS-FIRESTAT","FS","USAZCOF","Coconino National Forest","0304","Coconino National Forest","17","003","EU5W","BEAR","2009_AZ-COF-015_BEAR","","","","","2009","2009/04/22 00:00:00+00","112","1315","Natural","Natural","","2009/06/02 00:00:00+00","153","1300","350","E","34.98111111","-111.82694444","USFS","AZ","5","04005","Coconino County"
"-116.652488178","32.838328528","35170","35354","FS-1476621","FED","FS-FIRESTAT","FS","USCACNF","Cleveland National Forest","0502","Cleveland National Forest","5","1","ETG8","VIEWPOINT","","","","","","2009","2009/03/26 00:00:00+00","85","1021","Human","Equipment and vehicle use","","2009/03/26 00:00:00+00","85","1039","0.2","A","32.83833333","-116.6525","USFS","CA","73","06073","San Diego County"
"-117.396654658","33.655828472","35171","35355","FS-1476622","FED","FS-FIRESTAT","FS","USCACNF","Cleveland National Forest","0502","Cleveland National Forest","8","6","EN0B","ORTEGA","","","","","","2009","2009/04/20 00:00:00+00","110","1547","Human","Missing data/not specified/undetermined","","2009/04/20 00:00:00+00","110","1610","0.1","A","33.65583333","-117.39666667","STATE OR PRIVATE","CA","65","06065","Riverside County"
"-83.566384112","44.414158165","35172","35356","FS-1476623","FED","FS-FIRESTAT","FS","USMIHMF","Huron-Manistee National Forest","0904","Huron-Manistee National Forest","90","090","EW9V","BUCK","","","","","","2009","2009/05/25 00:00:00+00","145","1314","Human","Recreation and ceremony","","2009/05/25 00:00:00+00","145","2019","4.5","B","44.41416667","-83.56638889","USFS","MI","69","26069","Iosco County"
"-117.385265771","33.646106252","35173","35357","FS-1476624","FED","FS-FIRESTAT","FS","USCACNF","Cleveland National Forest","0502","Cleveland National Forest","9","007","EVC7","HONDA","","","","","","2009","2009/04/24 00:00:00+00","114","2127","Human","Missing data/not specified/undetermined","","2009/04/24 00:00:00+00","114","2131","0.1","A","33.64611111","-117.38527778","STATE OR PRIVATE","CA","65","06065","Riverside County"
"-117.354987999","33.609161815","35174","35358","FS-1476625","FED","FS-FIRESTAT","FS","USCACNF","Cleveland National Forest","0502","Cleveland National Forest","10","8","EN0B","RANCHO","","","","","","2009","2009/04/26 00:00:00+00","116","1845","Human","Missing data/not specified/undetermined","","2009/04/26 00:00:00+00","116","1847","0.1","A","33.60916667","-117.355","STATE OR PRIVATE","CA","65","06065","Riverside County"
"-117.852210077","34.319439532","35175","35359","FS-1476626","FED","FS-FIRESTAT","FS","USCAANF","Angeles National Forest","0501","Angeles National Forest","51","8","EK1S","CUBBY","","","","","","2009","2009/06/03 00:00:00+00","154","1400","Natural","Natural","","2009/06/04 00:00:00+00","155","1500","0.5","B","34.31944444","-117.85222222","USFS","CA","37","06037","Los Angeles County"
"-116.433321552","32.769995196","35176","35360","FS-1476627","FED","FS-FIRESTAT","FS","USCACNF","Cleveland National Forest","0502","Cleveland National Forest","11","3","EV5S","FRED","","","","","","2009","2009/05/05 00:00:00+00","125","2342","Human","Equipment and vehicle use","","2009/05/12 00:00:00+00","132","1800","7.5","B","32.77","-116.43333333","USFS","CA","73","06073","San Diego County"
"-116.506932639","32.904439623","35177","35361","FS-1476628","FED","FS-FIRESTAT","FS","USCACNF","Cleveland National Forest","0502","Cleveland National Forest","12","4","EV8B","GRINDER","","","","","","2009","2009/05/09 00:00:00+00","129","0830","Human","Recreation and ceremony","","2009/05/09 00:00:00+00","129","1125","0.1","A","32.90444444","-116.50694444","USFS","CA","73","06073","San Diego County"
"-117.531376854","33.673884037","35178","35362","FS-1476629","FED","FS-FIRESTAT","FS","USCACNF","Cleveland National Forest","0502","Cleveland National Forest","13","9","EWT2","TRABUCO","","","","","","2009","2009/05/15 00:00:00+00","135","1537","Human","Smoking","","2009/05/15 00:00:00+00","135","1600","0.1","A","33.67388889","-117.53138889","USFS","CA","59","06059","Orange County"
"-110.905266965","33.812216991","35179","35363","FS-1476630","FED","FS-FIRESTAT","FS","USAZTNF","Tonto National Forest","0312","Tonto National Forest","31","","EKW0","AZTEC","","","","","","2009","2009/05/10 00:00:00+00","130","1004","Human","Recreation and ceremony","","2009/05/10 00:00:00+00","130","1134","0.1","A","33.81222222","-110.90527778","USFS","AZ","7","04007","Gila County"
"-116.487488213","32.75943964","35180","35364","FS-1476631","FED","FS-FIRESTAT","FS","USCACNF","Cleveland National Forest","0502","Cleveland National Forest","15","5","EW6N","TOYOTA","","","","","","2009","2009/05/22 00:00:00+00","142","1310","Human","Equipment and vehicle use","","2009/05/22 00:00:00+00","142","1320","0.1","A","32.75944444","-116.4875","STATE OR PRIVATE","CA","73","06073","San Diego County"
"-116.738877042","32.988884075","35181","35365","FS-1476632","FED","FS-FIRESTAT","FS","USCACNF","Cleveland National Forest","0502","Cleveland National Forest","17","2","EW84","CEDAR","","","","","","2009","2009/05/24 00:00:00+00","144","1335","Human","Missing data/not specified/undetermined","","2009/05/25 00:00:00+00","145","0730","4","B","32.98888889","-116.73888889","STATE OR PRIVATE","CA","73","06073","San Diego County"
"-111.009433583","34.086661409","35182","35366","FS-1476633","FED","FS-FIRESTAT","FS","USAZTNF","Tonto National Forest","0312","Tonto National Forest","2","","EKW0","POTATO","","","","","","2009","2009/01/21 00:00:00+00","21","1023","Human","Debris and open burning","","2009/01/21 00:00:00+00","21","1436","2","B","34.08666667","-111.00944444","STATE OR PRIVATE","AZ","7","04007","Gila County"
"-116.723043726","32.833050763","35183","35367","FS-1476634","FED","FS-FIRESTAT","FS","USCACNF","Cleveland National Forest","0502","Cleveland National Forest","19","6","EN0B","BURNS","","","","","","2009","2009/05/26 00:00:00+00","146","2020","Human","Missing data/not specified/undetermined","","2009/05/26 00:00:00+00","146","2045","0.25","A","32.83305556","-116.72305556","STATE OR PRIVATE","CA","73","06073","San Diego County"
"-110.9833225","33.813328105","35184","35368","FS-1476635","FED","FS-FIRESTAT","FS","USAZTNF","Tonto National Forest","0312","Tonto National Forest","28","","EKW0","SAWMILL","","","","","","2009","2009/05/02 00:00:00+00","122","1520","Human","Recreation and ceremony","","2009/05/02 00:00:00+00","122","1814","0.1","A","33.81333333","-110.98333333","USFS","AZ","7","04007","Gila County"
"-116.466377098","32.879995184","35185","35369","FS-1476636","FED","FS-FIRESTAT","FS","USCACNF","Cleveland National Forest","0502","Cleveland National Forest","20","7","EXJ1","MEADOWS","","","","","","2009","2009/05/27 00:00:00+00","147","0336","Human","Missing data/not specified/undetermined","","2009/05/27 00:00:00+00","147","1100","5.1","B","32.88","-116.46638889","USFS","CA","73","06073","San Diego County"
"-117.460543538","33.640828477","35186","35370","FS-1476637","FED","FS-FIRESTAT","FS","USCACNF","Cleveland National Forest","0502","Cleveland National Forest","23","13","EK1T","PINOS","","","","","","2009","2009/06/03 00:00:00+00","154","0730","Natural","Natural","","2009/06/04 00:00:00+00","155","1600","2.5","B","33.64083333","-117.46055556","USFS","CA","59","06059","Orange County"
"-111.027211375","33.887772547","35187","35371","FS-1476638","FED","FS-FIRESTAT","FS","USAZTNF","Tonto National Forest","0312","Tonto National Forest","35","","EKW0","SALOME","","","","","","2009","2009/05/19 00:00:00+00","139","0958","Natural","Natural","","2009/05/19 00:00:00+00","139","1900","1.5","B","33.88777778","-111.02722222","USFS","AZ","7","04007","Gila County"
"-121.107208992","39.504717033","35188","35372","FS-1476639","FED","FS-FIRESTAT","FS","USCATNF","Tahoe National Forest","0517","Tahoe National Forest","9","YR-04","EU5T","HILL","","","","","","2009","2009/04/22 00:00:00+00","112","1408","Human","Missing data/not specified/undetermined","","2009/04/24 00:00:00+00","114","1400","25.5","C","39.50472222","-121.10722222","STATE OR PRIVATE","CA","115","06115","Yuba County"
"-111.719988922","35.057216867","35189","35373","FS-1476640","FED","FS-FIRESTAT","FS","USAZCOF","Coconino National Forest","0304","Coconino National Forest","60","23","EKV3","ASADA","","","","","","2009","2009/06/04 00:00:00+00","155","1635","Human","Recreation and ceremony","","2009/06/04 00:00:00+00","155","1735","0.1","A","35.05722222","-111.72","USFS","AZ","5","04005","Coconino County"
"-117.913043413","34.242772884","35190","35374","FS-1476641","FED","FS-FIRESTAT","FS","USCAANF","Angeles National Forest","0501","Angeles National Forest","47","7","EK1S","CIRCLE","","","","","","2009","2009/06/02 00:00:00+00","153","1634","Human","Recreation and ceremony","","2009/06/02 00:00:00+00","153","1730","0.1","A","34.24277778","-117.91305556","USFS","CA","37","06037","Los Angeles County"
"-120.434986444","42.448327854","35191","35375","FS-1476646","FED","FS-FIRESTAT","FS","USORFWF","Fremont-Winema National Forest","0602","Fremont-Winema National Forest","10","010","EK2B","BOUNDARY-152","","","","","","2009","2009/06/03 00:00:00+00","154","1913","Natural","Natural","","2009/06/04 00:00:00+00","155","1849","0.3","B","42.44833333","-120.435","USFS","OR","37","41037","Lake County"
"-111.414433433","34.940272425","35192","35376","FS-1476647","FED","FS-FIRESTAT","FS","USAZCOF","Coconino National Forest","0304","Coconino National Forest","45","18","EKV3","TONY","","","","","","2009","2009/05/25 00:00:00+00","145","1800","Natural","Natural","","2009/05/27 00:00:00+00","147","1500","0.1","A","34.94027778","-111.41444444","USFS","AZ","5","04005","Coconino County"
"-121.313875517","40.323605874","35193","35377","FS-1476648","FED","FS-FIRESTAT","FS","USCALNF","Lassen National Forest","0506","Lassen National Forest","16","006","EK1X","LOCHERMAN","","","","","","2009","2009/05/29 00:00:00+00","149","0800","Natural","Natural","","2009/05/29 00:00:00+00","149","1400","0.1","A","40.32361111","-121.31388889","USFS","CA","63","06063","Plumas County"
"-117.341376894","33.580828477","35194","35378","FS-1476649","FED","FS-FIRESTAT","FS","USCACNF","Cleveland National Forest","0502","Cleveland National Forest","6","5","ETL4","WILDOMAR","","","","","","2009","2009/03/27 00:00:00+00","86","1601","Human","Recreation and ceremony","","2009/03/27 00:00:00+00","86","1611","0.1","A","33.58083333","-117.34138889","USFS","CA","65","06065","Riverside County"
"-116.503877103","32.718328535","35195","35379","FS-1476650","FED","FS-FIRESTAT","FS","USCACNF","Cleveland National Forest","0502","Cleveland National Forest","7","2","EUS4","WILBERS","","","","","","2009","2009/04/18 00:00:00+00","108","1001","Human","Recreation and ceremony","","2009/04/18 00:00:00+00","108","1043","0.1","A","32.71833333","-116.50388889","USFS","CA","73","06073","San Diego County"
"-117.518321296","33.669995147","35196","35380","FS-1476651","FED","FS-FIRESTAT","FS","USCACNF","Cleveland National Forest","0502","Cleveland National Forest","14","10","EW0U","SANTIAGO","","","","","","2009","2009/05/18 00:00:00+00","138","1145","Natural","Natural","","2009/05/18 00:00:00+00","138","1800","0.25","A","33.67","-117.51833333","USFS","CA","59","06059","Orange County"
"-116.863321437","33.313050713","35197","35381","FS-1476652","FED","FS-FIRESTAT","FS","USCACNF","Cleveland National Forest","0502","Cleveland National Forest","16","1","EW84","CRESTLINE","","","","","","2009","2009/05/23 00:00:00+00","143","1950","Human","Recreation and ceremony","","2009/05/23 00:00:00+00","143","1955","0.1","A","33.31305556","-116.86333333","USFS","CA","73","06073","San Diego County"
"-117.501654645","33.589995155","35198","35382","FS-1476653","FED","FS-FIRESTAT","FS","USCACNF","Cleveland National Forest","0502","Cleveland National Forest","18","11","EXA4","BRIDGE","","","","","","2009","2009/05/25 00:00:00+00","145","1335","Human","Recreation and ceremony","","2009/05/25 00:00:00+00","145","1345","0.1","A","33.59","-117.50166667","USFS","CA","59","06059","Orange County"
"-117.290543571","33.602772922","35199","35383","FS-1476654","FED","FS-FIRESTAT","FS","USCACNF","Cleveland National Forest","0502","Cleveland National Forest","21","12","EX2A","WESLEY","","","","","","2009","2009/05/30 00:00:00+00","150","1520","Human","Missing data/not specified/undetermined","","2009/05/30 00:00:00+00","150","1600","0.2","A","33.60277778","-117.29055556","MISSING/NOT SPECIFIED","CA","65","06065","Riverside County"
"-116.666654849","32.789717425","35200","35384","FS-1476655","FED","FS-FIRESTAT","FS","USCACNF","Cleveland National Forest","0502","Cleveland National Forest","22","8","EX2M","HIGHLANDS","","","","","","2009","2009/05/30 00:00:00+00","150","1646","Human","Equipment and vehicle use","","2009/05/30 00:00:00+00","150","1730","0.4","B","32.78972222","-116.66666667","STATE OR PRIVATE","CA","73","06073","San Diego County"
"-116.663321472","33.303884033","35201","35385","FS-1476656","FED","FS-FIRESTAT","FS","USCACNF","Cleveland National Forest","0502","Cleveland National Forest","24","3","EK1T","CHANEY","","","","","","2009","2009/06/04 00:00:00+00","155","1115","Human","Equipment and vehicle use","","2009/06/04 00:00:00+00","155","1345","7","B","33.30388889","-116.66333333","MISSING/NOT SPECIFIED","CA","73","06073","San Diego County"
"-116.623043744","32.836939637","35202","35386","FS-1476657","FED","FS-FIRESTAT","FS","USCACNF","Cleveland National Forest","0502","Cleveland National Forest","25","9","EYN7","DUCATI","","","","","","2009","2009/06/06 00:00:00+00","157","1012","Human","Equipment and vehicle use","","2009/06/06 00:00:00+00","157","1030","0.1","A","32.83694444","-116.62305556","USFS","CA","73","06073","San Diego County"
"-121.724430857","41.319439162","35203","35387","FS-1476658","FED","FS-FIRESTAT","FS","USCASHF","Shasta-Trinity National Forest","0514","Shasta-Trinity National Forest","37","6","EK15","BEAR","","","","","","2009","2009/06/03 00:00:00+00","154","1500","Natural","Natural","","2009/06/03 00:00:00+00","154","1609","0.1","A","41.31944444","-121.72444444","USFS","CA","93","06093","Siskiyou County"
"-120.922486369","42.42610568","35204","35388","FS-1476661","FED","FS-FIRESTAT","FS","USORFWF","Fremont-Winema National Forest","0602","Fremont-Winema National Forest","7","007","EK2B","DUTCHMAN -125","","","","","","2009","2009/05/30 00:00:00+00","150","0946","Natural","Natural","","2009/05/30 00:00:00+00","150","1111","0.1","A","42.42611111","-120.9225","USFS","OR","37","41037","Lake County"
"-122.069153021","41.402216966","35205","35389","FS-1476662","FED","FS-FIRESTAT","FS","USCASHF","Shasta-Trinity National Forest","0514","Shasta-Trinity National Forest","40","4","EK15","ASH","","","","","","2009","2009/06/03 00:00:00+00","154","1600","Natural","Natural","","2009/06/03 00:00:00+00","154","1655","0.1","A","41.40222222","-122.06916667","STATE OR PRIVATE","CA","93","06093","Siskiyou County"
"-120.60609758","42.119161234","35206","35390","FS-1476663","FED","FS-FIRESTAT","FS","USORFWF","Fremont-Winema National Forest","0602","Fremont-Winema National Forest","1","001","EK2B","DREWS  DAM-110","","","","","","2009","2009/05/24 00:00:00+00","144","1244","Natural","Natural","","2009/05/24 00:00:00+00","144","1700","0.1","A","42.11916667","-120.60611111","USFS","OR","37","41037","Lake County"
"-121.278319886","40.860550279","35207","35391","FS-1476664","FED","FS-FIRESTAT","FS","USCALNF","Lassen National Forest","0506","Lassen National Forest","20","009","EK1X","WILLOW","","","","","","2009","2009/05/30 00:00:00+00","150","1400","Natural","Natural","","2009/05/30 00:00:00+00","150","1630","0.1","A","40.86055556","-121.27833333","USFS","CA","35","06035","Lassen County"
"-120.714430891","42.126383463","35208","35392","FS-1476665","FED","FS-FIRESTAT","FS","USORFWF","Fremont-Winema National Forest","0602","Fremont-Winema National Forest","3","003","EK2B","DOG MOUNTAIN-113","","","","","","2009","2009/05/25 00:00:00+00","145","1140","Natural","Natural","","2009/05/25 00:00:00+00","145","1600","0.1","A","42.12638889","-120.71444444","USFS","OR","37","41037","Lake County"
"-91.835270076","47.479435991","35209","35393","FS-1476666","FED","FS-FIRESTAT","FS","USMNSUF","Superior National Forest","0909","Superior National Forest","9","004","EW96","ROUND LAKE FIRE","","","","","","2009","2009/05/25 00:00:00+00","145","1716","Human","Recreation and ceremony","","2009/05/25 00:00:00+00","145","2100","5","B","47.47944444","-91.83527778","STATE OR PRIVATE","MN","137","27137","St. Louis County"
"-103.474156449","43.334159662","35210","35394","FS-1476667","FED","FS-FIRESTAT","FS","USSDBKF","Black Hills National Forest","0203","Black Hills National Forest","3","1","EKT9","ADAMS","","","","","","2009","2009/05/20 00:00:00+00","140","1645","Natural","Natural","","2009/05/20 00:00:00+00","140","2000","0.01","A","43.33416667","-103.47416667","USFS","SD","47","46047","Fall River County"
"-120.268875389","42.281661192","35211","35395","FS-1476668","FED","FS-FIRESTAT","FS","USORFWF","Fremont-Winema National Forest","0602","Fremont-Winema National Forest","6","006","EK2B","SALT-124","","","","","","2009","2009/05/30 00:00:00+00","150","0825","Natural","Natural","","2009/05/30 00:00:00+00","150","1159","0.1","A","42.28166667","-120.26888889","USFS","OR","37","41037","Lake County"
"-121.171097792","40.095272551","35212","35396","FS-1476669","FED","FS-FIRESTAT","FS","USCAPNF","Plumas National Forest","0511","Plumas National Forest","32","pnf-326","EK12","MOSQUITO","","","","","","2009","2009/06/04 00:00:00+00","155","1559","Natural","Natural","","2009/06/04 00:00:00+00","155","2100","0.1","A","40.09527778","-121.17111111","USFS","CA","63","06063","Plumas County"
"-121.23581991","40.738328055","35213","35397","FS-1476676","FED","FS-FIRESTAT","FS","USCALNF","Lassen National Forest","0506","Lassen National Forest","30","17","EK1X","RAIL","","","","","","2009","2009/06/02 00:00:00+00","153","1600","Natural","Natural","","2009/06/02 00:00:00+00","153","1700","0.2","A","40.73833333","-121.23583333","STATE OR PRIVATE","CA","35","06035","Lassen County"
"-112.383044002","38.548327583","35214","35398","FS-1476677","FED","FS-FIRESTAT","FS","USUTFIF","Fishlake National Forest","0408","Fishlake National Forest","6","BVR 1","EKW5","MARYSVALE CANYON","","","","","","2009","2009/06/01 00:00:00+00","152","1447","Natural","Natural","","2009/06/02 00:00:00+00","153","1700","0.25","A","38.54833333","-112.38305556","USFS","UT","41","49041","Sevier County"
"-108.853878505","33.685272462","35215","35399","FS-1476678","FED","FS-FIRESTAT","FS","USNMGNF","Gila National Forest","0306","Gila National Forest","36","7","EY04","RANCHO","","","","","","2009","2009/06/08 00:00:00+00","159","0126","Human","Arson/incendiarism","","2009/06/08 00:00:00+00","159","0145","0.01","A","33.68527778","-108.85388889","USFS","NM","3","35003","Catron County"
"-122.050541937","41.251105866","35216","35400","FS-1476679","FED","FS-FIRESTAT","FS","USCASHF","Shasta-Trinity National Forest","0514","Shasta-Trinity National Forest","3","1","ETU0","HIGHWAY","","","","","","2009","2009/03/29 00:00:00+00","88","1253","Human","Power generation/transmission/distribution","","2009/03/29 00:00:00+00","88","1354","0.1","A","41.25111111","-122.05055556","USFS","CA","93","06093","Siskiyou County"
"-120.31859759","42.346938961","35217","35401","FS-1476680","FED","FS-FIRESTAT","FS","USORFWF","Fremont-Winema National Forest","0602","Fremont-Winema National Forest","9","009","EK2B","MAHOGANY-142","","","","","","2009","2009/05/31 00:00:00+00","151","1900","Natural","Natural","","2009/06/01 00:00:00+00","152","1330","0.1","A","42.34694444","-120.31861111","USFS","OR","37","41037","Lake County"
"-114.098875814","46.12610474","35218","35402","FS-1476682","FED","FS-FIRESTAT","FS","USMTBRF","Bitterroot National Forest","0103","Bitterroot National Forest","2","002","EXT9","HAMBURGER","","","","","","2009","2009/05/28 00:00:00+00","148","1630","Human","Missing data/not specified/undetermined","","2009/06/02 00:00:00+00","153","1600","4.2","B","46.12611111","-114.09888889","USFS","MT","81","30081","Ravalli County"
"-91.545825703","47.539991522","35219","35403","FS-1476684","FED","FS-FIRESTAT","FS","USMNSUF","Superior National Forest","0909","Superior National Forest","7","LAU-3","EK3H","KOKKONEN RD. FIRE","","","","","","2009","2009/05/16 00:00:00+00","136","1500","Human","Missing data/not specified/undetermined","","2009/05/16 00:00:00+00","136","1700","0.25","A","47.54","-91.54583333","STATE OR PRIVATE","MN","75","27075","Lake County"
"-121.238875469","40.746105835","35220","35404","FS-1476685","FED","FS-FIRESTAT","FS","USCALNF","Lassen National Forest","0506","Lassen National Forest","29","16","EK1X","OLD","","","","","","2009","2009/06/02 00:00:00+00","153","1700","Natural","Natural","","2009/06/02 00:00:00+00","153","1900","0.1","A","40.74611111","-121.23888889","STATE OR PRIVATE","CA","35","06035","Lassen County"
"-121.42081975","41.607494675","35221","35405","FS-1476686","FED","FS-FIRESTAT","FS","USCAMDF","Modoc National Forest","0509","Modoc National Forest","8","97","EK10","MDF DH UNIT 2","","","","","","2009","2009/05/31 00:00:00+00","151","1422","Natural","Natural","","2009/06/01 00:00:00+00","152","1100","0.1","A","41.6075","-121.42083333","USFS","CA","49","06049","Modoc County"
"-122.78498626","41.284994817","35222","35406","FS-1476687","FED","FS-FIRESTAT","FS","USCAKNF","Klamath National Forest","0505","Klamath National Forest","9","001","EK1W","FIRST","","","","","","2009","2009/05/30 00:00:00+00","150","1830","Natural","Natural","","2009/05/31 00:00:00+00","151","1030","0.2","A","41.285","-122.785","USFS","CA","93","06093","Siskiyou County"
"-123.164986216","41.206661526","35223","35407","FS-1476688","FED","FS-FIRESTAT","FS","USCAKNF","Klamath National Forest","0505","Klamath National Forest","25","001","EK1W","MURPHY","","","","","","2009","2009/06/02 00:00:00+00","153","1451","Natural","Natural","","2009/06/02 00:00:00+00","153","1700","0.1","A","41.20666667","-123.165","USFS","CA","93","06093","Siskiyou County"
"-123.052208442","41.271939281","35224","35408","FS-1476689","FED","FS-FIRESTAT","FS","USCAKNF","Klamath National Forest","0505","Klamath National Forest","27","002","EK1W","EAST","","","","","","2009","2009/06/02 00:00:00+00","153","2015","Natural","Natural","","2009/06/03 00:00:00+00","154","1540","0.1","A","41.27194444","-123.05222222","USFS","CA","93","06093","Siskiyou County"
"-116.39081916","48.959160322","35225","35409","FS-1476690","FED","FS-FIRESTAT","FS","USIDIPF","Idaho Panhandle National Forest","0104","Idaho Panhandle National Forest","13","7004","EKS5","HUFF ROAD","","","","","","2009","2009/06/06 00:00:00+00","157","1835","Natural","Natural","","2009/06/07 00:00:00+00","158","1000","0.1","A","48.95916667","-116.39083333","USFS","ID","17","16017","Bonner County"
"-116.413596933","48.971938093","35226","35410","FS-1476691","FED","FS-FIRESTAT","FS","USIDIPF","Idaho Panhandle National Forest","0104","Idaho Panhandle National Forest","11","7003","EKS5","MONTGOMERY MINE","","","","","","2009","2009/06/05 00:00:00+00","156","1957","Natural","Natural","","2009/06/06 00:00:00+00","157","1409","0.1","A","48.97194444","-116.41361111","USFS","ID","17","16017","Bonner County"
"-120.209430973","42.128327858","35227","35411","FS-1476692","FED","FS-FIRESTAT","FS","USORFWF","Fremont-Winema National Forest","0602","Fremont-Winema National Forest","2","002","EK2B","FRIED-112","","","","","","2009","2009/05/24 00:00:00+00","144","1745","Natural","Natural","","2009/05/24 00:00:00+00","144","2015","0.1","A","42.12833333","-120.20944444","USFS","OR","37","41037","Lake County"
"-120.39998646","42.384438966","35228","35412","FS-1476693","FED","FS-FIRESTAT","FS","USORFWF","Fremont-Winema National Forest","0602","Fremont-Winema National Forest","11","011","EK2B","PINE-153","","","","","","2009","2009/06/03 00:00:00+00","154","2025","Natural","Natural","","2009/06/03 00:00:00+00","154","2034","0.1","A","42.38444444","-120.4","USFS","OR","37","41037","Lake County"
"-120.161097647","42.152216742","35229","35413","FS-1476694","FED","FS-FIRESTAT","FS","USORFWF","Fremont-Winema National Forest","0602","Fremont-Winema National Forest","4","004","EK2B","WHISKEY CREEK-115","","","","","","2009","2009/05/26 00:00:00+00","146","1414","Natural","Natural","","2009/05/26 00:00:00+00","146","1900","0.3","B","42.15222222","-120.16111111","USFS","OR","37","41037","Lake County"
"-111.627211155","35.123605743","35230","35414","FS-1476695","FED","FS-FIRESTAT","FS","USAZCOF","Coconino National Forest","0304","Coconino National Forest","52","19","EKV3","FAY","","","","","","2009","2009/05/31 00:00:00+00","151","1000","Natural","Natural","","2009/05/31 00:00:00+00","151","1330","0.1","A","35.12361111","-111.62722222","USFS","AZ","5","04005","Coconino County"
"-103.449156356","43.992770686","35231","35415","FS-1476699","FED","FS-FIRESTAT","FS","USSDBKF","Black Hills National Forest","0203","Black Hills National Forest","7","3","EKT9","160","","","","","","2009","2009/05/31 00:00:00+00","151","2330","Human","Recreation and ceremony","","2009/05/31 00:00:00+00","151","2330","0.01","A","43.99277778","-103.44916667","USFS","SD","103","46103","Pennington County"
"-122.776652932","41.284994816","35232","35416","FS-1476700","FED","FS-FIRESTAT","FS","USCAKNF","Klamath National Forest","0505","Klamath National Forest","10","002","EK1W","DUFF","","","","","","2009","2009/05/30 00:00:00+00","150","1900","Natural","Natural","","2009/05/30 00:00:00+00","150","2125","0.1","A","41.285","-122.77666667","USFS","CA","93","06093","Siskiyou County"
"-123.061652842","41.58999482","35233","35417","FS-1476701","FED","FS-FIRESTAT","FS","USCAKNF","Klamath National Forest","0505","Klamath National Forest","14","003","EK1W","MEADOWS","","","","","","2009","2009/05/31 00:00:00+00","151","1000","Natural","Natural","","2009/05/31 00:00:00+00","151","1400","0.1","A","41.59","-123.06166667","USFS","CA","93","06093","Siskiyou County"
"-123.236652802","41.67555039","35234","35418","FS-1476702","FED","FS-FIRESTAT","FS","USCAKNF","Klamath National Forest","0505","Klamath National Forest","18","004","EK1W","BUCK","","","","","","2009","2009/06/01 00:00:00+00","152","1815","Natural","Natural","","2009/06/02 00:00:00+00","153","1800","0.1","A","41.67555556","-123.23666667","USFS","CA","93","06093","Siskiyou County"
"-123.169986165","41.529994834","35235","35419","FS-1476703","FED","FS-FIRESTAT","FS","USCAKNF","Klamath National Forest","0505","Klamath National Forest","19","005","EK1W","NORTH FORK KELSEY","","","","","","2009","2009/06/01 00:00:00+00","152","1900","Natural","Natural","","2009/06/02 00:00:00+00","153","1900","0.1","A","41.53","-123.17","USFS","CA","93","06093","Siskiyou County"
"-118.686654366","34.569161783","35236","35420","FS-1476705","FED","FS-FIRESTAT","FS","USCAANF","Angeles National Forest","0501","Angeles National Forest","66","38","EK1S","GRASS","","","","","","2009","2009/06/05 00:00:00+00","156","1539","Human","Equipment and vehicle use","","2009/06/05 00:00:00+00","156","1600","0.25","A","34.56916667","-118.68666667","USFS","CA","37","06037","Los Angeles County"
"-117.783043423","34.385828411","35237","35421","FS-1476707","FED","FS-FIRESTAT","FS","USCAANF","Angeles National Forest","0501","Angeles National Forest","48","32","EK1S","SNAG","","","","","","2009","2009/06/03 00:00:00+00","154","1232","Natural","Natural","","2009/06/03 00:00:00+00","154","1530","0.1","A","34.38583333","-117.78305556","USFS","CA","37","06037","Los Angeles County"
"-118.019987814","34.488606193","35238","35422","FS-1476709","FED","FS-FIRESTAT","FS","USCAANF","Angeles National Forest","0501","Angeles National Forest","50","34","EK1S","SLOPE","","","","","","2009","2009/06/03 00:00:00+00","154","1511","Natural","Natural","","2009/06/03 00:00:00+00","154","1730","0.1","A","34.48861111","-118.02","USFS","CA","37","06037","Los Angeles County"
"-121.96109745","41.585550284","35239","35423","FS-1476710","FED","FS-FIRESTAT","FS","USCAKNF","Klamath National Forest","0505","Klamath National Forest","32","11","EK1W","HAIGHT","","","","","","2009","2009/06/06 00:00:00+00","157","1730","Natural","Natural","","2009/06/06 00:00:00+00","157","2015","0.1","A","41.58555556","-121.96111111","USFS","CA","93","06093","Siskiyou County"
"-108.272767568","32.983050318","35240","35424","FS-1476711","FED","FS-FIRESTAT","FS","USNMGNF","Gila National Forest","0306","Gila National Forest","12","2","EV8Y","SHEEP CORRAL","","","","","","2009","2009/05/09 00:00:00+00","129","1530","Human","Equipment and vehicle use","","2009/05/10 00:00:00+00","130","1609","4","B","32.98305556","-108.27277778","USFS","NM","17","35017","Grant County"
"-108.058600953","32.829161441","35241","35425","FS-1476712","FED","FS-FIRESTAT","FS","USNMGNF","Gila National Forest","0306","Gila National Forest","8","01","EVD0","GEORGETOWN","","","","","","2009","2009/04/26 00:00:00+00","116","1630","Human","Missing data/not specified/undetermined","","2009/04/27 00:00:00+00","117","0900","72","C","32.82916667","-108.05861111","USFS","NM","17","35017","Grant County"
"-117.877210065","34.405272864","35242","35426","FS-1476713","FED","FS-FIRESTAT","FS","USCAANF","Angeles National Forest","0501","Angeles National Forest","56","35","EK1S","CRUTHERS","","","","","","2009","2009/06/03 00:00:00+00","154","1655","Natural","Natural","","2009/06/03 00:00:00+00","154","1745","0.1","A","34.40527778","-117.87722222","USFS","CA","37","06037","Los Angeles County"
"-117.721376763","34.387772857","35243","35427","FS-1476714","FED","FS-FIRESTAT","FS","USCAANF","Angeles National Forest","0501","Angeles National Forest","57","36","EK1S","LAKE","","","","","","2009","2009/06/03 00:00:00+00","154","1702","Natural","Natural","","2009/06/03 00:00:00+00","154","1900","0.1","A","34.38777778","-117.72138889","USFS","CA","37","06037","Los Angeles County"
"-121.392763793","44.03055006","35244","35428","FS-1476715","FED","FS-FIRESTAT","FS","USORDEF","Deschutes National Forest","0601","Deschutes National Forest","21","1-016","EX1P","0145","","","","","","2009","2009/05/30 00:00:00+00","150","1230","Human","Recreation and ceremony","","2009/05/30 00:00:00+00","150","1245","0.1","A","44.03055556","-121.39277778","USFS","OR","17","41017","Deschutes County"
"-110.773044812","33.27749484","35245","35429","FS-1476716","FED","FS-FIRESTAT","FS","USAZTNF","Tonto National Forest","0312","Tonto National Forest","43","1","EYA8","PIONEER","2009_AZ-TNF-000039_PIONEER","","AZ3329111078320090530","PIONEER","","2009","2009/05/30 00:00:00+00","150","1400","Natural","Natural","","2009/06/25 00:00:00+00","176","1800","1633","F","33.2775","-110.77305556","USFS","AZ","7","04007","Gila County"
"-122.039708529","41.706105832","35246","35430","FS-1476717","FED","FS-FIRESTAT","FS","USCAKNF","Klamath National Forest","0505","Klamath National Forest","8","06","EK1W","SUMMIT","","","","","","2009","2009/05/29 00:00:00+00","149","2345","Natural","Natural","","2009/05/30 00:00:00+00","150","0115","0.1","A","41.70611111","-122.03972222","USFS","CA","93","06093","Siskiyou County"
"-111.018044753","33.411383723","35247","35431","FS-1476718","FED","FS-FIRESTAT","FS","USAZTNF","Tonto National Forest","0312","Tonto National Forest","50","2","EKW0","FIFTY","","","","","","2009","2009/06/10 00:00:00+00","161","1400","Natural","Natural","","2009/06/11 00:00:00+00","162","1200","5","B","33.41138889","-111.01805556","USFS","AZ","7","04007","Gila County"
"-118.123597369","45.628882957","35248","35432","FS-1476719","FED","FS-FIRESTAT","FS","USORUMF","Umatilla National Forest","0614","Umatilla National Forest","5","","EK2L","RUCKEL","","","","","","2009","2009/06/05 00:00:00+00","156","1200","Natural","Natural","","2009/06/05 00:00:00+00","156","1730","0.1","A","45.62888889","-118.12361111","USFS","OR","59","41059","Umatilla County"
