"ï»¿X","Y","OBJECTID","FOD_ID","FPA_ID","SOURCE_SYSTEM_TYPE","SOURCE_SYSTEM","NWCG_REPORTING_AGENCY","NWCG_REPORTING_UNIT_ID","NWCG_REPORTING_UNIT_NAME","SOURCE_REPORTING_UNIT","SOURCE_REPORTING_UNIT_NAME","LOCAL_FIRE_REPORT_ID","LOCAL_INCIDENT_ID","FIRE_CODE","FIRE_NAME","ICS_209_PLUS_INCIDENT_JOIN_ID","ICS_209_PLUS_COMPLEX_JOIN_ID","MTBS_ID","MTBS_FIRE_NAME","COMPLEX_NAME","FIRE_YEAR","DISCOVERY_DATE","DISCOVERY_DOY","DISCOVERY_TIME","NWCG_CAUSE_CLASSIFICATION","NWCG_GENERAL_CAUSE","NWCG_CAUSE_AGE_CATEGORY","CONT_DATE","CONT_DOY","CONT_TIME","FIRE_SIZE","FIRE_SIZE_CLASS","LATITUDE","LONGITUDE","OWNER_DESCR","STATE","COUNTY","FIPS_CODE","FIPS_NAME"
"-106.928589138","42.148893411","350001","359321","W-531043","FED","DOI-WFMI","BLM","USWYRAD","Rawlins Field Office","WYRAD","Rawlins Field Office","","","C5KH","SEMINOE","","","","","","2006","2006/08/29 00:00:00+00","241","1503","Natural","Natural","","2006/08/30 00:00:00+00","242","1730","0.3","B","42.1489","-106.9286","BLM","WY","Carbon","56007","Carbon County"
"-105.43718951","41.937193322","350002","359322","W-531065","FED","DOI-WFMI","BLM","USWYRAD","Rawlins Field Office","WYRAD","Rawlins Field Office","","","C5JV","ELMERS ROCK 2","","","","","","2006","2006/08/29 00:00:00+00","241","1730","Natural","Natural","","2006/08/31 00:00:00+00","243","1100","5.6","B","41.9372","-105.4372","PRIVATE","WY","Albany","56001","Albany County"
"-106.976689238","41.343293514","350003","359323","W-532130","FED","DOI-WFMI","BLM","USWYRAD","Rawlins Field Office","WYRAD","Rawlins Field Office","","","C5VH","TRASH","","","","","","2006","2006/09/03 00:00:00+00","246","0956","Human","Debris and open burning","","2006/09/03 00:00:00+00","246","1207","0.1","A","41.3433","-106.9767","PRIVATE","WY","Carbon","56007","Carbon County"
"-106.868589206","41.758293454","350004","359324","W-533220","FED","DOI-WFMI","BLM","USWYRAD","Rawlins Field Office","WYRAD","Rawlins Field Office","","","C7FE","SAINT MARYS CREEK","","","","","","2006","2006/09/29 00:00:00+00","272","1626","Human","Smoking","","2006/09/29 00:00:00+00","272","1737","0.1","A","41.7583","-106.8686","PRIVATE","WY","Carbon","56007","Carbon County"
"-105.393289634","41.081693429","350005","359325","W-551037","FED","DOI-WFMI","BLM","USWYRAD","Rawlins Field Office","WYRAD","Rawlins Field Office","","","DD4W","DALE CREEK RR","","","","","","2007","2007/04/28 00:00:00+00","118","1030","Human","Railroad operations and maintenance","","2007/04/28 00:00:00+00","118","2200","1","B","41.0817","-105.3933","PRIVATE","WY","Albany","56001","Albany County"
"-107.376561053","42.030403461","350006","359326","W-543009","FED","DOI-WFMI","BLM","USWYRAD","Rawlins Field Office","WYRAD","Rawlins Field Office","","","DJR1","MILE POST 19","","","","","","2007","2007/06/18 00:00:00+00","169","1800","Human","Equipment and vehicle use","","2007/06/18 00:00:00+00","169","1840","0.5","B","42.03041","-107.376572","STATE","WY","Carbon","56007","Carbon County"
"-106.0834534","41.650051408","350007","359328","W-544807","FED","DOI-WFMI","BLM","USWYRAD","Rawlins Field Office","WYRAD","Rawlins Field Office","","","DL5L","MILE POST 166","","","","","","2007","2007/07/02 00:00:00+00","183","1530","Human","Railroad operations and maintenance","","2007/07/02 00:00:00+00","183","2006","1.4","B","41.650058","-106.083464","PRIVATE","WY","Carbon","56007","Carbon County"
"-106.87248915","42.152793406","350008","359329","W-551131","FED","DOI-WFMI","BLM","USWYRAD","Rawlins Field Office","WYRAD","Rawlins Field Office","","","DM4L","SEMINOE","2007_WY-RAD-00065_SEMINOE","","","","","2007","2007/07/04 00:00:00+00","185","2100","Natural","Natural","","2007/07/13 00:00:00+00","194","2000","250","D","42.1528","-106.8725","BLM","WY","Carbon","56007","Carbon County"
"-107.239989048","42.282193419","350009","359330","W-551221","FED","DOI-WFMI","BLM","USWYRAD","Rawlins Field Office","WYRAD","Rawlins Field Office","","","DNG4","POLE CANYON","","","","","","2007","2007/07/06 00:00:00+00","187","1450","Natural","Natural","","2007/07/12 00:00:00+00","193","1800","29.3","C","42.2822","-107.24","BLM","WY","Carbon","56007","Carbon County"
"-107.611849115","41.198523581","350010","359331","W-545921","FED","DOI-WFMI","BLM","USWYRAD","Rawlins Field Office","WYRAD","Rawlins Field Office","","","DP77","WILD HORSE BUTTE","","","","","","2007","2007/07/12 00:00:00+00","193","1605","Natural","Natural","","2007/07/12 00:00:00+00","193","2130","0.1","A","41.19853","-107.61186","BLM","WY","Carbon","56007","Carbon County"
"-107.642789121","41.105793595","350011","359332","W-543945","FED","DOI-WFMI","BLM","USWYRAD","Rawlins Field Office","WYRAD","Rawlins Field Office","","","DQF3","THE BLUFFS","","","","","","2007","2007/07/13 00:00:00+00","194","1754","Natural","Natural","","2007/07/13 00:00:00+00","194","1951","0.1","A","41.1058","-107.6428","BLM","WY","Carbon","56007","Carbon County"
"-107.656878955","42.278913453","350012","359333","W-544800","FED","DOI-WFMI","BLM","USWYRAD","Rawlins Field Office","WYRAD","Rawlins Field Office","","","DSC3","STRATTON DRAW","","","","","","2007","2007/07/19 00:00:00+00","200","1800","Natural","Natural","","2007/07/19 00:00:00+00","200","2100","0.1","A","42.27892","-107.65689","BLM","WY","Sweetwater","56037","Sweetwater County"
"-106.770319312","41.132273525","350013","359334","W-544835","FED","DOI-WFMI","BLM","USWYRAD","Rawlins Field Office","WYRAD","Rawlins Field Office","","","DSC4","LOST CREEK","","","","","","2007","2007/07/19 00:00:00+00","200","1900","Natural","Natural","","2007/07/20 00:00:00+00","201","1600","0.3","B","41.13228","-106.77033","STATE","WY","Carbon","56007","Carbon County"
"-106.535289226","42.157493379","350014","359335","W-544842","FED","DOI-WFMI","BLM","USWYRAD","Rawlins Field Office","WYRAD","Rawlins Field Office","","","DS0B","SHIRLEY MOUNTAIN","","","","","","2007","2007/07/21 00:00:00+00","202","1348","Natural","Natural","","2007/07/22 00:00:00+00","203","1630","0.1","A","42.1575","-106.5353","BLM","WY","Carbon","56007","Carbon County"
"-106.635789204","42.154693387","350015","359336","W-551022","FED","DOI-WFMI","BLM","USWYRAD","Rawlins Field Office","WYRAD","Rawlins Field Office","","","DS0C","AUSTIN","","","","","","2007","2007/07/21 00:00:00+00","202","1427","Natural","Natural","","2007/07/22 00:00:00+00","203","1130","0.1","A","42.1547","-106.6358","BLM","WY","Carbon","56007","Carbon County"
"-106.539189261","41.901273411","350016","359337","W-547850","FED","DOI-WFMI","BLM","USWYRAD","Rawlins Field Office","WYRAD","Rawlins Field Office","","","DS3R","ARCH 2","","","","","","2007","2007/07/22 00:00:00+00","203","1945","Natural","Natural","","2007/07/22 00:00:00+00","203","2230","1.5","B","41.90128","-106.5392","BLM","WY","Carbon","56007","Carbon County"
"-106.901299117","42.334433386","350017","359338","W-545334","FED","DOI-WFMI","BLM","USWYRAD","Rawlins Field Office","WYRAD","Rawlins Field Office","","","DS4W","PYRAMID PEAK","","","","","","2007","2007/07/22 00:00:00+00","203","2200","Natural","Natural","","2007/07/24 00:00:00+00","205","1204","2.8","B","42.33444","-106.90131","BLM","WY","Carbon","56007","Carbon County"
"-106.934389135","42.16169341","350018","359340","W-546488","FED","DOI-WFMI","BLM","USWYRAD","Rawlins Field Office","WYRAD","Rawlins Field Office","","","DVN7","POWERHOUSE","","","","","","2007","2007/08/07 00:00:00+00","219","1732","Natural","Natural","","2007/08/07 00:00:00+00","219","2045","0.1","A","42.1617","-106.9344","BOR","WY","Carbon","56007","Carbon County"
"-106.79062913","42.423573367","350019","359341","W-546835","FED","DOI-WFMI","BLM","USWYRAD","Rawlins Field Office","WYRAD","Rawlins Field Office","","","DV1C","CARDWELL RANCH","","","","","","2007","2007/08/09 00:00:00+00","221","2004","Natural","Natural","","2007/08/10 00:00:00+00","222","0815","0.2","A","42.42358","-106.79064","PRIVATE","WY","Carbon","56007","Carbon County"
"-107.178379132","41.785933475","350020","359344","W-549565","FED","DOI-WFMI","BLM","USWYRAD","Rawlins Field Office","WYRAD","Rawlins Field Office","","","DYD9","GOLF COURSE","","","","","","2007","2007/08/27 00:00:00+00","239","1542","Human","Equipment and vehicle use","","2007/08/27 00:00:00+00","239","1619","0.1","A","41.78594","-107.17839","PRIVATE","WY","Carbon","56007","Carbon County"
"-107.243289119","41.778293481","350021","359345","W-552782","FED","DOI-WFMI","BLM","USWYRAD","Rawlins Field Office","WYRAD","Rawlins Field Office","","","DYE2","HAY TRUCK","","","","","","2007","2007/08/27 00:00:00+00","239","1542","Human","Equipment and vehicle use","","2007/08/27 00:00:00+00","239","2030","0.3","B","41.7783","-107.2433","STATE","WY","Carbon","56007","Carbon County"
"-107.444689073","41.777793497","350022","359346","W-552819","FED","DOI-WFMI","BLM","USWYRAD","Rawlins Field Office","WYRAD","Rawlins Field Office","","","DY40","MILE MARKER 202","","","","","","2007","2007/09/01 00:00:00+00","244","1138","Human","Equipment and vehicle use","","2007/09/01 00:00:00+00","244","1248","0.2","A","41.7778","-107.4447","BLM","WY","Carbon","56007","Carbon County"
"-105.407189491","42.124393296","350023","359348","W-552838","FED","DOI-WFMI","BLM","USWYRAD","Rawlins Field Office","WYRAD","Rawlins Field Office","","","DZM5","STURGEON CREEK","","","","","","2007","2007/09/04 00:00:00+00","247","1033","Natural","Natural","","2007/09/05 00:00:00+00","248","1000","0.3","B","42.1244","-105.4072","PRIVATE","WY","Albany","56001","Albany County"
"-107.243289119","41.778293481","350024","359349","W-553011","FED","DOI-WFMI","BLM","USWYRAD","Rawlins Field Office","WYRAD","Rawlins Field Office","","","D1CS","MILE POST 213","","","","","","2007","2007/09/28 00:00:00+00","271","1804","Human","Missing data/not specified/undetermined","","2007/10/04 00:00:00+00","277","0959","0.7","B","41.7783","-107.2433","PRIVATE","WY","Carbon","56007","Carbon County"
"-106.011389439","41.478093424","350025","359350","W-553360","FED","DOI-WFMI","BLM","USWYRAD","Rawlins Field Office","WYRAD","Rawlins Field Office","","","D16V","MILEPOST 286","","","","","","2007","2007/11/08 00:00:00+00","312","1300","Human","Missing data/not specified/undetermined","","2007/11/08 00:00:00+00","312","1730","71","C","41.4781","-106.0114","PRIVATE","WY","Carbon","56007","Carbon County"
"-107.192789129","41.788593476","350026","359351","W-553679","FED","DOI-WFMI","BLM","USWYRAD","Rawlins Field Office","WYRAD","Rawlins Field Office","","","D2EJ","MM 215","","","","","","2007","2007/11/19 00:00:00+00","323","1116","Human","Missing data/not specified/undetermined","","2007/11/19 00:00:00+00","323","1135","0.1","A","41.7886","-107.1928","PRIVATE","WY","Carbon","56007","Carbon County"
"-105.426689517","41.904663325","350027","359352","W-573483","FED","DOI-WFMI","BLM","USWYRAD","Rawlins Field Office","WYRAD","Rawlins Field Office","","","D8ZM","96 RANCH","","","","","","2008","2008/06/25 00:00:00+00","177","1757","Natural","Natural","","2008/06/26 00:00:00+00","178","1513","0.5","B","41.90467","-105.4267","BLM","WY","Albany","56001","Albany County"
"-107.261689043","42.285593421","350028","359353","W-584830","FED","DOI-WFMI","BLM","USWYRAD","Rawlins Field Office","WYRAD","Rawlins Field Office","","","D9P0","FERRIS MOUNTAIN","","","","","","2008","2008/07/02 00:00:00+00","184","1345","Natural","Natural","","2008/07/07 00:00:00+00","189","1700","0.1","A","42.2856","-107.2617","BLM","WY","Carbon","56007","Carbon County"
"-106.405289293","41.893893402","350029","359354","W-579649","FED","DOI-WFMI","BLM","USWYRAD","Rawlins Field Office","WYRAD","Rawlins Field Office","","","EC96","MILE POST  261","","","","","","2008","2008/07/23 00:00:00+00","205","1400","Human","Missing data/not specified/undetermined","","2008/07/24 00:00:00+00","206","1400","3.1","B","41.8939","-106.4053","PRIVATE","WY","Carbon","56007","Carbon County"
"-106.913492137","42.178252406","350030","359356","W-577206","FED","DOI-WFMI","BLM","USWYRAD","Rawlins Field Office","WYRAD","Rawlins Field Office","","","EDV8","HIGHLINE","","","","","","2008","2008/07/25 00:00:00+00","207","1925","Natural","Natural","","2008/07/26 00:00:00+00","208","1115","0.3","B","42.178259","-106.913503","BLM","WY","Carbon","56007","Carbon County"
"-106.581389336","41.273933493","350031","359359","W-579660","FED","DOI-WFMI","BLM","USWYRAD","Rawlins Field Office","WYRAD","Rawlins Field Office","","","EF9S","BENNETT PEAK","","","","","","2008","2008/08/11 00:00:00+00","224","1315","Natural","Natural","","2008/08/12 00:00:00+00","225","1700","0.1","A","41.27394","-106.5814","BLM","WY","Carbon","56007","Carbon County"
"-108.090388947","41.657193562","350032","359361","W-577815","FED","DOI-WFMI","BLM","USWYRAD","Rawlins Field Office","WYRAD","Rawlins Field Office","","","EGS5","REDGRASS","","","","","","2008","2008/08/13 00:00:00+00","226","1822","Human","Missing data/not specified/undetermined","","2008/08/13 00:00:00+00","226","1945","0.8","B","41.6572","-108.0904","STATE","WY","Sweetwater","56037","Sweetwater County"
"-107.78314901","41.691703533","350033","359362","W-580467","FED","DOI-WFMI","BLM","USWYRAD","Rawlins Field Office","WYRAD","Rawlins Field Office","","","EHY6","CRESTON JUNCTION","2008_WY-RAD-000111_CRESTON JUNCTION","","","","","2008","2008/08/22 00:00:00+00","235","1440","Human","Railroad operations and maintenance","","2008/08/23 00:00:00+00","236","1900","350","E","41.69171","-107.78316","PRIVATE","WY","Sweetwater","56037","Sweetwater County"
"-108.241188916","41.637693576","350034","359363","W-579667","FED","DOI-WFMI","BLM","USWYRAD","Rawlins Field Office","WYRAD","Rawlins Field Office","","","EJN0","TIPTON","","","","","","2008","2008/08/29 00:00:00+00","242","1729","Human","Equipment and vehicle use","","2008/08/29 00:00:00+00","242","1945","1.1","B","41.6377","-108.2412","BLM","WY","Sweetwater","56037","Sweetwater County"
"-107.758892052","41.422493564","350035","359364","W-582130","FED","DOI-WFMI","BLM","USWYRAD","Rawlins Field Office","WYRAD","Rawlins Field Office","","","EKK3","789","","","","","","2008","2008/09/10 00:00:00+00","254","1843","Natural","Natural","","2008/09/10 00:00:00+00","254","1954","0.1","A","41.4225","-107.758903","BLM","WY","Carbon","56007","Carbon County"
"-106.904189116","42.340593386","350036","359365","W-582154","FED","DOI-WFMI","BLM","USWYRAD","Rawlins Field Office","WYRAD","Rawlins Field Office","","","ELS7","THE NARROWS","","","","","","2008","2008/09/20 00:00:00+00","264","1512","Natural","Natural","","2008/09/21 00:00:00+00","265","1430","10.6","C","42.3406","-106.9042","BLM","WY","Carbon","56007","Carbon County"
"-108.280588908","41.63079358","350037","359366","W-582151","FED","DOI-WFMI","BLM","USWYRAD","Rawlins Field Office","WYRAD","Rawlins Field Office","","","EL1P","158","","","","","","2008","2008/09/25 00:00:00+00","269","1458","Human","Missing data/not specified/undetermined","","2008/09/25 00:00:00+00","269","1640","0.1","A","41.6308","-108.2806","STATE","WY","Sweetwater","56037","Sweetwater County"
"-106.109989434","41.351693448","350038","359367","W-582434","FED","DOI-WFMI","BLM","USWYRAD","Rawlins Field Office","WYRAD","Rawlins Field Office","","","EN2N","STEERHEAD PARK","","","","","","2008","2008/10/29 00:00:00+00","303","0952","Human","Recreation and ceremony","","2008/10/29 00:00:00+00","303","1600","0.1","A","41.3517","-106.11","USFS","WY","Albany","56001","Albany County"
"-107.586389037","41.814393503","350039","359368","W-587906","FED","DOI-WFMI","BLM","USWYRAD","Rawlins Field Office","WYRAD","Rawlins Field Office","","","EZ16","RINER ASSIST","","","","","","2009","2009/06/23 00:00:00+00","174","2119","Human","Missing data/not specified/undetermined","","2009/06/24 00:00:00+00","175","1100","0.5","B","41.8144","-107.5864","PRIVATE","WY","Sweetwater","56037","Sweetwater County"
"-107.045281109","42.166684418","350040","359369","W-590334","FED","DOI-WFMI","BLM","USWYRAD","Rawlins Field Office","WYRAD","Rawlins Field Office","","","E1JR","BRADLEY PEAK TREE","","","","","","2009","2009/07/02 00:00:00+00","183","0916","Natural","Natural","","2009/07/11 00:00:00+00","192","0801","0.1","A","42.166691","-107.045292","PRIVATE","WY","Carbon","56007","Carbon County"
"-105.394189625","41.147193421","350041","359370","W-597475","FED","DOI-WFMI","BLM","USWYRAD","Rawlins Field Office","WYRAD","Rawlins Field Office","","","E0U9","PYRAMID","","","","","","2009","2009/07/04 00:00:00+00","185","1808","Human","Missing data/not specified/undetermined","","2009/07/05 00:00:00+00","186","1330","0.1","A","41.1472","-105.3942","PRIVATE","WY","Albany","56001","Albany County"
"-108.119688941","41.650293565","350042","359372","W-591090","FED","DOI-WFMI","BLM","USWYRAD","Rawlins Field Office","WYRAD","Rawlins Field Office","","","E36X","MILE MARKER 165","","","","","","2009","2009/08/03 00:00:00+00","215","1320","Human","Missing data/not specified/undetermined","","2009/08/03 00:00:00+00","215","1340","0.1","A","41.6503","-108.1197","BLM","WY","Sweetwater","56037","Sweetwater County"
"-108.169688931","41.64029357","350043","359373","W-591093","FED","DOI-WFMI","BLM","USWYRAD","Rawlins Field Office","WYRAD","Rawlins Field Office","","","E4AW","MILE MARKER 163","","","","","","2009","2009/08/04 00:00:00+00","216","0802","Human","Missing data/not specified/undetermined","","2009/08/04 00:00:00+00","216","0912","0.1","A","41.6403","-108.1697","BLM","WY","Sweetwater","56037","Sweetwater County"
"-107.238169171","41.402263527","350044","359374","W-592468","FED","DOI-WFMI","BLM","USWYRAD","Rawlins Field Office","WYRAD","Rawlins Field Office","","","E5CX","MIDDLEWOOD HILL","","","","","","2009","2009/08/16 00:00:00+00","228","1158","Human","Recreation and ceremony","","2009/08/16 00:00:00+00","228","1535","0.1","A","41.40227","-107.23818","BLM","WY","Carbon","56007","Carbon County"
"-107.449229003","42.270183437","350045","359375","W-594551","FED","DOI-WFMI","BLM","USWYRAD","Rawlins Field Office","WYRAD","Rawlins Field Office","","","E56K","TULLY RANCH","","","","","","2009","2009/08/30 00:00:00+00","242","1726","Natural","Natural","","2009/08/31 00:00:00+00","243","2000","4.1","B","42.27019","-107.44924","PRIVATE","WY","Carbon","56007","Carbon County"
"-108.268988911","41.632493578","350046","359376","W-594001","FED","DOI-WFMI","BLM","USWYRAD","Rawlins Field Office","WYRAD","Rawlins Field Office","","","E6GN","MILE MARKER 158","","","","","","2009","2009/09/02 00:00:00+00","245","1259","Human","Missing data/not specified/undetermined","","2009/09/02 00:00:00+00","245","1455","0.2","A","41.6325","-108.269","PRIVATE","WY","Sweetwater","56037","Sweetwater County"
"-106.99138117","41.820286456","350047","359377","W-595071","FED","DOI-WFMI","BLM","USWYRAD","Rawlins Field Office","WYRAD","Rawlins Field Office","","","E6QV","STEEL FIRE","","","","","","2009","2009/09/06 00:00:00+00","249","1708","Natural","Natural","","2009/09/07 00:00:00+00","250","1500","0.8","B","41.820293","-106.991392","BLM","WY","Carbon","56007","Carbon County"
"-105.718589391","42.322193295","350048","359378","W-594569","FED","DOI-WFMI","BLM","USWYRAD","Rawlins Field Office","WYRAD","Rawlins Field Office","","","E7BY","40 MILE PEAK","","","","","","2009","2009/09/16 00:00:00+00","259","1328","Natural","Natural","","2009/09/18 00:00:00+00","261","1530","0.1","A","42.3222","-105.7186","BLM","WY","Sweetwater","56037","Sweetwater County"
"-108.253588993","41.052993648","350049","359379","W-595065","FED","DOI-WFMI","BLM","USWYRAD","Rawlins Field Office","WYRAD","Rawlins Field Office","","","E7GS","POWDER MOUNTAIN","","","","","","2009","2009/09/19 00:00:00+00","262","1611","Natural","Natural","","2009/09/20 00:00:00+00","263","1648","0.8","B","41.053","-108.2536","BLM","WY","Sweetwater","56037","Sweetwater County"
"-106.753478221","41.835051436","350050","359380","W-596881","FED","DOI-WFMI","BLM","USWYRAD","Rawlins Field Office","WYRAD","Rawlins Field Office","","","E7XD","UP654","","","","","","2009","2009/09/29 00:00:00+00","272","1645","Human","Missing data/not specified/undetermined","","2009/09/29 00:00:00+00","272","2000","5","B","41.835058","-106.753489","PRIVATE","WY","Carbon","56007","Carbon County"
"-109.301788674","41.71659365","350051","359381","W-95837","FED","DOI-WFMI","BLM","USWYRSD","Rock Springs Field Office","WYRSD","Rock Springs Field Office","","","T573","SATURDAY","","","","","","2000","2000/04/29 00:00:00+00","120","1300","Human","Missing data/not specified/undetermined","","2000/04/29 00:00:00+00","120","2300","6","B","41.7166","-109.3018","BLM","WY","Sweetwater","56037","Sweetwater County"
"-109.167288717","41.612693651","350052","359382","W-95839","FED","DOI-WFMI","BLM","USWYRSD","Rock Springs Field Office","WYRSD","Rock Springs Field Office","","","T574","SKYLINE","","","","","","2000","2000/05/23 00:00:00+00","144","1100","Natural","Natural","","2000/05/23 00:00:00+00","144","2200","1","B","41.6127","-109.1673","BLM","WY","Sweetwater","56037","Sweetwater County"
"-109.168988761","41.294693689","350053","359383","W-95840","FED","DOI-WFMI","BLM","USWYRSD","Rock Springs Field Office","WYRSD","Rock Springs Field Office","","","T575","CANDY","","","","","","2000","2000/06/09 00:00:00+00","161","1100","Natural","Natural","","2000/06/09 00:00:00+00","161","1800","0.3","B","41.2947","-109.169","BLM","WY","Sweetwater","56037","Sweetwater County"
"-109.323988697","41.517193675","350054","359384","W-95844","FED","DOI-WFMI","BLM","USWYRSD","Rock Springs Field Office","WYRSD","Rock Springs Field Office","","","T576","GAS PLANT","","","","","","2000","2000/06/18 00:00:00+00","170","1400","Natural","Natural","","2000/06/19 00:00:00+00","171","1800","0.1","A","41.5172","-109.324","BLM","WY","Sweetwater","56037","Sweetwater County"
"-109.48098873","41.032493744","350055","359385","W-95847","FED","DOI-WFMI","BLM","USWYRSD","Rock Springs Field Office","WYRSD","Rock Springs Field Office","","","T577","WILDHORS2","","","","","","2000","2000/06/18 00:00:00+00","170","1700","Natural","Natural","","2000/06/18 00:00:00+00","170","2300","0.5","B","41.0325","-109.481","BLM","WY","Sweetwater","56037","Sweetwater County"
"-109.236188722","41.470793673","350056","359386","W-95848","FED","DOI-WFMI","BLM","USWYRSD","Rock Springs Field Office","WYRSD","Rock Springs Field Office","","","T578","ASPEN","","","","","","2000","2000/06/20 00:00:00+00","172","1400","Natural","Natural","","2000/06/20 00:00:00+00","172","2000","2","B","41.4708","-109.2362","BLM","WY","Sweetwater","56037","Sweetwater County"
"-110.645988392","41.68689376","350057","359387","W-95850","FED","DOI-WFMI","BLM","USWYRSD","Rock Springs Field Office","WYRSD","Rock Springs Field Office","","","T580","WARFIELD","","","","","","2000","2000/06/27 00:00:00+00","179","1415","Natural","Natural","","2000/07/03 00:00:00+00","185","2000","55","C","41.6869","-110.646","BLM","WY","Lincoln","56023","Lincoln County"
"-109.51318872","41.049393745","350058","359388","W-95853","FED","DOI-WFMI","BLM","USWYRSD","Rock Springs Field Office","WYRSD","Rock Springs Field Office","","","T581","MEDW GULCH","","","","","","2000","2000/06/28 00:00:00+00","180","1500","Natural","Natural","","2000/06/28 00:00:00+00","180","2300","0.3","B","41.0494","-109.5132","BLM","WY","Sweetwater","56037","Sweetwater County"
"-109.226488762","41.193893705","350059","359389","W-95855","FED","DOI-WFMI","BLM","USWYRSD","Rock Springs Field Office","WYRSD","Rock Springs Field Office","","","T582","RAMSEY","2000_WY-RSD-T582_RAMSEY","","","","","2000","2000/06/29 00:00:00+00","181","1600","Natural","Natural","","2000/07/02 00:00:00+00","184","2300","100","D","41.1939","-109.2265","BLM","WY","Sweetwater","56037","Sweetwater County"
"-109.587888468","42.70329356","350060","359390","W-95857","FED","DOI-WFMI","BLM","USWYRSD","Rock Springs Field Office","WYRSD","Rock Springs Field Office","","","T583","DITCH","","","","","","2000","2000/06/30 00:00:00+00","182","1330","Human","Missing data/not specified/undetermined","","2000/06/30 00:00:00+00","182","2300","2.3","B","42.7033","-109.5879","BLM","WY","Sublette","56035","Sublette County"
"-108.84088878","41.672193619","350061","359391","W-95859","FED","DOI-WFMI","BLM","USWYRSD","Rock Springs Field Office","WYRSD","Rock Springs Field Office","","","T584","TEEPEE MT","","","","","","2000","2000/07/01 00:00:00+00","183","1700","Natural","Natural","","2000/07/02 00:00:00+00","184","1900","0.3","B","41.6722","-108.8409","BLM","WY","Sweetwater","56037","Sweetwater County"
"-109.30288869","41.597993664","350062","359392","W-95860","FED","DOI-WFMI","BLM","USWYRSD","Rock Springs Field Office","WYRSD","Rock Springs Field Office","","","T585","BLACK BUTE","2000_WY-RSD-T585_BLACK BUTTE","","","","","2000","2000/07/03 00:00:00+00","185","1000","Natural","Natural","","2000/07/08 00:00:00+00","190","2300","2550","F","41.598","-109.3029","BLM","WY","Sweetwater","56037","Sweetwater County"
"-109.302888766","41.049393728","350063","359393","W-95863","FED","DOI-WFMI","BLM","USWYRSD","Rock Springs Field Office","WYRSD","Rock Springs Field Office","","","T586","WLD HORSE","2000_WY-RSD-_WILD HORSE BASIN","","WY4127110938020000703","WLD HORSE","","2000","2000/07/03 00:00:00+00","185","1700","Natural","Natural","","2000/07/13 00:00:00+00","195","2300","36700","G","41.0494","-109.3029","BLM","WY","Sweetwater","56037","Sweetwater County"
"-109.627088475","42.600493575","350064","359394","W-95865","FED","DOI-WFMI","BLM","USWYRSD","Rock Springs Field Office","WYRSD","Rock Springs Field Office","","","T587","BOULDER","","","","","","2000","2000/07/05 00:00:00+00","187","1500","Human","Recreation and ceremony","","2000/07/06 00:00:00+00","188","2000","0.3","B","42.6005","-109.6271","BLM","WY","Sheridan","56033","Sheridan County"
"-109.332588648","41.852493636","350065","359395","W-95871","FED","DOI-WFMI","BLM","USWYRSD","Rock Springs Field Office","WYRSD","Rock Springs Field Office","","","T588","WHITE MT","","","","","","2000","2000/07/07 00:00:00+00","189","1600","Human","Equipment and vehicle use","","2000/07/10 00:00:00+00","192","2000","43","C","41.8525","-109.3326","BLM","WY","Sweetwater","56037","Sweetwater County"
"-108.915688669","42.332493547","350066","359396","W-95875","FED","DOI-WFMI","BLM","USWYRSD","Rock Springs Field Office","WYRSD","Rock Springs Field Office","","","T589","ASPEN 2","","","","","","2000","2000/07/11 00:00:00+00","193","1500","Natural","Natural","","2000/07/11 00:00:00+00","193","2345","0.1","A","42.3325","-108.9157","BLM","WY","Sublette","56035","Sublette County"
"-110.632888438","41.380193794","350067","359397","W-95878","FED","DOI-WFMI","BLM","USWYRSD","Rock Springs Field Office","WYRSD","Rock Springs Field Office","","","T590","MUDDY","","","","","","2000","2000/07/12 00:00:00+00","194","1230","Natural","Natural","","2000/07/13 00:00:00+00","195","2200","4","B","41.3802","-110.6329","BLM","WY","Uinta","56041","Uinta County"
"-110.594588446","41.380193791","350068","359398","W-95883","FED","DOI-WFMI","BLM","USWYRSD","Rock Springs Field Office","WYRSD","Rock Springs Field Office","","","T592","LONG SPARK","","","","","","2000","2000/07/13 00:00:00+00","195","1130","Human","Equipment and vehicle use","","2000/07/13 00:00:00+00","195","2345","20","C","41.3802","-110.5946","BLM","WY","Uinta","56041","Uinta County"
"-109.01598879","41.323593674","350069","359399","W-95880","FED","DOI-WFMI","BLM","USWYRSD","Rock Springs Field Office","WYRSD","Rock Springs Field Office","","","T591","SAGE CRK 3","2000_WY-RSD-T591_SAGE CREEK #3","","WY4132410901620000713","SAGE CREEK 3","","2000","2000/07/13 00:00:00+00","195","1600","Human","Fireworks","","2000/07/20 00:00:00+00","202","2030","1377","F","41.3236","-109.016","BLM","WY","Sweetwater","56037","Sweetwater County"
"-109.51788847","42.786093545","350070","359400","W-95885","FED","DOI-WFMI","BLM","USWYRSD","Rock Springs Field Office","WYRSD","Rock Springs Field Office","","","T594","BUCK SKIN","","","","","","2000","2000/07/17 00:00:00+00","199","1430","Natural","Natural","","2000/07/17 00:00:00+00","199","2300","0.1","A","42.7861","-109.5179","BLM","WY","Sublette","56035","Sublette County"
"-109.537388461","42.814893544","350071","359401","W-95886","FED","DOI-WFMI","BLM","USWYRSD","Rock Springs Field Office","WYRSD","Rock Springs Field Office","","","T595","HAWKSNEST","","","","","","2000","2000/07/17 00:00:00+00","199","1630","Natural","Natural","","2000/07/17 00:00:00+00","199","2345","0.1","A","42.8149","-109.5374","BLM","WY","Sublette","56035","Sublette County"
"-109.615988444","42.81489355","350072","359402","W-95884","FED","DOI-WFMI","BLM","USWYRSD","Rock Springs Field Office","WYRSD","Rock Springs Field Office","","","T593","BUSTER","","","","","","2000","2000/07/17 00:00:00+00","199","1700","Natural","Natural","","2000/07/17 00:00:00+00","199","2345","0.1","A","42.8149","-109.616","BLM","WY","Sublette","56035","Sublette County"
"-108.977888816","41.193893686","350073","359403","W-95890","FED","DOI-WFMI","BLM","USWYRSD","Rock Springs Field Office","WYRSD","Rock Springs Field Office","","","T597","TWO PERCNT","","","","","","2000","2000/07/18 00:00:00+00","200","1500","Natural","Natural","","2000/07/19 00:00:00+00","201","2300","1","B","41.1939","-108.9779","BLM","WY","Sweetwater","56037","Sweetwater County"
"-109.060088617","42.468593543","350074","359404","W-95888","FED","DOI-WFMI","BLM","USWYRSD","Rock Springs Field Office","WYRSD","Rock Springs Field Office","","","T596","BLUCHER CR","","","","","","2000","2000/07/18 00:00:00+00","200","1700","Natural","Natural","","2000/07/18 00:00:00+00","200","2345","0.1","A","42.4686","-109.0601","BLM","WY","Sweetwater","56037","Sweetwater County"
"-108.939588826","41.179393685","350075","359405","W-95891","FED","DOI-WFMI","BLM","USWYRSD","Rock Springs Field Office","WYRSD","Rock Springs Field Office","","","T598","STALLION","","","","","","2000","2000/07/19 00:00:00+00","201","1600","Natural","Natural","","2000/07/21 00:00:00+00","203","2230","3.5","B","41.1794","-108.9396","BLM","WY","Sweetwater","56037","Sweetwater County"
"-108.805688859","41.150493678","350076","359406","W-95892","FED","DOI-WFMI","BLM","USWYRSD","Rock Springs Field Office","WYRSD","Rock Springs Field Office","","","T599","HWY 430","","","","","","2000","2000/07/20 00:00:00+00","202","1630","Natural","Natural","","2000/07/20 00:00:00+00","202","2300","0.1","A","41.1505","-108.8057","BLM","WY","Sweetwater","56037","Sweetwater County"
"-108.72928886","41.265793658","350077","359407","W-95893","FED","DOI-WFMI","BLM","USWYRSD","Rock Springs Field Office","WYRSD","Rock Springs Field Office","","","T600","RIFES RIM","","","","","","2000","2000/07/20 00:00:00+00","202","1700","Natural","Natural","","2000/07/21 00:00:00+00","203","2200","2","B","41.2658","-108.7293","BLM","WY","Sweetwater","56037","Sweetwater County"
"-110.858788289","42.090493733","350078","359408","W-95894","FED","DOI-WFMI","BLM","USWYRSD","Rock Springs Field Office","WYRSD","Rock Springs Field Office","","","T601","SPRING CK","","","","","","2000","2000/07/24 00:00:00+00","206","1300","Natural","Natural","","2000/07/25 00:00:00+00","207","1900","500","E","42.0905","-110.8588","BLM","WY","Lincoln","56023","Lincoln County"
"-110.537088456","41.394693785","350079","359409","W-95895","FED","DOI-WFMI","BLM","USWYRSD","Rock Springs Field Office","WYRSD","Rock Springs Field Office","","","T602","VACA","2000_WY-RSD-T602_VACA  FIRE","","","","","2000","2000/07/25 00:00:00+00","207","1600","Natural","Natural","","2000/08/01 00:00:00+00","214","2300","700","E","41.3947","-110.5371","BLM","WY","Uinta","56041","Uinta County"
"-110.883788257","42.269893715","350080","359410","W-97073","FED","DOI-WFMI","BLM","USWYRSD","Rock Springs Field Office","WYRSD","Rock Springs Field Office","","","T603","RAYMOND","","","","","","2000","2000/07/26 00:00:00+00","208","1600","Natural","Natural","","2000/08/01 00:00:00+00","214","1700","50","C","42.2699","-110.8838","BLM","WY","Sweetwater","56037","Sweetwater County"
"-108.888688823","41.286393668","350081","359411","W-97076","FED","DOI-WFMI","BLM","USWYRSD","Rock Springs Field Office","WYRSD","Rock Springs Field Office","","","T604","ERICKSON","","","","","","2000","2000/07/26 00:00:00+00","208","1800","Natural","Natural","","2000/07/27 00:00:00+00","209","2000","0.1","A","41.2864","-108.8887","BLM","WY","Sweetwater","56037","Sweetwater County"
"-109.016188802","41.237193684","350082","359412","W-97078","FED","DOI-WFMI","BLM","USWYRSD","Rock Springs Field Office","WYRSD","Rock Springs Field Office","","","T605","TOMMY J","","","","","","2000","2000/07/26 00:00:00+00","208","1900","Natural","Natural","","2000/07/27 00:00:00+00","209","2000","0.1","A","41.2372","-109.0162","BLM","WY","Sweetwater","56037","Sweetwater County"
"-109.188188786","41.078293716","350083","359413","W-97079","FED","DOI-WFMI","BLM","USWYRSD","Rock Springs Field Office","WYRSD","Rock Springs Field Office","","","T606","ONETWENTY","","","","","","2000","2000/07/27 00:00:00+00","209","1530","Natural","Natural","","2000/07/28 00:00:00+00","210","1900","0.1","A","41.0783","-109.1882","BLM","WY","Sweetwater","56037","Sweetwater County"
"-108.962088637","42.483293534","350084","359414","W-97081","FED","DOI-WFMI","BLM","USWYRSD","Rock Springs Field Office","WYRSD","Rock Springs Field Office","","","T608","ACORN","","","","","","2000","2000/07/31 00:00:00+00","213","1500","Natural","Natural","","2000/08/02 00:00:00+00","215","2000","0.5","B","42.4833","-108.9621","BLM","WY","Sweetwater","56037","Sweetwater County"
"-109.188188784","41.092693714","350085","359415","W-97080","FED","DOI-WFMI","BLM","USWYRSD","Rock Springs Field Office","WYRSD","Rock Springs Field Office","","","T607","RED CREEK","","","","","","2000","2000/07/31 00:00:00+00","213","1530","Natural","Natural","","2000/08/15 00:00:00+00","228","1930","20","C","41.0927","-109.1882","BLM","WY","Sweetwater","56037","Sweetwater County"
"-108.470388716","42.673793472","350086","359416","W-97082","FED","DOI-WFMI","BLM","USWYRSD","Rock Springs Field Office","WYRSD","Rock Springs Field Office","","","T609","IRISH","","","","","","2000","2000/08/01 00:00:00+00","214","1500","Natural","Natural","","2000/08/03 00:00:00+00","216","2000","400","E","42.6738","-108.4704","BLM","WY","Sublette","56035","Sublette County"
"-109.264888746","41.251393702","350087","359417","W-97084","FED","DOI-WFMI","BLM","USWYRSD","Rock Springs Field Office","WYRSD","Rock Springs Field Office","","","T610","LB","","","","","","2000","2000/08/03 00:00:00+00","216","1600","Natural","Natural","","2000/08/04 00:00:00+00","217","2000","3","B","41.2514","-109.2649","BLM","WY","Sweetwater","56037","Sweetwater County"
"-110.375688427","41.837393722","350088","359418","W-97086","FED","DOI-WFMI","BLM","USWYRSD","Rock Springs Field Office","WYRSD","Rock Springs Field Office","","","T612","OPAL","","","","","","2000","2000/08/09 00:00:00+00","222","1700","Natural","Natural","","2000/08/10 00:00:00+00","223","1800","500","E","41.8374","-110.3757","BLM","WY","Sweetwater","56037","Sweetwater County"
"-109.264888742","41.280193698","350089","359419","W-97088","FED","DOI-WFMI","BLM","USWYRSD","Rock Springs Field Office","WYRSD","Rock Springs Field Office","","","T614","LOWER SAGE","","","","","","2000","2000/08/10 00:00:00+00","223","1800","Natural","Natural","","2000/08/11 00:00:00+00","224","1600","120","D","41.2802","-109.2649","BLM","WY","Sweetwater","56037","Sweetwater County"
"-109.245688747","41.280193697","350090","359420","W-97087","FED","DOI-WFMI","BLM","USWYRSD","Rock Springs Field Office","WYRSD","Rock Springs Field Office","","","T613","SINGLE TRE","","","","","","2000","2000/08/10 00:00:00+00","223","1900","Natural","Natural","","2000/08/10 00:00:00+00","223","2000","0.1","A","41.2802","-109.2457","BLM","WY","Sweetwater","56037","Sweetwater County"
"-109.317088736","41.245193706","350091","359421","W-97071","FED","DOI-WFMI","BLM","USWYRSD","Rock Springs Field Office","WYRSD","Rock Springs Field Office","","","T615","SHEEP MT","2000_WY-RSD-T615_SHEEP MOUNTAIN","","WY4125210924520000811","SHEEP MT","","2000","2000/08/11 00:00:00+00","224","1100","Natural","Natural","","2000/09/15 00:00:00+00","259","1800","36645","G","41.2452","-109.3171","BLM","WY","Sweetwater","56037","Sweetwater County"
"-109.797388547","41.862993672","350092","359422","W-104706","FED","DOI-WFMI","BLM","USWYRSD","Rock Springs Field Office","WYRSD","Rock Springs Field Office","","","T629","CONFLUENCE","","","","","","2001","2001/06/08 00:00:00+00","159","1300","Natural","Natural","","2001/06/08 00:00:00+00","159","1959","5","B","41.863","-109.7974","BLM","WY","Sweetwater","56037","Sweetwater County"
"-110.769888326","41.96299374","350093","359423","W-104708","FED","DOI-WFMI","BLM","USWYRSD","Rock Springs Field Office","WYRSD","Rock Springs Field Office","","","T631","ITWNTYSEVN","","","","","","2001","2001/06/14 00:00:00+00","165","1337","Human","Smoking","","2001/06/14 00:00:00+00","165","1800","0.5","B","41.963","-110.7699","BLM","WY","Sweetwater","56037","Sweetwater County"
"-109.338688715","41.366593694","350094","359424","W-105841","FED","DOI-WFMI","BLM","USWYRSD","Rock Springs Field Office","WYRSD","Rock Springs Field Office","","","T633","FIRE HOLE","","","","","","2001","2001/06/22 00:00:00+00","173","1800","Natural","Natural","","2001/06/23 00:00:00+00","174","1300","0.1","A","41.3666","-109.3387","PRIVATE","WY","Sweetwater","56037","Sweetwater County"
"-110.02788848","41.986293677","350095","359425","W-104709","FED","DOI-WFMI","BLM","USWYRSD","Rock Springs Field Office","WYRSD","Rock Springs Field Office","","","T632","SCALE CG","","","","","","2001","2001/06/23 00:00:00+00","174","1048","Human","Recreation and ceremony","","2001/06/23 00:00:00+00","174","1400","1","B","41.9863","-110.0279","FWS","WY","Sweetwater","56037","Sweetwater County"
"-109.360088744","41.121593724","350096","359426","W-104710","FED","DOI-WFMI","BLM","USWYRSD","Rock Springs Field Office","WYRSD","Rock Springs Field Office","","","T634","MARSH FIRE","","","","","","2001","2001/06/24 00:00:00+00","175","1200","Natural","Natural","","2001/06/24 00:00:00+00","175","1800","0.1","A","41.1216","-109.3601","BLM","WY","Sweetwater","56037","Sweetwater County"
"-109.083988737","41.599993646","350097","359427","W-104712","FED","DOI-WFMI","BLM","USWYRSD","Rock Springs Field Office","WYRSD","Rock Springs Field Office","","","T636","BAXTER RD","","","","","","2001","2001/07/04 00:00:00+00","185","1639","Human","Missing data/not specified/undetermined","","2001/07/04 00:00:00+00","185","2200","20","C","41.6","-109.084","PRIVATE","WY","Sweetwater","56037","Sweetwater County"
"-108.707088882","41.142693671","350098","359428","W-104713","FED","DOI-WFMI","BLM","USWYRSD","Rock Springs Field Office","WYRSD","Rock Springs Field Office","","","T637","KINNEY RIM","","","","","","2001","2001/07/05 00:00:00+00","186","1000","Natural","Natural","","2001/07/05 00:00:00+00","186","2000","20","C","41.1427","-108.7071","BLM","WY","Sweetwater","56037","Sweetwater County"
"-109.333988759","41.049993731","350099","359429","W-104715","FED","DOI-WFMI","BLM","USWYRSD","Rock Springs Field Office","WYRSD","Rock Springs Field Office","","","T639","POWER STN","","","","","","2001","2001/07/05 00:00:00+00","186","1420","Natural","Natural","","2001/07/05 00:00:00+00","186","1800","0.1","A","41.05","-109.334","BLM","WY","Sweetwater","56037","Sweetwater County"
"-109.247588783","41.006293729","350100","359431","W-104716","FED","DOI-WFMI","BLM","USWYRSD","Rock Springs Field Office","WYRSD","Rock Springs Field Office","","","T641","GAP","2001_WY-RSD-074_THE GAP","","","","","2001","2001/07/06 00:00:00+00","187","1344","Natural","Natural","","2001/07/06 00:00:00+00","187","1800","300","E","41.0063","-109.2476","BLM","WY","Sweetwater","56037","Sweetwater County"
"-109.183988787","41.083293715","350101","359432","W-104747","FED","DOI-WFMI","BLM","USWYRSD","Rock Springs Field Office","WYRSD","Rock Springs Field Office","","","T642","PIPELINE","","","","","","2001","2001/07/07 00:00:00+00","188","1237","Natural","Natural","","2001/07/08 00:00:00+00","189","1501","1","B","41.0833","-109.184","BLM","WY","Sweetwater","56037","Sweetwater County"
"-109.185088715","41.599993654","350102","359433","W-104750","FED","DOI-WFMI","BLM","USWYRSD","Rock Springs Field Office","WYRSD","Rock Springs Field Office","","","T643","ST FIRE","","","","","","2001","2001/07/07 00:00:00+00","188","1343","Natural","Natural","","2001/07/07 00:00:00+00","188","1800","0.1","A","41.6","-109.1851","BLM","WY","Sweetwater","56037","Sweetwater County"
"-109.323688717","41.374393692","350103","359434","W-104751","FED","DOI-WFMI","BLM","USWYRSD","Rock Springs Field Office","WYRSD","Rock Springs Field Office","","","T644","L FIRE 2","","","","","","2001","2001/07/07 00:00:00+00","188","1640","Natural","Natural","","2001/07/07 00:00:00+00","188","2000","0.3","B","41.3744","-109.3237","BLM","WY","Sweetwater","56037","Sweetwater County"
"-109.360088712","41.352493697","350104","359435","W-104754","FED","DOI-WFMI","BLM","USWYRSD","Rock Springs Field Office","WYRSD","Rock Springs Field Office","","","T645","PACKHORSE","","","","","","2001","2001/07/07 00:00:00+00","188","1642","Natural","Natural","","2001/07/08 00:00:00+00","189","0800","0.1","A","41.3525","-109.3601","BLM","WY","Sweetwater","56037","Sweetwater County"
"-109.300688734","41.283293701","350105","359436","W-104757","FED","DOI-WFMI","BLM","USWYRSD","Rock Springs Field Office","WYRSD","Rock Springs Field Office","","","T646","CURRENT CK","","","","","","2001","2001/07/07 00:00:00+00","188","2000","Natural","Natural","","2001/07/08 00:00:00+00","189","1300","0.1","A","41.2833","-109.3007","BLM","WY","Sweetwater","56037","Sweetwater County"
"-109.317388722","41.349993694","350106","359437","W-104782","FED","DOI-WFMI","BLM","USWYRSD","Rock Springs Field Office","WYRSD","Rock Springs Field Office","","","T647","FLAT TOP","","","","","","2001","2001/07/08 00:00:00+00","189","1245","Natural","Natural","","2001/07/08 00:00:00+00","189","1500","0.1","A","41.35","-109.3174","BLM","WY","Sweetwater","56037","Sweetwater County"
"-108.933988818","41.249993676","350107","359438","W-104802","FED","DOI-WFMI","BLM","USWYRSD","Rock Springs Field Office","WYRSD","Rock Springs Field Office","","","T648","DRY CANYON","","","","","","2001","2001/07/09 00:00:00+00","190","1720","Natural","Natural","","2001/07/11 00:00:00+00","192","1100","3","B","41.25","-108.934","BLM","WY","Sweetwater","56037","Sweetwater County"
"-109.284788561","42.517993556","350108","359439","W-104803","FED","DOI-WFMI","BLM","USWYRSD","Rock Springs Field Office","WYRSD","Rock Springs Field Office","","","T649","ZIMBO","","","","","","2001","2001/07/09 00:00:00+00","190","1810","Natural","Natural","","2001/07/09 00:00:00+00","190","2158","7","B","42.518","-109.2848","BLM","WY","Sweetwater","56037","Sweetwater County"
"-110.33268835","42.423593653","350109","359440","W-105021","FED","DOI-WFMI","BLM","USWYRSD","Rock Springs Field Office","WYRSD","Rock Springs Field Office","","","T650","TIP TOP","","","","","","2001","2001/07/09 00:00:00+00","190","2215","Natural","Natural","","2001/07/09 00:00:00+00","190","2315","5","B","42.4236","-110.3327","BLM","WY","Sublette","56035","Sublette County"
"-109.315388718","41.38079369","350110","359441","W-105022","FED","DOI-WFMI","BLM","USWYRSD","Rock Springs Field Office","WYRSD","Rock Springs Field Office","","","T651","RINNO","","","","","","2001","2001/07/12 00:00:00+00","193","1830","Natural","Natural","","2001/07/12 00:00:00+00","193","2030","0.1","A","41.3808","-109.3154","PRIVATE","WY","Sweetwater","56037","Sweetwater County"
"-109.487388731","41.009093747","350111","359442","W-105844","FED","DOI-WFMI","BLM","USWYRSD","Rock Springs Field Office","WYRSD","Rock Springs Field Office","","","T652","MINI GLADE","","","","","","2001","2001/07/13 00:00:00+00","194","1530","Natural","Natural","","2001/07/14 00:00:00+00","195","0900","0.1","A","41.0091","-109.4874","BLM","WY","Sweetwater","56037","Sweetwater County"
"-109.832088387","42.88769356","350112","359443","W-105845","FED","DOI-WFMI","BLM","USWYRSD","Rock Springs Field Office","WYRSD","Rock Springs Field Office","","","T653","FREMONT LA","","","","","","2001","2001/07/14 00:00:00+00","195","0415","Human","Missing data/not specified/undetermined","","2001/07/14 00:00:00+00","195","0730","5","B","42.8877","-109.8321","BLM","WY","Sublette","56035","Sublette County"
"-108.997088806","41.237193682","350113","359444","W-105848","FED","DOI-WFMI","BLM","USWYRSD","Rock Springs Field Office","WYRSD","Rock Springs Field Office","","","T655","LANEY","","","","","","2001","2001/07/16 00:00:00+00","197","1730","Natural","Natural","","2001/07/18 00:00:00+00","199","1800","25","C","41.2372","-108.9971","BLM","WY","Sweetwater","56037","Sweetwater County"
"-109.391488743","41.079093732","350114","359445","W-105852","FED","DOI-WFMI","BLM","USWYRSD","Rock Springs Field Office","WYRSD","Rock Springs Field Office","","","T656","WEST SPRIN","","","","","","2001","2001/07/22 00:00:00+00","203","1610","Natural","Natural","","2001/07/24 00:00:00+00","205","1800","30","C","41.0791","-109.3915","BLM","WY","Sweetwater","56037","Sweetwater County"
"-110.350188353","42.379893659","350115","359446","W-105853","FED","DOI-WFMI","BLM","USWYRSD","Rock Springs Field Office","WYRSD","Rock Springs Field Office","","","T657","BLACK CANY","","","","","","2001","2001/07/23 00:00:00+00","204","1315","Natural","Natural","","2001/07/23 00:00:00+00","204","1720","3.5","B","42.3799","-110.3502","BLM","WY","Sublette","56035","Sublette County"
"-109.244288726","41.434693678","350116","359447","W-105850","FED","DOI-WFMI","BLM","USWYRSD","Rock Springs Field Office","WYRSD","Rock Springs Field Office","","","T659","LITTLE BIT","","","","","","2001","2001/07/27 00:00:00+00","208","1700","Natural","Natural","","2001/07/29 00:00:00+00","210","1900","23","C","41.4347","-109.2443","BLM","WY","Sweetwater","56037","Sweetwater County"
"-109.220088758","41.2332937","350117","359448","W-104958","FED","DOI-WFMI","BLM","USWYRSD","Rock Springs Field Office","WYRSD","Rock Springs Field Office","","","T660","SAGE CREEK","","","","","","2001","2001/07/29 00:00:00+00","210","1100","Natural","Natural","","2001/07/30 00:00:00+00","211","1500","4.7","B","41.2333","-109.2201","BLM","WY","Sweetwater","56037","Sweetwater County"
"-109.226788758","41.229093701","350118","359449","W-104959","FED","DOI-WFMI","BLM","USWYRSD","Rock Springs Field Office","WYRSD","Rock Springs Field Office","","","T661","CUL","","","","","","2001","2001/07/29 00:00:00+00","210","1240","Natural","Natural","","2001/07/29 00:00:00+00","210","1530","0.1","A","41.2291","-109.2268","BLM","WY","Sweetwater","56037","Sweetwater County"
"-110.02458832","43.048293558","350119","359450","W-105865","FED","DOI-WFMI","BLM","USWYRSD","Rock Springs Field Office","WYRSD","Rock Springs Field Office","","","T662","CORA","","","","","","2001","2001/07/30 00:00:00+00","211","1613","Natural","Natural","","2001/07/30 00:00:00+00","211","2100","100","D","43.0483","-110.0246","BLM","WY","Sublette","56035","Sublette County"
"-109.23788875","41.265793698","350120","359451","W-105866","FED","DOI-WFMI","BLM","USWYRSD","Rock Springs Field Office","WYRSD","Rock Springs Field Office","","","T663","SAGE ROAD","","","","","","2001","2001/08/02 00:00:00+00","214","1814","Natural","Natural","","2001/08/03 00:00:00+00","215","1500","7","B","41.2658","-109.2379","PRIVATE","WY","Sweetwater","56037","Sweetwater County"
"-109.323988716","41.377693691","350121","359452","W-104961","FED","DOI-WFMI","BLM","USWYRSD","Rock Springs Field Office","WYRSD","Rock Springs Field Office","","","T664","ASSIST 6","","","","","","2001","2001/08/03 00:00:00+00","215","1720","Natural","Natural","","2001/08/03 00:00:00+00","215","2000","0.1","A","41.3777","-109.324","PRIVATE","WY","Sweetwater","56037","Sweetwater County"
"-109.386188741","41.098293729","350122","359453","W-105867","FED","DOI-WFMI","BLM","USWYRSD","Rock Springs Field Office","WYRSD","Rock Springs Field Office","","","T665","JJT","","","","","","2001","2001/08/03 00:00:00+00","215","1740","Natural","Natural","","2001/08/03 00:00:00+00","215","2100","0.5","B","41.0983","-109.3862","BLM","WY","Sweetwater","56037","Sweetwater County"
"-110.617388065","43.841593525","350123","359454","W-105868","FED","DOI-WFMI","BLM","USWYRSD","Rock Springs Field Office","WYRSD","Rock Springs Field Office","","","T666","LINCOLN CO","","","","","","2001","2001/08/03 00:00:00+00","215","1800","Natural","Natural","","2001/08/03 00:00:00+00","215","2030","0.1","A","43.8416","-110.6174","BLM","WY","Sweetwater","56037","Sweetwater County"
"-109.326788706","41.449993683","350124","359455","W-104415","FED","DOI-WFMI","BLM","USWYRSD","Rock Springs Field Office","WYRSD","Rock Springs Field Office","","","T667","WELSH","","","","","","2001","2001/08/05 00:00:00+00","217","1050","Natural","Natural","","2001/08/05 00:00:00+00","217","1315","0.1","A","41.45","-109.3268","PRIVATE","WY","Sweetwater","56037","Sweetwater County"
"-108.961788638","42.474393535","350125","359456","W-105873","FED","DOI-WFMI","BLM","USWYRSD","Rock Springs Field Office","WYRSD","Rock Springs Field Office","","","T670","SWEET WATE","","","","","","2001","2001/08/07 00:00:00+00","219","1700","Natural","Natural","","2001/08/08 00:00:00+00","220","1000","0.1","A","42.4744","-108.9618","BLM","WY","Fremont","56013","Fremont County"
"-108.717588854","41.332693649","350126","359457","W-104422","FED","DOI-WFMI","BLM","USWYRSD","Rock Springs Field Office","WYRSD","Rock Springs Field Office","","","T671","ILSE","","","","","","2001","2001/08/09 00:00:00+00","221","1000","Natural","Natural","","2001/08/09 00:00:00+00","221","1330","0.1","A","41.3327","-108.7176","BLM","WY","Sweetwater","56037","Sweetwater County"
"-110.953488324","41.714893782","350127","359458","W-104629","FED","DOI-WFMI","BLM","USWYRSD","Rock Springs Field Office","WYRSD","Rock Springs Field Office","","","T672","HIGH TOP","","","","","","2001","2001/08/09 00:00:00+00","221","1800","Natural","Natural","","2001/08/10 00:00:00+00","222","1200","75","C","41.7149","-110.9535","BLM","WY","Sweetwater","56037","Sweetwater County"
"-108.767588877","41.078293684","350128","359459","W-104628","FED","DOI-WFMI","BLM","USWYRSD","Rock Springs Field Office","WYRSD","Rock Springs Field Office","","","T673","CHICKEN SP","","","","","","2001","2001/08/10 00:00:00+00","222","1300","Natural","Natural","","2001/08/11 00:00:00+00","223","1200","0.1","A","41.0783","-108.7676","BLM","WY","Sweetwater","56037","Sweetwater County"
"-108.964288805","41.298893673","350129","359460","W-104436","FED","DOI-WFMI","BLM","USWYRSD","Rock Springs Field Office","WYRSD","Rock Springs Field Office","","","T675","SW","","","","","","2001","2001/08/18 00:00:00+00","230","1200","Natural","Natural","","2001/08/18 00:00:00+00","230","2100","0.1","A","41.2989","-108.9643","BLM","WY","Sweetwater","56037","Sweetwater County"
"-108.950688808","41.299993671","350130","359461","W-104425","FED","DOI-WFMI","BLM","USWYRSD","Rock Springs Field Office","WYRSD","Rock Springs Field Office","","","T676","CONNOR","","","","","","2001","2001/08/18 00:00:00+00","230","1300","Natural","Natural","","2001/08/18 00:00:00+00","230","2100","0.1","A","41.3","-108.9507","BLM","WY","Sweetwater","56037","Sweetwater County"
"-108.950688719","41.933293597","350131","359462","W-105851","FED","DOI-WFMI","BLM","USWYRSD","Rock Springs Field Office","WYRSD","Rock Springs Field Office","","","T654","SAND","","","","","","2001","2001/08/18 00:00:00+00","230","1500","Natural","Natural","","2001/08/19 00:00:00+00","231","1300","180","D","41.9333","-108.9507","PRIVATE","WY","Sweetwater","56037","Sweetwater County"
"-108.819588667","42.488793522","350132","359463","W-104446","FED","DOI-WFMI","BLM","USWYRSD","Rock Springs Field Office","WYRSD","Rock Springs Field Office","","","T677","ROCK","","","","","","2001","2001/08/19 00:00:00+00","231","1230","Human","Missing data/not specified/undetermined","","2001/08/20 00:00:00+00","232","1200","3.4","B","42.4888","-108.8196","BLM","WY","Fremont","56013","Fremont County"
"-109.417388628","41.866593642","350133","359464","W-105339","FED","DOI-WFMI","BLM","USWYRSD","Rock Springs Field Office","WYRSD","Rock Springs Field Office","","","T678","CLAY BUTTE","","","","","","2001","2001/08/19 00:00:00+00","231","1530","Natural","Natural","","2001/08/19 00:00:00+00","231","2000","4","B","41.8666","-109.4174","BLM","WY","Sweetwater","56037","Sweetwater County"
"-109.338988715","41.361593694","350134","359465","W-104429","FED","DOI-WFMI","BLM","USWYRSD","Rock Springs Field Office","WYRSD","Rock Springs Field Office","","","T680","CORRAL","","","","","","2001","2001/08/21 00:00:00+00","233","1000","Natural","Natural","","2001/08/21 00:00:00+00","233","1930","0.1","A","41.3616","-109.339","BLM","WY","Sweetwater","56037","Sweetwater County"
"-109.350088713","41.361593695","350135","359466","W-104432","FED","DOI-WFMI","BLM","USWYRSD","Rock Springs Field Office","WYRSD","Rock Springs Field Office","","","T681","CORRAL TAI","","","","","","2001","2001/08/21 00:00:00+00","233","1200","Natural","Natural","","2001/08/21 00:00:00+00","233","1930","0.1","A","41.3616","-109.3501","BLM","WY","Sweetwater","56037","Sweetwater County"
"-109.330988716","41.366593693","350136","359467","W-104434","FED","DOI-WFMI","BLM","USWYRSD","Rock Springs Field Office","WYRSD","Rock Springs Field Office","","","T679","SALLY","","","","","","2001","2001/08/21 00:00:00+00","233","1200","Natural","Natural","","2001/08/21 00:00:00+00","233","1930","0.1","A","41.3666","-109.331","BLM","WY","Sweetwater","56037","Sweetwater County"
"-109.767388655","41.133293755","350137","359468","W-104423","FED","DOI-WFMI","BLM","USWYRSD","Rock Springs Field Office","WYRSD","Rock Springs Field Office","","","T682","TWIN BUTTE","","","","","","2001","2001/08/22 00:00:00+00","234","0930","Natural","Natural","","2001/08/22 00:00:00+00","234","1500","0.1","A","41.1333","-109.7674","BLM","WY","Sweetwater","56037","Sweetwater County"
"-109.375388708","41.355793698","350138","359469","W-105020","FED","DOI-WFMI","BLM","USWYRSD","Rock Springs Field Office","WYRSD","Rock Springs Field Office","","","T683","GHOST","","","","","","2001","2001/08/23 00:00:00+00","235","1810","Natural","Natural","","2001/08/28 00:00:00+00","240","1800","4","B","41.3558","-109.3754","BLM","WY","Sweetwater","56037","Sweetwater County"
"-108.750688805","41.633293616","350139","359470","W-104975","FED","DOI-WFMI","BLM","USWYRSD","Rock Springs Field Office","WYRSD","Rock Springs Field Office","","","T684","POWERLINE","","","","","","2001","2001/08/27 00:00:00+00","239","1200","Natural","Natural","","2001/08/27 00:00:00+00","239","1800","4","B","41.6333","-108.7507","BLM","WY","Sweetwater","56037","Sweetwater County"
"-110.467388303","42.54989365","350140","359471","W-105338","FED","DOI-WFMI","BLM","USWYRSD","Rock Springs Field Office","WYRSD","Rock Springs Field Office","","","T686","FISH","","","","","","2001","2001/09/01 00:00:00+00","244","1330","Natural","Natural","","2001/09/01 00:00:00+00","244","1430","0.3","B","42.5499","-110.4674","BLM","WY","Sweetwater","56037","Sweetwater County"
"-111.049088308","41.686893793","350141","359472","W-105340","FED","DOI-WFMI","BLM","USWYRSD","Rock Springs Field Office","WYRSD","Rock Springs Field Office","","","T687","WHIZBANG","","","","","","2001","2001/09/01 00:00:00+00","244","1630","Natural","Natural","","2001/09/02 00:00:00+00","245","1200","30","C","41.6869","-111.0491","BLM","WY","Lincoln","56023","Lincoln County"
"-109.374888751","41.044993735","350142","359473","W-104615","FED","DOI-WFMI","BLM","USWYRSD","Rock Springs Field Office","WYRSD","Rock Springs Field Office","","","T688","WEST SPRNG","","","","","","2001","2001/09/04 00:00:00+00","247","1200","Natural","Natural","","2001/09/06 00:00:00+00","249","1400","7","B","41.045","-109.3749","BLM","WY","Sweetwater","56037","Sweetwater County"
"-109.267388748","41.233293704","350143","359474","W-104705","FED","DOI-WFMI","BLM","USWYRSD","Rock Springs Field Office","WYRSD","Rock Springs Field Office","","","T689","SLIM SAGE","","","","","","2001","2001/09/04 00:00:00+00","247","1200","Natural","Natural","","2001/09/12 00:00:00+00","255","1300","12","C","41.2333","-109.2674","BLM","WY","Sublette","56035","Sublette County"
"-109.200688754","41.299993691","350144","359475","W-104621","FED","DOI-WFMI","BLM","USWYRSD","Rock Springs Field Office","WYRSD","Rock Springs Field Office","","","T690","FUN FIRE","","","","","","2001","2001/09/04 00:00:00+00","247","1200","Natural","Natural","","2001/09/07 00:00:00+00","250","1600","0.1","A","41.3","-109.2007","BLM","WY","Sweetwater","56037","Sweetwater County"
"-109.36708871","41.357993697","350145","359476","W-104622","FED","DOI-WFMI","BLM","USWYRSD","Rock Springs Field Office","WYRSD","Rock Springs Field Office","","","T691","WILKENS PK","","","","","","2001","2001/09/04 00:00:00+00","247","1630","Natural","Natural","","2001/09/05 00:00:00+00","248","1345","1","B","41.358","-109.3671","BLM","WY","Sweetwater","56037","Sweetwater County"
"-110.950688224","42.399893706","350146","359477","W-104626","FED","DOI-WFMI","BLM","USWYRSD","Rock Springs Field Office","WYRSD","Rock Springs Field Office","","","T692","COKEVILLE","","","","","","2001","2001/09/04 00:00:00+00","247","2000","Natural","Natural","","2001/09/06 00:00:00+00","249","1300","0.3","B","42.3999","-110.9507","BLM","WY","Sweetwater","56037","Sweetwater County"
"-108.950688809","41.289993673","350147","359478","W-104619","FED","DOI-WFMI","BLM","USWYRSD","Rock Springs Field Office","WYRSD","Rock Springs Field Office","","","T695","R JAM RIDG","","","","","","2001","2001/09/05 00:00:00+00","248","1200","Natural","Natural","","2001/09/08 00:00:00+00","251","1300","0.1","A","41.29","-108.9507","BLM","WY","Sweetwater","56037","Sweetwater County"
"-105.928289476","41.342793435","350148","359479","W-104627","FED","DOI-WFMI","BLM","USWYRSD","Rock Springs Field Office","WYRSD","Rock Springs Field Office","","","T693","DEERHORN","","","","","","2001","2001/09/05 00:00:00+00","248","1300","Natural","Natural","","2001/09/08 00:00:00+00","251","1200","1.5","B","41.3428","-105.9283","BLM","WY","Sweetwater","56037","Sweetwater County"
"-109.933988624","41.099993771","350149","359480","W-104625","FED","DOI-WFMI","BLM","USWYRSD","Rock Springs Field Office","WYRSD","Rock Springs Field Office","","","T694","CEDAR MTN","","","","","","2001","2001/09/05 00:00:00+00","248","1450","Natural","Natural","","2001/09/05 00:00:00+00","248","1851","0.1","A","41.1","-109.934","BLM","WY","Sweetwater","56037","Sweetwater County"
"-109.322888721","41.348893695","350150","359481","W-104623","FED","DOI-WFMI","BLM","USWYRSD","Rock Springs Field Office","WYRSD","Rock Springs Field Office","","","T696","FIREHOLE","","","","","","2001","2001/09/05 00:00:00+00","248","1800","Natural","Natural","","2001/09/06 00:00:00+00","249","1200","0.5","B","41.3489","-109.3229","BLM","WY","Sweetwater","56037","Sweetwater County"
"-110.767988313","42.054093729","350151","359482","W-104620","FED","DOI-WFMI","BLM","USWYRSD","Rock Springs Field Office","WYRSD","Rock Springs Field Office","","","T697","PINK HILL","","","","","","2001","2001/09/05 00:00:00+00","248","1845","Natural","Natural","","2001/09/07 00:00:00+00","250","1500","1","B","42.0541","-110.768","BLM","WY","Sheridan","56033","Sheridan County"
"-109.315988722","41.347493694","350152","359483","W-104624","FED","DOI-WFMI","BLM","USWYRSD","Rock Springs Field Office","WYRSD","Rock Springs Field Office","","","T698","I 281","","","","","","2001","2001/09/05 00:00:00+00","248","2000","Natural","Natural","","2001/09/06 00:00:00+00","249","1153","0.1","A","41.3475","-109.316","BLM","WY","Sweetwater","56037","Sweetwater County"
"-108.947288831","41.132993691","350153","359484","W-104617","FED","DOI-WFMI","BLM","USWYRSD","Rock Springs Field Office","WYRSD","Rock Springs Field Office","","","T699","DRY CANYON","","","","","","2001","2001/09/06 00:00:00+00","249","1100","Natural","Natural","","2001/09/07 00:00:00+00","250","1643","0.1","A","41.133","-108.9473","BLM","WY","Sheridan","56033","Sheridan County"
"-108.883988838","41.18329368","350154","359485","W-105019","FED","DOI-WFMI","BLM","USWYRSD","Rock Springs Field Office","WYRSD","Rock Springs Field Office","","","T700","RATTLESNAK","","","","","","2001","2001/09/06 00:00:00+00","249","1600","Natural","Natural","","2001/09/07 00:00:00+00","250","1800","3","B","41.1833","-108.884","BLM","WY","Sweetwater","56037","Sweetwater County"
"-109.410688678","41.516593682","350155","359486","W-105259","FED","DOI-WFMI","BLM","USWYRSD","Rock Springs Field Office","WYRSD","Rock Springs Field Office","","","T701","DUALLY","","","","","","2001","2001/09/14 00:00:00+00","257","1400","Human","Missing data/not specified/undetermined","","2001/09/14 00:00:00+00","257","1500","1","B","41.5166","-109.4107","BLM","WY","Sweetwater","56037","Sweetwater County"
"-109.233988749","41.283293695","350156","359487","W-105262","FED","DOI-WFMI","BLM","USWYRSD","Rock Springs Field Office","WYRSD","Rock Springs Field Office","","","T702","SPLIT ROCK","","","","","","2001","2001/09/14 00:00:00+00","257","1530","Natural","Natural","","2001/09/14 00:00:00+00","257","1630","0.3","B","41.2833","-109.234","BLM","WY","Sweetwater","56037","Sweetwater County"
"-109.25068875","41.249993701","350157","359488","W-104899","FED","DOI-WFMI","BLM","USWYRSD","Rock Springs Field Office","WYRSD","Rock Springs Field Office","","","T703","PAREA","","","","","","2001","2001/09/15 00:00:00+00","258","1500","Natural","Natural","","2001/09/15 00:00:00+00","258","1915","0.5","B","41.25","-109.2507","BLM","WY","Sweetwater","56037","Sweetwater County"
"-109.333188702","41.466593681","350158","359489","W-104974","FED","DOI-WFMI","BLM","USWYRSD","Rock Springs Field Office","WYRSD","Rock Springs Field Office","","","T704","ARCHERY","","","","","","2001","2001/09/16 00:00:00+00","259","1630","Natural","Natural","","2001/09/16 00:00:00+00","259","1730","0.1","A","41.4666","-109.3332","BLM","WY","Sweetwater","56037","Sweetwater County"
"-109.189588733","41.46579367","350159","359490","W-104971","FED","DOI-WFMI","BLM","USWYRSD","Rock Springs Field Office","WYRSD","Rock Springs Field Office","","","T705","KOLMAN","","","","","","2001","2001/09/16 00:00:00+00","259","1710","Natural","Natural","","2001/09/16 00:00:00+00","259","1830","0.1","A","41.4658","-109.1896","PRIVATE","WY","Sweetwater","56037","Sweetwater County"
"-108.991488735","41.75999362","350160","359491","W-105794","FED","DOI-WFMI","BLM","USWYRSD","Rock Springs Field Office","WYRSD","Rock Springs Field Office","","","T707","BIG BULL","","","","","","2001","2001/09/30 00:00:00+00","273","1500","Natural","Natural","","2001/10/01 00:00:00+00","274","1242","3.5","B","41.76","-108.9915","BLM","WY","Sweetwater","56037","Sweetwater County"
"-104.911889632","41.941593281","350161","359492","W-107212","FED","DOI-WFMI","BLM","USWYRSD","Rock Springs Field Office","WYRSD","Rock Springs Field Office","","","T709","HORSESHOE","","","","","","2002","2002/03/26 00:00:00+00","85","1100","Natural","Natural","","2002/03/26 00:00:00+00","85","1800","8","B","41.9416","-104.9119","FWS","WY","Sweetwater","56037","Sweetwater County"
"-108.984788736","41.762993619","350162","359493","W-114157","FED","DOI-WFMI","BLM","USWYRSD","Rock Springs Field Office","WYRSD","Rock Springs Field Office","","","T710","ASSIST 2","","","","","","2002","2002/04/13 00:00:00+00","103","1638","Human","Missing data/not specified/undetermined","","2002/04/13 00:00:00+00","103","2100","25","C","41.763","-108.9848","PRIVATE","WY","Sweetwater","56037","Sweetwater County"
"-109.199588715","41.578893658","350163","359494","W-114160","FED","DOI-WFMI","BLM","USWYRSD","Rock Springs Field Office","WYRSD","Rock Springs Field Office","","","T713","ASSIST 5","","","","","","2002","2002/05/19 00:00:00+00","139","1500","Human","Fireworks","Minor","2002/05/19 00:00:00+00","139","1604","0.5","B","41.5789","-109.1996","PRIVATE","WY","Sweetwater","56037","Sweetwater County"
"-107.302789173","41.280193547","350164","359495","W-114161","FED","DOI-WFMI","BLM","USWYRSD","Rock Springs Field Office","WYRSD","Rock Springs Field Office","","","T714","UPPER SAGE","","","","","","2002","2002/06/04 00:00:00+00","155","1320","Natural","Natural","","2002/06/05 00:00:00+00","156","0800","0.1","A","41.2802","-107.3028","BLM","WY","Sweetwater","56037","Sweetwater County"
"-110.563488385","41.860193734","350165","359496","W-114166","FED","DOI-WFMI","BLM","USWYRSD","Rock Springs Field Office","WYRSD","Rock Springs Field Office","","","T720","HAMS FORK","","","","","","2002","2002/06/07 00:00:00+00","158","1800","Natural","Natural","","2002/06/07 00:00:00+00","158","2200","0.5","B","41.8602","-110.5635","BLM","WY","Lincoln","56023","Lincoln County"
"-108.62728883","41.647693605","350166","359497","W-114162","FED","DOI-WFMI","BLM","USWYRSD","Rock Springs Field Office","WYRSD","Rock Springs Field Office","","","T716","ASSIST 6","","","","","","2002","2002/06/21 00:00:00+00","172","1721","Natural","Natural","","2002/06/21 00:00:00+00","172","2007","0.5","B","41.6477","-108.6273","PRIVATE","WY","Sweetwater","56037","Sweetwater County"
"-109.218688737","41.390193682","350167","359498","W-114163","FED","DOI-WFMI","BLM","USWYRSD","Rock Springs Field Office","WYRSD","Rock Springs Field Office","","","T717","ASSIST 7","","","","","","2002","2002/06/22 00:00:00+00","173","0920","Natural","Natural","","2002/06/24 00:00:00+00","175","1717","3","B","41.3902","-109.2187","PRIVATE","WY","Sweetwater","56037","Sweetwater County"
"-108.718988853","41.332993649","350168","359499","W-114164","FED","DOI-WFMI","BLM","USWYRSD","Rock Springs Field Office","WYRSD","Rock Springs Field Office","","","T718","PINE BUTTE","","","","","","2002","2002/06/28 00:00:00+00","179","0748","Natural","Natural","","2002/06/29 00:00:00+00","180","0900","0.3","B","41.333","-108.719","BLM","WY","Sweetwater","56037","Sweetwater County"
"-110.80348834","41.819693758","350169","359500","W-114165","FED","DOI-WFMI","BLM","USWYRSD","Rock Springs Field Office","WYRSD","Rock Springs Field Office","","","T719","KEMMERER C","","","","","","2002","2002/07/05 00:00:00+00","186","1610","Natural","Natural","","2002/07/05 00:00:00+00","186","2050","2","B","41.8197","-110.8035","PRIVATE","WY","Lincoln","56023","Lincoln County"
"-110.460188514","41.091593813","350170","359501","W-114168","FED","DOI-WFMI","BLM","USWYRSD","Rock Springs Field Office","WYRSD","Rock Springs Field Office","","","T721","RED DOUG","","","","","","2002","2002/07/10 00:00:00+00","191","0758","Natural","Natural","","2002/07/10 00:00:00+00","191","1215","0.1","A","41.0916","-110.4602","BLM","WY","Uinta","56041","Uinta County"
"-109.350388738","41.177693717","350171","359502","W-112001","FED","DOI-WFMI","BLM","USWYRSD","Rock Springs Field Office","WYRSD","Rock Springs Field Office","","","T722","CURRENT CR","","","","","","2002","2002/07/14 00:00:00+00","195","1800","Natural","Natural","","2002/07/28 00:00:00+00","209","1600","150","D","41.1777","-109.3504","BLM","WY","Sweetwater","56037","Sweetwater County"
"-109.100688802","41.099993707","350172","359503","W-114169","FED","DOI-WFMI","BLM","USWYRSD","Rock Springs Field Office","WYRSD","Rock Springs Field Office","","","T715","PINE MTN","","","","","","2002","2002/07/14 00:00:00+00","195","1845","Natural","Natural","","2002/07/15 00:00:00+00","196","1700","0.3","B","41.1","-109.1007","BLM","WY","Sweetwater","56037","Sweetwater County"
"-109.241188735","41.372193685","350173","359504","W-114172","FED","DOI-WFMI","BLM","USWYRSD","Rock Springs Field Office","WYRSD","Rock Springs Field Office","","","T725","BITTER CR","","","","","","2002","2002/07/17 00:00:00+00","198","1744","Natural","Natural","","2002/07/18 00:00:00+00","199","1600","0.8","B","41.3722","-109.2412","BLM","WY","Sweetwater","56037","Sweetwater County"
"-109.241488275","44.372193348","350174","359505","W-114173","FED","DOI-WFMI","BLM","USWYRSD","Rock Springs Field Office","WYRSD","Rock Springs Field Office","","","T726","FLAT TIRE","","","","","","2002","2002/07/19 00:00:00+00","200","1500","Natural","Natural","","2002/07/19 00:00:00+00","200","1607","0.1","A","44.3722","-109.2415","BLM","WY","Sweetwater","56037","Sweetwater County"
"-108.762588362","44.481093295","350175","359506","W-114171","FED","DOI-WFMI","BLM","USWYRSD","Rock Springs Field Office","WYRSD","Rock Springs Field Office","","","T724","RIM","","","","","","2002","2002/07/19 00:00:00+00","200","1545","Natural","Natural","","2002/07/19 00:00:00+00","200","1915","0.8","B","44.4811","-108.7626","BLM","WY","Sweetwater","56037","Sweetwater County"
"-109.451188734","41.04859374","350176","359507","W-109841","FED","DOI-WFMI","BLM","USWYRSD","Rock Springs Field Office","WYRSD","Rock Springs Field Office","","","T727","RAINY DAY","","","","","","2002","2002/07/19 00:00:00+00","200","1700","Natural","Natural","","2002/07/20 00:00:00+00","201","1330","0.3","B","41.0486","-109.4512","BLM","WY","Sweetwater","56037","Sweetwater County"
"-109.353188259","44.317493364","350177","359508","W-114174","FED","DOI-WFMI","BLM","USWYRSD","Rock Springs Field Office","WYRSD","Rock Springs Field Office","","","T729","LONER","","","","","","2002","2002/07/19 00:00:00+00","200","1902","Natural","Natural","","2002/07/20 00:00:00+00","201","1122","0.1","A","44.3175","-109.3532","PRIVATE","WY","Sweetwater","56037","Sweetwater County"
"-108.560388854","41.581893607","350178","359509","W-114156","FED","DOI-WFMI","BLM","USWYRSD","Rock Springs Field Office","WYRSD","Rock Springs Field Office","","","T730","PATRICK DR","","","","","","2002","2002/07/20 00:00:00+00","201","1430","Natural","Natural","","2002/07/20 00:00:00+00","201","1700","9","B","41.5819","-108.5604","PRIVATE","WY","Sweetwater","56037","Sweetwater County"
"-109.238188719","41.492193671","350179","359510","W-114178","FED","DOI-WFMI","BLM","USWYRSD","Rock Springs Field Office","WYRSD","Rock Springs Field Office","","","T734","SANITARY","","","","","","2002","2002/07/20 00:00:00+00","201","1600","Natural","Natural","","2002/07/22 00:00:00+00","203","1300","1","B","41.4922","-109.2382","BLM","WY","Sweetwater","56037","Sweetwater County"
"-109.475088729","41.049393742","350180","359511","W-114180","FED","DOI-WFMI","BLM","USWYRSD","Rock Springs Field Office","WYRSD","Rock Springs Field Office","","","T735","SAT  NIGHT","","","","","","2002","2002/07/20 00:00:00+00","201","1650","Natural","Natural","","2002/07/21 00:00:00+00","202","1300","0.1","A","41.0494","-109.4751","BLM","WY","Sweetwater","56037","Sweetwater County"
"-109.226488757","41.2371937","350181","359512","W-110523","FED","DOI-WFMI","BLM","USWYRSD","Rock Springs Field Office","WYRSD","Rock Springs Field Office","","","T728","LUCKY 7","","","","","","2002","2002/07/20 00:00:00+00","201","1730","Natural","Natural","","2002/07/22 00:00:00+00","203","1200","1.5","B","41.2372","-109.2265","BLM","WY","Sweetwater","56037","Sweetwater County"
"-109.254288715","41.494993672","350182","359513","W-114177","FED","DOI-WFMI","BLM","USWYRSD","Rock Springs Field Office","WYRSD","Rock Springs Field Office","","","T733","OUT BACK","","","","","","2002","2002/07/20 00:00:00+00","201","1730","Natural","Natural","","2002/07/21 00:00:00+00","202","1100","0.1","A","41.495","-109.2543","BLM","WY","Sweetwater","56037","Sweetwater County"
"-109.300088734","41.2849937","350183","359514","W-114175","FED","DOI-WFMI","BLM","USWYRSD","Rock Springs Field Office","WYRSD","Rock Springs Field Office","","","T731","RED ROCK","","","","","","2002","2002/07/22 00:00:00+00","203","1353","Natural","Natural","","2002/07/22 00:00:00+00","203","1502","2","B","41.285","-109.3001","PRIVATE","WY","Sweetwater","56037","Sweetwater County"
"-109.413688604","42.035193622","350184","359515","W-114181","FED","DOI-WFMI","BLM","USWYRSD","Rock Springs Field Office","WYRSD","Rock Springs Field Office","","","T736","W SPRING","","","","","","2002","2002/07/23 00:00:00+00","204","1545","Natural","Natural","","2002/07/23 00:00:00+00","204","2200","0.1","A","42.0352","-109.4137","BLM","WY","Sweetwater","56037","Sweetwater County"
"-109.111788787","41.193893696","350185","359516","W-114086","FED","DOI-WFMI","BLM","USWYRSD","Rock Springs Field Office","WYRSD","Rock Springs Field Office","","","T737","PEPPER","2002_WY-RSD-170_PEPPER","","WY4118610933620020723","PEPPER","","2002","2002/07/23 00:00:00+00","204","1824","Natural","Natural","","2002/08/07 00:00:00+00","219","1800","13200","G","41.1939","-109.1118","BLM","WY","Sweetwater","56037","Sweetwater County"
"-109.375388755","41.008593739","350186","359517","W-114183","FED","DOI-WFMI","BLM","USWYRSD","Rock Springs Field Office","WYRSD","Rock Springs Field Office","","","T739","MEADOW GUL","","","","","","2002","2002/07/24 00:00:00+00","205","1630","Natural","Natural","","2002/07/24 00:00:00+00","205","2100","0.1","A","41.0086","-109.3754","BLM","WY","Sweetwater","56037","Sweetwater County"
"-109.01618879","41.323593674","350187","359518","W-114176","FED","DOI-WFMI","BLM","USWYRSD","Rock Springs Field Office","WYRSD","Rock Springs Field Office","","","T732","LONG HAUL","","","","","","2002","2002/07/27 00:00:00+00","208","2200","Natural","Natural","","2002/07/28 00:00:00+00","209","1500","0.3","B","41.3236","-109.0162","BLM","WY","Sweetwater","56037","Sweetwater County"
"-109.359588635","41.901893633","350188","359519","W-114083","FED","DOI-WFMI","BLM","USWYRSD","Rock Springs Field Office","WYRSD","Rock Springs Field Office","","","T740","FLAT TIRE","","","","","","2002","2002/07/28 00:00:00+00","209","1804","Natural","Natural","","2002/07/30 00:00:00+00","211","1523","10","C","41.9019","-109.3596","BLM","WY","Sweetwater","56037","Sweetwater County"
"-109.217288601","42.34999357","350189","359520","W-110526","FED","DOI-WFMI","BLM","USWYRSD","Rock Springs Field Office","WYRSD","Rock Springs Field Office","","","T741","MARIE","","","","","","2002","2002/08/07 00:00:00+00","219","1445","Natural","Natural","","2002/08/08 00:00:00+00","220","1540","0.2","A","42.35","-109.2173","BLM","WY","Sweetwater","56037","Sweetwater County"
"-109.248988725","41.432993679","350190","359521","W-114188","FED","DOI-WFMI","BLM","USWYRSD","Rock Springs Field Office","WYRSD","Rock Springs Field Office","","","T745","MILLER CR","","","","","","2002","2002/08/07 00:00:00+00","219","1543","Natural","Natural","","2002/08/07 00:00:00+00","219","1730","0.1","A","41.433","-109.249","PRIVATE","WY","Sweetwater","56037","Sweetwater County"
"-108.809588857","41.162693677","350191","359522","W-114185","FED","DOI-WFMI","BLM","USWYRSD","Rock Springs Field Office","WYRSD","Rock Springs Field Office","","","T742","FORTYTHREE","","","","","","2002","2002/08/08 00:00:00+00","220","0920","Natural","Natural","","2002/08/08 00:00:00+00","220","1420","0.3","B","41.1627","-108.8096","BLM","WY","Sweetwater","56037","Sweetwater County"
"-109.208188733","41.436593675","350192","359523","W-114186","FED","DOI-WFMI","BLM","USWYRSD","Rock Springs Field Office","WYRSD","Rock Springs Field Office","","","T744","LOBA","","","","","","2002","2002/08/08 00:00:00+00","220","1030","Natural","Natural","","2002/08/09 00:00:00+00","221","1330","0.1","A","41.4366","-109.2082","BLM","WY","Sweetwater","56037","Sweetwater County"
"-109.007288811","41.185193689","350193","359524","W-110696","FED","DOI-WFMI","BLM","USWYRSD","Rock Springs Field Office","WYRSD","Rock Springs Field Office","","","T743","HELLER","","","","","","2002","2002/08/08 00:00:00+00","220","1230","Natural","Natural","","2002/08/09 00:00:00+00","221","1315","0.1","A","41.1852","-109.0073","BLM","WY","Sweetwater","56037","Sweetwater County"
"-109.235388787","40.999993729","350194","359525","W-110528","FED","DOI-WFMI","BLM","USWYRSD","Rock Springs Field Office","WYRSD","Rock Springs Field Office","","","T746","DANFORTH","","","","","","2002","2002/08/09 00:00:00+00","221","1430","Natural","Natural","","2002/08/10 00:00:00+00","222","1400","0.2","A","41","-109.2354","BLM","WY","Sweetwater","56037","Sweetwater County"
"-109.200088752","41.31049369","350195","359526","W-112004","FED","DOI-WFMI","BLM","USWYRSD","Rock Springs Field Office","WYRSD","Rock Springs Field Office","","","T747","VENGENCE","2002_WY-RSD-213_VENGENCE","","WY4130510917020020811","VENGENCE","","2002","2002/08/11 00:00:00+00","223","1400","Natural","Natural","","2002/08/13 00:00:00+00","225","1200","1350","F","41.3105","-109.2001","BLM","WY","Sweetwater","56037","Sweetwater County"
"-109.45288866","41.584693677","350196","359527","W-112005","FED","DOI-WFMI","BLM","USWYRSD","Rock Springs Field Office","WYRSD","Rock Springs Field Office","","","T749","TROUT CRK","","","","","","2002","2002/08/17 00:00:00+00","229","1200","Natural","Natural","","2002/08/20 00:00:00+00","232","1600","200","D","41.5847","-109.4529","BLM","WY","Sweetwater","56037","Sweetwater County"
"-109.324288702","41.482693679","350197","359528","W-114192","FED","DOI-WFMI","BLM","USWYRSD","Rock Springs Field Office","WYRSD","Rock Springs Field Office","","","T750","ARROW HEAD","","","","","","2002","2002/08/19 00:00:00+00","231","0428","Natural","Natural","","2002/08/19 00:00:00+00","231","0630","1","B","41.4827","-109.3243","PRIVATE","WY","Sweetwater","56037","Sweetwater County"
"-109.368688713","41.3338937","350198","359529","W-114085","FED","DOI-WFMI","BLM","USWYRSD","Rock Springs Field Office","WYRSD","Rock Springs Field Office","","","T501","SAGE CREEK","","","","","","2002","2002/08/20 00:00:00+00","232","1300","Natural","Natural","","2002/08/20 00:00:00+00","232","2020","0.3","B","41.3339","-109.3687","BLM","WY","Sweetwater","56037","Sweetwater County"
"-108.96398866","42.319093553","350199","359530","W-111981","FED","DOI-WFMI","BLM","USWYRSD","Rock Springs Field Office","WYRSD","Rock Springs Field Office","","","T502","PACIFIC","","","","","","2002","2002/08/23 00:00:00+00","235","0800","Human","Missing data/not specified/undetermined","","2002/08/25 00:00:00+00","237","1315","0.6","B","42.3191","-108.964","PRIVATE","WY","Fremont","56013","Fremont County"
"-109.232388738","41.366893685","350200","359532","W-112149","FED","DOI-WFMI","BLM","USWYRSD","Rock Springs Field Office","WYRSD","Rock Springs Field Office","","","T506","MIGHTY MOU","","","","","","2002","2002/08/27 00:00:00+00","239","1545","Natural","Natural","","2002/08/28 00:00:00+00","240","1200","5","B","41.3669","-109.2324","BLM","WY","Sublette","56035","Sublette County"
"-109.26758873","41.367193688","350201","359533","W-112148","FED","DOI-WFMI","BLM","USWYRSD","Rock Springs Field Office","WYRSD","Rock Springs Field Office","","","T505","MINNIE MOU","","","","","","2002","2002/08/27 00:00:00+00","239","1650","Natural","Natural","","2002/08/27 00:00:00+00","239","2100","0.1","A","41.3672","-109.2676","BLM","WY","Sweetwater","56037","Sweetwater County"
"-108.799288806","41.54939363","350202","359534","W-112147","FED","DOI-WFMI","BLM","USWYRSD","Rock Springs Field Office","WYRSD","Rock Springs Field Office","","","T504","E BLK BUTT","","","","","","2002","2002/08/27 00:00:00+00","239","1814","Natural","Natural","","2002/08/30 00:00:00+00","242","1700","0.1","A","41.5494","-108.7993","BLM","WY","Sublette","56035","Sublette County"
"-108.790888811","41.524993632","350203","359536","W-114182","FED","DOI-WFMI","BLM","USWYRSD","Rock Springs Field Office","WYRSD","Rock Springs Field Office","","","T738","HIDDEN","","","","","","2002","2002/08/28 00:00:00+00","240","1229","Natural","Natural","","2002/08/28 00:00:00+00","240","1720","0.5","B","41.525","-108.7909","BLM","WY","Sweetwater","56037","Sweetwater County"
"-109.344288659","41.754693649","350204","359537","W-114189","FED","DOI-WFMI","BLM","USWYRSD","Rock Springs Field Office","WYRSD","Rock Springs Field Office","","","T508","14 MILE","","","","","","2002","2002/08/28 00:00:00+00","240","1626","Natural","Natural","","2002/08/28 00:00:00+00","240","1751","0.3","B","41.7547","-109.3443","BLM","WY","Sweetwater","56037","Sweetwater County"
"-108.768688814","41.539093629","350205","359538","W-111985","FED","DOI-WFMI","BLM","USWYRSD","Rock Springs Field Office","WYRSD","Rock Springs Field Office","","","T509","NIELSEN","","","","","","2002","2002/08/28 00:00:00+00","240","2030","Natural","Natural","","2002/08/28 00:00:00+00","240","2300","1","B","41.5391","-108.7687","BLM","WY","Sweetwater","56037","Sweetwater County"
"-110.588188346","42.090493711","350206","359539","W-114082","FED","DOI-WFMI","BLM","USWYRSD","Rock Springs Field Office","WYRSD","Rock Springs Field Office","","","T510","COMMISARY","2002_WY-RSD-268_COMMISSARY RIDGE","","WY4211511054320020829","COMMISARY","","2002","2002/08/29 00:00:00+00","241","1342","Natural","Natural","","2002/09/30 00:00:00+00","273","1415","3561","F","42.0905","-110.5882","BLM","WY","Lincoln","56023","Lincoln County"
"-108.682088691","42.529993506","350207","359540","W-114196","FED","DOI-WFMI","BLM","USWYRSD","Rock Springs Field Office","WYRSD","Rock Springs Field Office","","","T511","MINERS DEL","","","","","","2002","2002/08/31 00:00:00+00","243","1350","Natural","Natural","","2002/08/31 00:00:00+00","243","1515","0.1","A","42.53","-108.6821","BLM","WY","Sweetwater","56037","Sweetwater County"
"-108.879588786","41.568293634","350208","359541","W-114194","FED","DOI-WFMI","BLM","USWYRSD","Rock Springs Field Office","WYRSD","Rock Springs Field Office","","","T513","BLK  BUTTE","","","","","","2002","2002/08/31 00:00:00+00","243","1600","Natural","Natural","","2002/09/02 00:00:00+00","245","1700","0.1","A","41.5683","-108.8796","BLM","WY","Sweetwater","56037","Sweetwater County"
"-109.707588664","41.158593747","350209","359542","W-114195","FED","DOI-WFMI","BLM","USWYRSD","Rock Springs Field Office","WYRSD","Rock Springs Field Office","","","T512","BLACK MTN","","","","","","2002","2002/09/01 00:00:00+00","244","1216","Natural","Natural","","2002/09/02 00:00:00+00","245","1730","0.3","B","41.1586","-109.7076","BLM","WY","Sweetwater","56037","Sweetwater County"
"-108.841788807","41.476393642","350210","359543","W-112155","FED","DOI-WFMI","BLM","USWYRSD","Rock Springs Field Office","WYRSD","Rock Springs Field Office","","","T517","BLK BUTTE4","","","","","","2002","2002/09/04 00:00:00+00","247","1223","Natural","Natural","","2002/09/04 00:00:00+00","247","1910","0.5","B","41.4764","-108.8418","BLM","WY","Sweetwater","56037","Sweetwater County"
"-109.749588641","41.262493738","350211","359544","W-112150","FED","DOI-WFMI","BLM","USWYRSD","Rock Springs Field Office","WYRSD","Rock Springs Field Office","","","T515","BURNT CANY","","","","","","2002","2002/09/04 00:00:00+00","247","1500","Natural","Natural","","2002/09/08 00:00:00+00","251","1557","26","C","41.2625","-109.7496","BLM","WY","Sweetwater","56037","Sweetwater County"
"-109.515688424","43.088293511","350212","359545","W-114080","FED","DOI-WFMI","BLM","USWYRSD","Rock Springs Field Office","WYRSD","Rock Springs Field Office","","","T516","LITTLEWORM","","","","","","2002","2002/09/04 00:00:00+00","247","1500","Natural","Natural","","2002/09/04 00:00:00+00","247","2018","0.1","A","43.0883","-109.5157","BLM","WY","Sweetwater","56037","Sweetwater County"
"-108.401788885","41.608293592","350213","359546","W-112220","FED","DOI-WFMI","BLM","USWYRSD","Rock Springs Field Office","WYRSD","Rock Springs Field Office","","","T518","BAR 10","","","","","","2002","2002/09/14 00:00:00+00","257","1500","Natural","Natural","","2002/09/15 00:00:00+00","258","1600","4","B","41.6083","-108.4018","BLM","WY","Sweetwater","56037","Sweetwater County"
"-109.435688712","41.233293717","350214","359547","W-114421","FED","DOI-WFMI","BLM","USWYRSD","Rock Springs Field Office","WYRSD","Rock Springs Field Office","","","T522","CC 1","","","","","","2003","2003/05/24 00:00:00+00","144","1600","Natural","Natural","","2003/05/24 00:00:00+00","144","1930","0.1","A","41.2333","-109.4357","PRIVATE","WY","Sweetwater","56037","Sweetwater County"
"-109.398688717","41.258293711","350215","359548","W-114422","FED","DOI-WFMI","BLM","USWYRSD","Rock Springs Field Office","WYRSD","Rock Springs Field Office","","","T523","CC 2","","","","","","2003","2003/05/24 00:00:00+00","144","1600","Natural","Natural","","2003/05/24 00:00:00+00","144","2000","0.1","A","41.2583","-109.3987","BLM","WY","Sweetwater","56037","Sweetwater County"
"-109.249588741","41.317993692","350216","359549","W-114387","FED","DOI-WFMI","BLM","USWYRSD","Rock Springs Field Office","WYRSD","Rock Springs Field Office","","","T524","BITTER CR","","","","","","2003","2003/05/25 00:00:00+00","145","1150","Natural","Natural","","2003/05/26 00:00:00+00","146","1300","0.1","A","41.318","-109.2496","PRIVATE","WY","Sweetwater","56037","Sweetwater County"
"-109.497388679","41.380193705","350217","359550","W-114423","FED","DOI-WFMI","BLM","USWYRSD","Rock Springs Field Office","WYRSD","Rock Springs Field Office","","","T525","SEVERITY","","","","","","2003","2003/05/29 00:00:00+00","149","1530","Natural","Natural","","2003/05/29 00:00:00+00","149","1930","1","B","41.3802","-109.4974","BLM","WY","Sweetwater","56037","Sweetwater County"
"-109.350988755","41.054693732","350218","359551","W-114442","FED","DOI-WFMI","BLM","USWYRSD","Rock Springs Field Office","WYRSD","Rock Springs Field Office","","","T526","BIRTHDAY","","","","","","2003","2003/05/30 00:00:00+00","150","1330","Natural","Natural","","2003/05/30 00:00:00+00","150","1630","0.1","A","41.0547","-109.351","BLM","WY","Sweetwater","56037","Sweetwater County"
"-109.36708875","41.065193732","350219","359552","W-114561","FED","DOI-WFMI","BLM","USWYRSD","Rock Springs Field Office","WYRSD","Rock Springs Field Office","","","T527","BULL ELK","","","","","","2003","2003/05/30 00:00:00+00","150","1618","Natural","Natural","","2003/05/30 00:00:00+00","150","2000","0.1","A","41.0652","-109.3671","BLM","WY","Sweetwater","56037","Sweetwater County"
"-109.458988709","41.218593721","350220","359553","W-114618","FED","DOI-WFMI","BLM","USWYRSD","Rock Springs Field Office","WYRSD","Rock Springs Field Office","","","T528","GREGG","","","","","","2003","2003/05/30 00:00:00+00","150","1645","Natural","Natural","","2003/06/01 00:00:00+00","152","2000","0.1","A","41.2186","-109.459","BLM","WY","Sweetwater","56037","Sweetwater County"
"-109.400688706","41.333293702","350221","359554","W-114722","FED","DOI-WFMI","BLM","USWYRSD","Rock Springs Field Office","WYRSD","Rock Springs Field Office","","","T529","FIREHOLE","","","","","","2003","2003/05/31 00:00:00+00","151","1237","Natural","Natural","","2003/05/31 00:00:00+00","151","2000","0.1","A","41.3333","-109.4007","BLM","WY","Sweetwater","56037","Sweetwater County"
"-109.733788635","41.332993729","350222","359555","W-114562","FED","DOI-WFMI","BLM","USWYRSD","Rock Springs Field Office","WYRSD","Rock Springs Field Office","","","T530","SUGARLOAF","","","","","","2003","2003/06/10 00:00:00+00","161","1600","Natural","Natural","","2003/06/11 00:00:00+00","162","1726","0.1","A","41.333","-109.7338","BLM","WY","Sweetwater","56037","Sweetwater County"
"-109.227588777","41.083293719","350223","359556","W-114805","FED","DOI-WFMI","BLM","USWYRSD","Rock Springs Field Office","WYRSD","Rock Springs Field Office","","","T531","543","","","","","","2003","2003/06/11 00:00:00+00","162","1248","Natural","Natural","","2003/06/11 00:00:00+00","162","1617","0.1","A","41.0833","-109.2276","BLM","WY","Sweetwater","56037","Sweetwater County"
"-109.543988461","42.806893545","350224","359557","W-114579","FED","DOI-WFMI","BLM","USWYRSD","Rock Springs Field Office","WYRSD","Rock Springs Field Office","","","T533","481903","","","","","","2003","2003/06/11 00:00:00+00","162","1439","Human","Recreation and ceremony","","2003/06/12 00:00:00+00","163","1700","0.3","B","42.8069","-109.544","BLM","WY","Sublette","56035","Sublette County"
"-109.356488754","41.046593733","350225","359558","W-114616","FED","DOI-WFMI","BLM","USWYRSD","Rock Springs Field Office","WYRSD","Rock Springs Field Office","","","T532","SPRING CR","","","","","","2003","2003/06/11 00:00:00+00","162","1440","Natural","Natural","","2003/06/12 00:00:00+00","163","1620","0.1","A","41.0466","-109.3565","BLM","WY","Sweetwater","56037","Sweetwater County"
"-109.364288751","41.058293732","350226","359559","W-114806","FED","DOI-WFMI","BLM","USWYRSD","Rock Springs Field Office","WYRSD","Rock Springs Field Office","","","T534","CRIS","","","","","","2003","2003/06/11 00:00:00+00","162","1548","Natural","Natural","","2003/06/16 00:00:00+00","167","1548","0.1","A","41.0583","-109.3643","BLM","WY","Sweetwater","56037","Sweetwater County"
"-109.350388754","41.055793731","350227","359560","W-114723","FED","DOI-WFMI","BLM","USWYRSD","Rock Springs Field Office","WYRSD","Rock Springs Field Office","","","T535","BILL","","","","","","2003","2003/06/14 00:00:00+00","165","1400","Natural","Natural","","2003/06/14 00:00:00+00","165","2000","0.1","A","41.0558","-109.3504","BLM","WY","Sweetwater","56037","Sweetwater County"
"-109.297388733","41.294393699","350228","359561","W-114724","FED","DOI-WFMI","BLM","USWYRSD","Rock Springs Field Office","WYRSD","Rock Springs Field Office","","","T536","CALA 36","","","","","","2003","2003/06/15 00:00:00+00","166","1500","Natural","Natural","","2003/06/15 00:00:00+00","166","1830","0.3","B","41.2944","-109.2974","BLM","WY","Sweetwater","56037","Sweetwater County"
"-109.19898875","41.329093687","350229","359562","W-114808","FED","DOI-WFMI","BLM","USWYRSD","Rock Springs Field Office","WYRSD","Rock Springs Field Office","","","T538","MCGINNENS","","","","","","2003","2003/06/16 00:00:00+00","167","1430","Natural","Natural","","2003/06/16 00:00:00+00","167","1750","0.1","A","41.3291","-109.199","BLM","WY","Sweetwater","56037","Sweetwater County"
"-109.200688753","41.30269369","350230","359563","W-114776","FED","DOI-WFMI","BLM","USWYRSD","Rock Springs Field Office","WYRSD","Rock Springs Field Office","","","T539","KELLY","","","","","","2003","2003/06/16 00:00:00+00","167","1440","Natural","Natural","","2003/06/16 00:00:00+00","167","1650","0.1","A","41.3027","-109.2007","BLM","WY","Sweetwater","56037","Sweetwater County"
"-111.009388233","42.253293727","350231","359564","W-114810","FED","DOI-WFMI","BLM","USWYRSD","Rock Springs Field Office","WYRSD","Rock Springs Field Office","","","T542","MUDDY RIDG","","","","","","2003","2003/06/16 00:00:00+00","167","1500","Natural","Natural","","2003/06/16 00:00:00+00","167","2000","0.3","B","42.2533","-111.0094","BLM","WY","Sweetwater","56037","Sweetwater County"
"-109.371188689","41.50299368","350232","359565","W-114811","FED","DOI-WFMI","BLM","USWYRSD","Rock Springs Field Office","WYRSD","Rock Springs Field Office","","","T540","WILKENS PK","","","","","","2003","2003/06/16 00:00:00+00","167","1529","Natural","Natural","","2003/06/18 00:00:00+00","169","1900","18.5","C","41.503","-109.3712","BLM","WY","Sweetwater","56037","Sweetwater County"
"-108.987088705","41.975493595","350233","359566","W-118571","FED","DOI-WFMI","BLM","USWYRSD","Rock Springs Field Office","WYRSD","Rock Springs Field Office","","","T541","STEAMBOAT","","","","","","2003","2003/06/16 00:00:00+00","167","1730","Natural","Natural","","2003/06/17 00:00:00+00","168","1857","20","C","41.9755","-108.9871","BLM","WY","Sweetwater","56037","Sweetwater County"
"-109.166788738","41.464093669","350234","359567","W-114725","FED","DOI-WFMI","BLM","USWYRSD","Rock Springs Field Office","WYRSD","Rock Springs Field Office","","","T544","JOSIE","","","","","","2003","2003/06/18 00:00:00+00","169","0730","Natural","Natural","","2003/06/18 00:00:00+00","169","1000","0.1","A","41.4641","-109.1668","BLM","WY","Sweetwater","56037","Sweetwater County"
"-109.199288731","41.466593671","350235","359568","W-114774","FED","DOI-WFMI","BLM","USWYRSD","Rock Springs Field Office","WYRSD","Rock Springs Field Office","","","T543","ARROWHEAD","","","","","","2003","2003/06/18 00:00:00+00","169","0800","Natural","Natural","","2003/06/19 00:00:00+00","170","0915","0.1","A","41.4666","-109.1993","BLM","WY","Sweetwater","56037","Sweetwater County"
"-109.299588732","41.298593699","350236","359569","W-114807","FED","DOI-WFMI","BLM","USWYRSD","Rock Springs Field Office","WYRSD","Rock Springs Field Office","","","T537","ARRON","","","","","","2003","2003/06/18 00:00:00+00","169","1200","Natural","Natural","","2003/06/18 00:00:00+00","169","1840","0.1","A","41.2986","-109.2996","BLM","WY","Sweetwater","56037","Sweetwater County"
"-109.352588758","41.026093735","350237","359570","W-114812","FED","DOI-WFMI","BLM","USWYRSD","Rock Springs Field Office","WYRSD","Rock Springs Field Office","","","T546","MEADOW GUL","","","","","","2003","2003/06/18 00:00:00+00","169","1500","Natural","Natural","","2003/06/18 00:00:00+00","169","2000","0.1","A","41.0261","-109.3526","STATE","WY","Sweetwater","56037","Sweetwater County"
"-109.219588741","41.365193685","350238","359571","W-114775","FED","DOI-WFMI","BLM","USWYRSD","Rock Springs Field Office","WYRSD","Rock Springs Field Office","","","T545","FANCY","","","","","","2003","2003/06/18 00:00:00+00","169","1630","Natural","Natural","","2003/06/20 00:00:00+00","171","1200","0.3","B","41.3652","-109.2196","BLM","WY","","",""
"-109.386188747","41.053593734","350239","359572","W-114813","FED","DOI-WFMI","BLM","USWYRSD","Rock Springs Field Office","WYRSD","Rock Springs Field Office","","","T550","WEST SPRIN","","","","","","2003","2003/06/19 00:00:00+00","170","1400","Natural","Natural","","2003/06/20 00:00:00+00","171","1500","0.1","A","41.0536","-109.3862","BLM","WY","Sweetwater","56037","Sweetwater County"
"-109.57208861","41.755493667","350240","359573","W-118585","FED","DOI-WFMI","BLM","USWYRSD","Rock Springs Field Office","WYRSD","Rock Springs Field Office","","","T549","BAXTER","","","","","","2003","2003/06/19 00:00:00+00","170","1430","Natural","Natural","","2003/06/19 00:00:00+00","170","1700","0.1","A","41.7555","-109.5721","BLM","WY","Sweetwater","56037","Sweetwater County"
"-109.207388782","41.078293718","350241","359574","W-114801","FED","DOI-WFMI","BLM","USWYRSD","Rock Springs Field Office","WYRSD","Rock Springs Field Office","","","T548","RED CREEK","","","","","","2003","2003/06/19 00:00:00+00","170","1700","Natural","Natural","","2003/06/20 00:00:00+00","171","1100","0.1","A","41.0783","-109.2074","BLM","WY","Sweetwater","56037","Sweetwater County"
"-109.341188761","41.020493735","350242","359575","W-118584","FED","DOI-WFMI","BLM","USWYRSD","Rock Springs Field Office","WYRSD","Rock Springs Field Office","","","T547","MEADOW 2","","","","","","2003","2003/06/19 00:00:00+00","170","1736","Natural","Natural","","2003/06/19 00:00:00+00","170","1830","0.1","A","41.0205","-109.3412","BLM","WY","Sweetwater","56037","Sweetwater County"
"-109.285088758","41.129993718","350243","359576","W-115931","FED","DOI-WFMI","BLM","USWYRSD","Rock Springs Field Office","WYRSD","Rock Springs Field Office","","","T552","POWERLINE","","","","","","2003","2003/07/19 00:00:00+00","200","1345","Natural","Natural","","2003/07/22 00:00:00+00","203","1700","1.5","B","41.13","-109.2851","BLM","WY","Sweetwater","56037","Sweetwater County"
"-109.067088606","42.535193536","350244","359578","W-116005","FED","DOI-WFMI","BLM","USWYRSD","Rock Springs Field Office","WYRSD","Rock Springs Field Office","","","T551","SWEETWATER","","","","","","2003","2003/07/19 00:00:00+00","200","1630","Natural","Natural","","2003/07/19 00:00:00+00","200","2100","0.1","A","42.5352","-109.0671","PRIVATE","WY","Sweetwater","56037","Sweetwater County"
"-109.303488722","41.37109369","350245","359579","W-118586","FED","DOI-WFMI","BLM","USWYRSD","Rock Springs Field Office","WYRSD","Rock Springs Field Office","","","T555","ASSIST 8","","","","","","2003","2003/07/19 00:00:00+00","200","1716","Natural","Natural","","2003/07/19 00:00:00+00","200","2013","0.1","A","41.3711","-109.3035","BLM","WY","Sweetwater","56037","Sweetwater County"
"-109.258688711","41.51519367","350246","359580","W-118519","FED","DOI-WFMI","BLM","USWYRSD","Rock Springs Field Office","WYRSD","Rock Springs Field Office","","","T556","RIM ROCK","","","","","","2003","2003/07/19 00:00:00+00","200","2000","Natural","Natural","","2003/07/20 00:00:00+00","201","1130","0.1","A","41.5152","-109.2587","BLM","WY","Sweetwater","56037","Sweetwater County"
"-109.273988766","41.089693721","350247","359581","W-118210","FED","DOI-WFMI","BLM","USWYRSD","Rock Springs Field Office","WYRSD","Rock Springs Field Office","","","T558","ELY CREEK","","","","","","2003","2003/07/20 00:00:00+00","201","1425","Natural","Natural","","2003/07/22 00:00:00+00","203","1900","0.3","B","41.0897","-109.274","BLM","WY","Sweetwater","56037","Sweetwater County"
"-109.000388717","41.871393608","350248","359582","W-115876","FED","DOI-WFMI","BLM","USWYRSD","Rock Springs Field Office","WYRSD","Rock Springs Field Office","","","T560","HAGUE HILL","","","","","","2003","2003/07/20 00:00:00+00","201","1600","Natural","Natural","","2003/07/23 00:00:00+00","204","1630","6.1","B","41.8714","-109.0004","BLM","WY","Sweetwater","56037","Sweetwater County"
"-109.240988752","41.2454937","350249","359583","W-118218","FED","DOI-WFMI","BLM","USWYRSD","Rock Springs Field Office","WYRSD","Rock Springs Field Office","","","T561","SAGE CREEK","","","","","","2003","2003/07/21 00:00:00+00","202","1130","Natural","Natural","","2003/07/21 00:00:00+00","202","1900","0.3","B","41.2455","-109.241","BLM","WY","Sweetwater","56037","Sweetwater County"
"-109.202588784","41.070193718","350250","359584","W-116011","FED","DOI-WFMI","BLM","USWYRSD","Rock Springs Field Office","WYRSD","Rock Springs Field Office","","","T559","BEEF CR","","","","","","2003","2003/07/21 00:00:00+00","202","1300","Natural","Natural","","2003/07/21 00:00:00+00","202","1800","0.1","A","41.0702","-109.2026","BLM","WY","Sweetwater","56037","Sweetwater County"
"-110.144288575","41.136593784","350251","359585","W-116013","FED","DOI-WFMI","BLM","USWYRSD","Rock Springs Field Office","WYRSD","Rock Springs Field Office","","","T562","CEDAR","","","","","","2003","2003/07/24 00:00:00+00","205","1330","Natural","Natural","","2003/07/25 00:00:00+00","206","2030","0.1","A","41.1366","-110.1443","BLM","WY","Sweetwater","56037","Sweetwater County"
"-109.336488694","41.516093676","350252","359586","W-116038","FED","DOI-WFMI","BLM","USWYRSD","Rock Springs Field Office","WYRSD","Rock Springs Field Office","","","T565","BITTERWIL","","","","","","2003","2003/07/25 00:00:00+00","206","1600","Natural","Natural","","2003/07/25 00:00:00+00","206","2100","0.3","B","41.5161","-109.3365","BLM","WY","Sweetwater","56037","Sweetwater County"
"-109.272588739","41.292693697","350253","359587","W-116008","FED","DOI-WFMI","BLM","USWYRSD","Rock Springs Field Office","WYRSD","Rock Springs Field Office","","","T564","36 SAGE","","","","","","2003","2003/07/25 00:00:00+00","206","1630","Natural","Natural","","2003/07/28 00:00:00+00","209","1800","0.1","A","41.2927","-109.2726","BLM","WY","Sweetwater","56037","Sweetwater County"
"-108.77508881","41.561093627","350254","359588","W-116036","FED","DOI-WFMI","BLM","USWYRSD","Rock Springs Field Office","WYRSD","Rock Springs Field Office","","","T566","THUNDERBLT","","","","","","2003","2003/07/26 00:00:00+00","207","1630","Natural","Natural","","2003/07/26 00:00:00+00","207","2100","2","B","41.5611","-108.7751","STATE","WY","Sweetwater","56037","Sweetwater County"
"-109.197888764","41.2240937","350255","359589","W-116166","FED","DOI-WFMI","BLM","USWYRSD","Rock Springs Field Office","WYRSD","Rock Springs Field Office","","","T577","MELLOR MT","","","","","","2003","2003/07/26 00:00:00+00","207","1800","Natural","Natural","","2003/07/27 00:00:00+00","208","1900","0.1","A","41.2241","-109.1979","BLM","WY","Sweetwater","56037","Sweetwater County"
