"ï»¿X","Y","OBJECTID","FOD_ID","FPA_ID","SOURCE_SYSTEM_TYPE","SOURCE_SYSTEM","NWCG_REPORTING_AGENCY","NWCG_REPORTING_UNIT_ID","NWCG_REPORTING_UNIT_NAME","SOURCE_REPORTING_UNIT","SOURCE_REPORTING_UNIT_NAME","LOCAL_FIRE_REPORT_ID","LOCAL_INCIDENT_ID","FIRE_CODE","FIRE_NAME","ICS_209_PLUS_INCIDENT_JOIN_ID","ICS_209_PLUS_COMPLEX_JOIN_ID","MTBS_ID","MTBS_FIRE_NAME","COMPLEX_NAME","FIRE_YEAR","DISCOVERY_DATE","DISCOVERY_DOY","DISCOVERY_TIME","NWCG_CAUSE_CLASSIFICATION","NWCG_GENERAL_CAUSE","NWCG_CAUSE_AGE_CATEGORY","CONT_DATE","CONT_DOY","CONT_TIME","FIRE_SIZE","FIRE_SIZE_CLASS","LATITUDE","LONGITUDE","OWNER_DESCR","STATE","COUNTY","FIPS_CODE","FIPS_NAME"
"-121.984136498","40.498705806","320001","326776","W-567641","FED","DOI-WFMI","BLM","USCANOD","Northern California District","CANOD","Northern California District","","","D5GJ","PINE","","","","","","2004","2004/08/15 00:00:00+00","228","1302","Human","Missing data/not specified/undetermined","","2004/08/15 00:00:00+00","228","1309","0.1","A","40.498711","-121.98415","PRIVATE","CA","Shasta","06089","Shasta County"
"-119.707386685","41.691294519","320002","326777","W-124884","FED","DOI-WFMI","BLM","USCANOD","Northern California District","CANOD","Northern California District","","","BB5G","POST","","","","","","2004","2004/08/15 00:00:00+00","228","1400","Natural","Natural","","2004/08/15 00:00:00+00","228","1800","0.1","A","41.6913","-119.7074","BLM","NV","Washoe","32031","Washoe County"
"-119.95688661","41.908194523","320003","326778","W-124882","FED","DOI-WFMI","BLM","USCANOD","Northern California District","CANOD","Northern California District","","","BB5D","BARREL","","","","","","2004","2004/08/15 00:00:00+00","228","1400","Natural","Natural","","2004/08/15 00:00:00+00","228","1600","0.1","A","41.9082","-119.9569","BLM","NV","Washoe","32031","Washoe County"
"-120.147686741","40.832394626","320004","326779","W-124214","FED","DOI-WFMI","BLM","USCANOD","Northern California District","CANOD","Northern California District","","","BB48","DUCK","","","","","","2004","2004/08/15 00:00:00+00","228","1530","Natural","Natural","","2004/08/15 00:00:00+00","228","1745","0.1","A","40.8324","-120.1477","BLM","CA","Lassen","06035","Lassen County"
"-120.750636628","40.941494668","320005","326780","W-567118","FED","DOI-WFMI","BLM","USCANOD","Northern California District","CANOD","Northern California District","","","D5GJ","LGT 70","","","","","","2004","2004/08/15 00:00:00+00","228","1550","Natural","Natural","","2004/08/15 00:00:00+00","228","1830","0.1","A","40.9415","-120.75065","BLM","CA","Lassen","06035","Lassen County"
"-119.95688667","41.517394554","320006","326781","W-124887","FED","DOI-WFMI","BLM","USCANOD","Northern California District","CANOD","Northern California District","","","BB5H","FARMER","","","","","","2004","2004/08/15 00:00:00+00","228","1600","Natural","Natural","","2004/08/16 00:00:00+00","229","1800","0.1","A","41.5174","-119.9569","BLM","NV","Washoe","32031","Washoe County"
"-123.153236314","40.5536139","320007","326782","W-567642","FED","DOI-WFMI","BLM","USCANOD","Northern California District","CANOD","Northern California District","","","D5GJ","LOOP","","","","","","2004","2004/08/15 00:00:00+00","228","1600","Human","Missing data/not specified/undetermined","","2004/08/15 00:00:00+00","228","1610","0.1","A","40.553619","-123.15325","PRIVATE","CA","Trinity","06105","Trinity County"
"-120.6824057","40.518105696","320008","326783","W-567119","FED","DOI-WFMI","BLM","USCANOD","Northern California District","CANOD","Northern California District","","","D5GJ","LGT 73","","","","","","2004","2004/08/15 00:00:00+00","228","1600","Natural","Natural","","2004/08/15 00:00:00+00","228","1830","0.3","B","40.518111","-120.682419","PRIVATE","CA","Lassen","06035","Lassen County"
"-121.533586688","39.632983837","320009","326784","W-566953","FED","DOI-WFMI","BLM","USCANOD","Northern California District","CANOD","Northern California District","","","D5GJ","CHEROKEE","","","","","","2004","2004/08/15 00:00:00+00","228","1753","Human","Arson/incendiarism","","2004/08/15 00:00:00+00","228","1820","0.2","A","39.632989","-121.5336","PRIVATE","CA","Butte","06007","Butte County"
"-120.506086613","41.301594619","320010","326785","W-123963","FED","DOI-WFMI","BLM","USCANOD","Northern California District","CANOD","Northern California District","","","BB64","TOWER","","","","","","2004","2004/08/15 00:00:00+00","228","1947","Natural","Natural","","2004/08/15 00:00:00+00","228","2100","0.1","A","41.3016","-120.5061","BLM","CA","Modoc","06049","Modoc County"
"-120.5993866","41.288194628","320011","326786","W-124677","FED","DOI-WFMI","BLM","USCANOD","Northern California District","CANOD","Northern California District","","","BE73","LMU LGT 75","","","","","","2004","2004/08/16 00:00:00+00","229","1545","Natural","Natural","","2004/08/16 00:00:00+00","229","1730","0.1","A","41.2882","-120.5994","BLM","CA","Modoc","06049","Modoc County"
"-119.841586647","41.792394522","320012","326787","W-124889","FED","DOI-WFMI","BLM","USCANOD","Northern California District","CANOD","Northern California District","","","BB87","MOSQUITO","","","","","","2004","2004/08/16 00:00:00+00","229","1600","Natural","Natural","","2004/08/16 00:00:00+00","229","1800","0.1","A","41.7924","-119.8416","BLM","NV","Washoe","32031","Washoe County"
"-122.510317622","39.001713964","320013","326788","W-567154","FED","DOI-WFMI","BLM","USCANOD","Northern California District","CANOD","Northern California District","","","D5GJ","OASIS","","","","","","2004","2004/08/17 00:00:00+00","230","1128","Human","Equipment and vehicle use","","2004/08/17 00:00:00+00","230","2112","43","C","39.001719","-122.510331","BLM","CA","Lake","06033","Lake County"
"-122.12463675","38.439444979","320014","326789","W-567155","FED","DOI-WFMI","BLM","USCANOD","Northern California District","CANOD","Northern California District","","","D5GJ","VACA","2004_CA-LNU-006124_VACA","","","","","2004","2004/08/18 00:00:00+00","231","1725","Human","Arson/incendiarism","","2004/08/21 00:00:00+00","234","2000","43","C","38.43945","-122.12465","PRIVATE","CA","Solano","06095","Solano County"
"-122.438647676","38.658605986","320015","326790","W-567156","FED","DOI-WFMI","BLM","USCANOD","Northern California District","CANOD","Northern California District","","","D5GJ","ANGWIN","","","","","","2004","2004/08/18 00:00:00+00","231","2106","Human","Missing data/not specified/undetermined","","2004/08/18 00:00:00+00","231","2214","0.1","A","38.658611","-122.438661","PRIVATE","CA","Napa","06055","Napa County"
"-122.796397346","40.70214486","320016","326791","W-567643","FED","DOI-WFMI","BLM","USCANOD","Northern California District","CANOD","Northern California District","","","D5GJ","TURNPIKE","","","","","","2004","2004/08/19 00:00:00+00","232","0609","Human","Missing data/not specified/undetermined","","2004/08/19 00:00:00+00","232","0700","1","B","40.70215","-122.796411","BLM","CA","Trinity","06105","Trinity County"
"-120.501086618","41.27659462","320017","326792","W-124227","FED","DOI-WFMI","BLM","USCANOD","Northern California District","CANOD","Northern California District","","","BC2V","VW","","","","","","2004","2004/08/19 00:00:00+00","232","1250","Human","Equipment and vehicle use","","2004/08/19 00:00:00+00","232","1445","0.1","A","41.2766","-120.5011","BLM","CA","Modoc","06049","Modoc County"
"-122.133155509","40.265525836","320018","326793","W-567865","FED","DOI-WFMI","BLM","USCANOD","Northern California District","CANOD","Northern California District","","","D5GJ","HIGHWAY 36","","","","","","2004","2004/08/20 00:00:00+00","233","1120","Human","Equipment and vehicle use","","2004/08/20 00:00:00+00","233","1125","0.2","A","40.265531","-122.133169","BLM","CA","Tehama","06103","Tehama County"
"-119.98768661","41.871594529","320019","326794","W-124890","FED","DOI-WFMI","BLM","USCANOD","Northern California District","CANOD","Northern California District","","","BC41","MUDD","","","","","","2004","2004/08/20 00:00:00+00","233","1300","Natural","Natural","","2004/08/20 00:00:00+00","233","1800","0.1","A","41.8716","-119.9877","BLM","NV","Washoe","32031","Washoe County"
"-123.102186517","39.132695","320020","326795","W-124374","FED","DOI-WFMI","BLM","USCANOD","Northern California District","CANOD","Northern California District","","","BDM4","MEU RIFLE","","","","","","2004","2004/08/22 00:00:00+00","235","1713","Human","Firearms and explosives use","","2004/08/22 00:00:00+00","235","1930","3","B","39.1327","-123.1022","BLM","CA","Mendocino","06045","Mendocino County"
"-122.43474742","40.568805839","320021","326796","W-567644","FED","DOI-WFMI","BLM","USCANOD","Northern California District","CANOD","Northern California District","","","D5GJ","IRISH","","","","","","2004","2004/08/24 00:00:00+00","237","0937","Human","Power generation/transmission/distribution","","2004/08/24 00:00:00+00","237","0951","0.1","A","40.568811","-122.434761","PRIVATE","CA","Shasta","06089","Shasta County"
"-122.250467432","40.672975815","320022","326797","W-567645","FED","DOI-WFMI","BLM","USCANOD","Northern California District","CANOD","Northern California District","","","D5GJ","OLD","","","","","","2004","2004/08/25 00:00:00+00","238","2315","Human","Arson/incendiarism","","2004/08/25 00:00:00+00","238","2342","0.7","B","40.672981","-122.250481","PRIVATE","CA","Shasta","06089","Shasta County"
"-122.250467432","40.672975815","320023","326798","W-567646","FED","DOI-WFMI","BLM","USCANOD","Northern California District","CANOD","Northern California District","","","D5GJ","OLD 3","","","","","","2004","2004/08/25 00:00:00+00","238","2357","Human","Arson/incendiarism","","2004/08/25 00:00:00+00","238","2357","0.2","A","40.672981","-122.250481","PRIVATE","CA","Shasta","06089","Shasta County"
"-120.502967749","40.372075693","320024","326799","W-567120","FED","DOI-WFMI","BLM","USCANOD","Northern California District","CANOD","Northern California District","","","D5GJ","GRADE","","","","","","2004","2004/08/26 00:00:00+00","239","0640","Human","Equipment and vehicle use","","2004/08/26 00:00:00+00","239","0643","0.1","A","40.372081","-120.502981","BLM","CA","Lassen","06035","Lassen County"
"-122.583636605","39.047005966","320025","326800","W-567157","FED","DOI-WFMI","BLM","USCANOD","Northern California District","CANOD","Northern California District","","","D5GJ","LONG","2004_CA-LNU-006346_LONG","","","","","2004","2004/08/26 00:00:00+00","239","1347","Human","Missing data/not specified/undetermined","","2004/08/28 00:00:00+00","241","2000","400","E","39.047011","-122.58365","PRIVATE","CA","Lake","06033","Lake County"
"-122.583636605","39.047005966","320026","326801","W-567158","FED","DOI-WFMI","BLM","USCANOD","Northern California District","CANOD","Northern California District","","","D5GJ","POMO","","","","","","2004","2004/08/27 00:00:00+00","240","1408","Human","Missing data/not specified/undetermined","","2004/08/27 00:00:00+00","240","1450","1","B","39.047011","-122.58365","PRIVATE","CA","Lake","06033","Lake County"
"-122.98699733","40.614825882","320027","326802","W-567647","FED","DOI-WFMI","BLM","USCANOD","Northern California District","CANOD","Northern California District","","","D5GJ","JORDAN","","","","","","2004","2004/08/27 00:00:00+00","240","1730","Human","Missing data/not specified/undetermined","","2004/08/27 00:00:00+00","240","1900","0.1","A","40.614831","-122.987011","PRIVATE","CA","Trinity","06105","Trinity County"
"-122.093436561","39.936175858","320028","326803","W-567866","FED","DOI-WFMI","BLM","USCANOD","Northern California District","CANOD","Northern California District","","","D5GJ","ROLLF","","","","","","2004","2004/08/27 00:00:00+00","240","1921","Human","Arson/incendiarism","","2004/08/27 00:00:00+00","240","2000","1","B","39.936181","-122.09345","PRIVATE","CA","Tehama","06103","Tehama County"
"-122.892575331","40.702183868","320029","326804","W-567648","FED","DOI-WFMI","BLM","USCANOD","Northern California District","CANOD","Northern California District","","","D5GJ","SNOW","","","","","","2004","2004/08/28 00:00:00+00","241","1117","Human","Equipment and vehicle use","","2004/08/28 00:00:00+00","241","1400","2","B","40.702189","-122.892589","PRIVATE","CA","Trinity","06105","Trinity County"
"-122.364917419","40.643633827","320030","326805","W-567649","FED","DOI-WFMI","BLM","USCANOD","Northern California District","CANOD","Northern California District","","","D5GJ","COBBLE","","","","","","2004","2004/08/28 00:00:00+00","241","1558","Human","Smoking","","2004/08/28 00:00:00+00","241","1625","0.1","A","40.643639","-122.364931","PRIVATE","CA","Shasta","06089","Shasta County"
"-122.161086738","38.496333978","320031","326806","W-567159","FED","DOI-WFMI","BLM","USCANOD","Northern California District","CANOD","Northern California District","","","D5GJ","CAPELL","","","","","","2004","2004/08/28 00:00:00+00","241","1812","Human","Equipment and vehicle use","","2004/08/28 00:00:00+00","241","2034","35","C","38.496339","-122.1611","PRIVATE","CA","Napa","06055","Napa County"
"-123.141567495","39.256655994","320032","326807","W-567201","FED","DOI-WFMI","BLM","USCANOD","Northern California District","CANOD","Northern California District","","","D5GJ","GRAND","","","","","","2004","2004/08/28 00:00:00+00","241","1824","Human","Equipment and vehicle use","","2004/08/28 00:00:00+00","241","2005","0.5","B","39.256661","-123.141581","PRIVATE","CA","Mendocino","06045","Mendocino County"
"-122.23391773","38.468375985","320033","326808","W-567160","FED","DOI-WFMI","BLM","USCANOD","Northern California District","CANOD","Northern California District","","","D5GJ","TURTLE","","","","","","2004","2004/08/28 00:00:00+00","241","1828","Human","Equipment and vehicle use","","2004/08/28 00:00:00+00","241","1831","0.1","A","38.468381","-122.233931","PRIVATE","CA","Napa","06055","Napa County"
"-122.208005485","40.353144836","320034","326809","W-567867","FED","DOI-WFMI","BLM","USCANOD","Northern California District","CANOD","Northern California District","","","D5GJ","LAKE","","","","","","2004","2004/08/30 00:00:00+00","243","","Human","Missing data/not specified/undetermined","","2004/08/30 00:00:00+00","243","","0.5","B","40.35315","-122.208019","PRIVATE","CA","Tehama","06103","Tehama County"
"-121.570625674","39.690813835","320035","326810","W-566954","FED","DOI-WFMI","BLM","USCANOD","Northern California District","CANOD","Northern California District","","","D5GJ","LIMESADDLE","","","","","","2004","2004/08/30 00:00:00+00","243","0934","Human","Equipment and vehicle use","","2004/08/30 00:00:00+00","243","1030","0.3","B","39.690819","-121.570639","PRIVATE","CA","Butte","06007","Butte County"
"-122.400447431","40.524833839","320036","326817","W-567652","FED","DOI-WFMI","BLM","USCANOD","Northern California District","CANOD","Northern California District","","","D5GJ","PLACER 3","","","","","","2004","2004/08/30 00:00:00+00","243","1006","Human","Equipment and vehicle use","","2004/08/30 00:00:00+00","243","1300","0.8","B","40.524839","-122.400461","PRIVATE","CA","Shasta","06089","Shasta County"
"-122.400447431","40.524833839","320037","326818","W-567650","FED","DOI-WFMI","BLM","USCANOD","Northern California District","CANOD","Northern California District","","","D5GJ","PLACER 1","","","","","","2004","2004/08/30 00:00:00+00","243","1006","Human","Equipment and vehicle use","","2004/08/30 00:00:00+00","243","1300","1","B","40.524839","-122.400461","PRIVATE","CA","Shasta","06089","Shasta County"
"-122.400447431","40.524833839","320038","326819","W-567651","FED","DOI-WFMI","BLM","USCANOD","Northern California District","CANOD","Northern California District","","","D5GJ","PLACER 2","","","","","","2004","2004/08/30 00:00:00+00","243","1006","Human","Equipment and vehicle use","","2004/08/30 00:00:00+00","243","1300","0.8","B","40.524839","-122.400461","PRIVATE","CA","Shasta","06089","Shasta County"
"-121.343117729","39.549225828","320039","326820","W-566955","FED","DOI-WFMI","BLM","USCANOD","Northern California District","CANOD","Northern California District","","","D5GJ","HENSLEY 2","","","","","","2004","2004/08/30 00:00:00+00","243","1344","Human","Equipment and vehicle use","","2004/08/30 00:00:00+00","243","1404","1","B","39.549231","-121.343131","PRIVATE","CA","Butte","06007","Butte County"
"-122.208005485","40.353144836","320040","326821","W-567868","FED","DOI-WFMI","BLM","USCANOD","Northern California District","CANOD","Northern California District","","","D5GJ","RIO","","","","","","2004","2004/08/30 00:00:00+00","243","2248","Human","Missing data/not specified/undetermined","","2004/08/30 00:00:00+00","243","2310","0.3","B","40.35315","-122.208019","PRIVATE","CA","Tehama","06103","Tehama County"
"-120.559455742","40.357655699","320041","326822","W-567121","FED","DOI-WFMI","BLM","USCANOD","Northern California District","CANOD","Northern California District","","","D5GJ","EGAN","","","","","","2004","2004/08/31 00:00:00+00","244","1820","Human","Equipment and vehicle use","","2004/08/31 00:00:00+00","244","1900","0.3","B","40.357661","-120.559469","STATE","CA","Lassen","06035","Lassen County"
"-122.871755339","40.674375868","320042","326823","W-567659","FED","DOI-WFMI","BLM","USCANOD","Northern California District","CANOD","Northern California District","","","D5GJ","HIGHWAY","","","","","","2004","2004/09/01 00:00:00+00","245","2018","Human","Missing data/not specified/undetermined","","2004/09/01 00:00:00+00","245","2035","0.1","A","40.674381","-122.871769","BLM","CA","Trinity","06105","Trinity County"
"-123.382147447","39.355264006","320043","326824","W-567202","FED","DOI-WFMI","BLM","USCANOD","Northern California District","CANOD","Northern California District","","","D5GJ","WILLIAMS","","","","","","2004","2004/09/02 00:00:00+00","246","0637","Human","Missing data/not specified/undetermined","","2004/09/02 00:00:00+00","246","0710","0.2","A","39.355269","-123.382161","PRIVATE","CA","Mendocino","06045","Mendocino County"
"-123.695425458","38.918956063","320044","326825","W-567203","FED","DOI-WFMI","BLM","USCANOD","Northern California District","CANOD","Northern California District","","","D5GJ","MINER","","","","","","2004","2004/09/02 00:00:00+00","246","1610","Human","Missing data/not specified/undetermined","","2004/09/02 00:00:00+00","246","1650","0.1","A","38.918961","-123.695439","PRIVATE","CA","Mendocino","06045","Mendocino County"
"-123.798667389","39.335995041","320045","326826","W-567204","FED","DOI-WFMI","BLM","USCANOD","Northern California District","CANOD","Northern California District","","","D5GJ","PGERUSSIAN GULCH","","","","","","2004","2004/09/02 00:00:00+00","246","1625","Human","Equipment and vehicle use","","2004/09/02 00:00:00+00","246","1935","0.2","A","39.336","-123.798681","STATE","CA","Mendocino","06045","Mendocino County"
"-124.201746947","41.951694898","320046","326827","W-567019","FED","DOI-WFMI","BLM","USCANOD","Northern California District","CANOD","Northern California District","","","D5GJ","CASINO","","","","","","2004","2004/09/03 00:00:00+00","247","1220","Human","Smoking","","2004/09/03 00:00:00+00","247","1238","0.1","A","41.9517","-124.201761","PRIVATE","CA","Del Norte","06015","Del Norte County"
"-122.565775611","39.017013967","320047","326829","W-567161","FED","DOI-WFMI","BLM","USCANOD","Northern California District","CANOD","Northern California District","","","D5GJ","LAKE","","","","","","2004","2004/09/04 00:00:00+00","248","0050","Human","Arson/incendiarism","","2004/09/04 00:00:00+00","248","0120","0.1","A","39.017019","-122.565789","PRIVATE","CA","Lake","06033","Lake County"
"-122.61987559","39.120683963","320048","326830","W-567162","FED","DOI-WFMI","BLM","USCANOD","Northern California District","CANOD","Northern California District","","","D5GJ","SPRING","","","","","","2004","2004/09/04 00:00:00+00","248","0501","Human","Arson/incendiarism","","2004/09/04 00:00:00+00","248","0813","1","B","39.120689","-122.619889","USFS","CA","Lake","06033","Lake County"
"-122.694597582","39.092725971","320049","326831","W-567163","FED","DOI-WFMI","BLM","USCANOD","Northern California District","CANOD","Northern California District","","","D5GJ","SHORE","","","","","","2004","2004/09/04 00:00:00+00","248","1848","Human","Equipment and vehicle use","","2004/09/04 00:00:00+00","248","1902","0.3","B","39.092731","-122.694611","PRIVATE","CA","Lake","06033","Lake County"
"-123.16329742","39.793955956","320050","326832","W-567205","FED","DOI-WFMI","BLM","USCANOD","Northern California District","CANOD","Northern California District","","","D5GJ","FOOTHILL","","","","","","2004","2004/09/04 00:00:00+00","248","2333","Human","Arson/incendiarism","","2004/09/04 00:00:00+00","248","2347","0.3","B","39.793961","-123.163311","PRIVATE","CA","Mendocino","06045","Mendocino County"
"-122.495655417","40.524755847","320051","326833","W-567660","FED","DOI-WFMI","BLM","USCANOD","Northern California District","CANOD","Northern California District","","","D5GJ","DIGGINGS","","","","","","2004","2004/09/06 00:00:00+00","250","0149","Human","Equipment and vehicle use","","2004/09/06 00:00:00+00","250","0350","0.1","A","40.524761","-122.495669","BLM","CA","Shasta","06089","Shasta County"
"-122.233555728","38.482033984","320052","326834","W-567164","FED","DOI-WFMI","BLM","USCANOD","Northern California District","CANOD","Northern California District","","","D5GJ","CAPELL","","","","","","2004","2004/09/06 00:00:00+00","250","1232","Human","Equipment and vehicle use","","2004/09/06 00:00:00+00","250","1236","1","B","38.482039","-122.233569","PRIVATE","CA","Napa","06055","Napa County"
"-122.835436336","40.731425861","320053","326835","W-567661","FED","DOI-WFMI","BLM","USCANOD","Northern California District","CANOD","Northern California District","","","D5GJ","BREMER","","","","","","2004","2004/09/06 00:00:00+00","250","1520","Human","Missing data/not specified/undetermined","","2004/09/06 00:00:00+00","250","1524","0.1","A","40.731431","-122.83545","PRIVATE","CA","Trinity","06105","Trinity County"
"-122.420717402","40.702063828","320054","326836","W-567662","FED","DOI-WFMI","BLM","USCANOD","Northern California District","CANOD","Northern California District","","","D5GJ","VISTA","","","","","","2004","2004/09/07 00:00:00+00","251","1051","Human","Missing data/not specified/undetermined","","2004/09/07 00:00:00+00","251","1200","0.1","A","40.702069","-122.420731","BLM","CA","Shasta","06089","Shasta County"
"-124.027486261","40.03599501","320055","326837","W-124609","FED","DOI-WFMI","BLM","USCANOD","Northern California District","CANOD","Northern California District","","","BE3M","HUU CHEMIS","","","","","","2004","2004/09/09 00:00:00+00","253","1048","Human","Equipment and vehicle use","","2004/09/09 00:00:00+00","253","1100","0.1","A","40.036","-124.0275","BLM","CA","Humboldt","06023","Humboldt County"
"-123.028025521","39.18649499","320056","326838","W-567165","FED","DOI-WFMI","BLM","USCANOD","Northern California District","CANOD","Northern California District","","","D5GJ","HWY 20","","","","","","2004","2004/09/09 00:00:00+00","253","1437","Human","Equipment and vehicle use","","2004/09/09 00:00:00+00","253","1503","0.5","B","39.1865","-123.028039","PRIVATE","CA","Lake","06033","Lake County"
"-121.607955653","39.806763829","320057","326839","W-566956","FED","DOI-WFMI","BLM","USCANOD","Northern California District","CANOD","Northern California District","","","D5GJ","NOE","","","","","","2004","2004/09/10 00:00:00+00","254","2002","Human","Equipment and vehicle use","","2004/09/10 00:00:00+00","254","2004","0.1","A","39.806769","-121.607969","PRIVATE","CA","Butte","06007","Butte County"
"-121.531997641","39.979925809","320058","326840","W-566957","FED","DOI-WFMI","BLM","USCANOD","Northern California District","CANOD","Northern California District","","","D5GJ","INSKIP","","","","","","2004","2004/09/11 00:00:00+00","255","1104","Human","Missing data/not specified/undetermined","","2004/09/11 00:00:00+00","255","1600","0.1","A","39.979931","-121.532011","USFS","CA","Butte","06007","Butte County"
"-122.264647458","40.483963831","320059","326841","W-567663","FED","DOI-WFMI","BLM","USCANOD","Northern California District","CANOD","Northern California District","","","D5GJ","AIRPORT 2","","","","","","2004","2004/09/11 00:00:00+00","255","1513","Human","Equipment and vehicle use","","2004/09/11 00:00:00+00","255","1517","0.1","A","40.483969","-122.264661","PRIVATE","CA","Shasta","06089","Shasta County"
"-121.589275656","39.806644828","320060","326842","W-566958","FED","DOI-WFMI","BLM","USCANOD","Northern California District","CANOD","Northern California District","","","D5GJ","CHURCH","","","","","","2004","2004/09/13 00:00:00+00","257","1432","Human","Equipment and vehicle use","","2004/09/13 00:00:00+00","257","1438","0.1","A","39.80665","-121.589289","PRIVATE","CA","Butte","06007","Butte County"
"-122.749805589","38.976483985","320061","326843","W-567166","FED","DOI-WFMI","BLM","USCANOD","Northern California District","CANOD","Northern California District","","","D5GJ","SODA","","","","","","2004","2004/09/14 00:00:00+00","258","1236","Human","Power generation/transmission/distribution","","2004/09/14 00:00:00+00","258","1333","0.1","A","38.976489","-122.749819","PRIVATE","CA","Lake","06033","Lake County"
"-121.645936627","39.95354482","320062","326844","W-566959","FED","DOI-WFMI","BLM","USCANOD","Northern California District","CANOD","Northern California District","","","D5GJ","120 G","","","","","","2004","2004/09/16 00:00:00+00","260","0600","Human","Missing data/not specified/undetermined","","2004/09/16 00:00:00+00","260","0900","0.3","B","39.95355","-121.64595","PRIVATE","CA","Butte","06007","Butte County"
"-121.58867565","39.849933824","320063","326845","W-566960","FED","DOI-WFMI","BLM","USCANOD","Northern California District","CANOD","Northern California District","","","D5GJ","NIELSON","","","","","","2004","2004/09/16 00:00:00+00","260","0754","Human","Equipment and vehicle use","","2004/09/16 00:00:00+00","260","0801","0.1","A","39.849939","-121.588689","PRIVATE","CA","Butte","06007","Butte County"
"-122.440747729","38.222056021","320064","326846","W-567167","FED","DOI-WFMI","BLM","USCANOD","Northern California District","CANOD","Northern California District","","","D5GJ","SILVERADO","","","","","","2004","2004/09/16 00:00:00+00","260","1659","Human","Missing data/not specified/undetermined","","2004/09/16 00:00:00+00","260","1728","0.1","A","38.222061","-122.440761","PRIVATE","CA","Sonoma","06097","Sonoma County"
"-122.939805535","39.181825984","320065","326847","W-567168","FED","DOI-WFMI","BLM","USCANOD","Northern California District","CANOD","Northern California District","","","D5GJ","20","","","","","","2004","2004/09/16 00:00:00+00","260","2012","Human","Power generation/transmission/distribution","","2004/09/16 00:00:00+00","260","2357","2","B","39.181831","-122.939819","PRIVATE","CA","Lake","06033","Lake County"
"-121.514686681","39.70504483","320066","326848","W-566961","FED","DOI-WFMI","BLM","USCANOD","Northern California District","CANOD","Northern California District","","","D5GJ","YANKEE","","","","","","2004","2004/09/18 00:00:00+00","262","1344","Human","Arson/incendiarism","","2004/09/18 00:00:00+00","262","1548","0.5","B","39.70505","-121.5147","PRIVATE","CA","Butte","06007","Butte County"
"-121.418497713","39.577313832","320067","326849","W-566962","FED","DOI-WFMI","BLM","USCANOD","Northern California District","CANOD","Northern California District","","","D5GJ","SIMMONS","","","","","","2004","2004/09/20 00:00:00+00","264","1657","Natural","Natural","","2004/09/20 00:00:00+00","264","1900","0.5","B","39.577319","-121.418511","PRIVATE","CA","Butte","06007","Butte County"
"-122.442047586","39.354794931","320068","326850","W-567169","FED","DOI-WFMI","BLM","USCANOD","Northern California District","CANOD","Northern California District","","","D5GJ","SITES","","","","","","2004","2004/09/21 00:00:00+00","265","1630","Human","Missing data/not specified/undetermined","","2004/09/21 00:00:00+00","265","1745","10","C","39.3548","-122.442061","PRIVATE","CA","Colusa","06011","Colusa County"
"-122.232655718","38.568525977","320069","326851","W-567170","FED","DOI-WFMI","BLM","USCANOD","Northern California District","CANOD","Northern California District","","","D5GJ","OAK","","","","","","2004","2004/09/24 00:00:00+00","268","0240","Human","Missing data/not specified/undetermined","","2004/09/24 00:00:00+00","268","0340","0.5","B","38.568531","-122.232669","BOR","CA","Napa","06055","Napa County"
"-122.169905495","40.323844835","320070","326852","W-567869","FED","DOI-WFMI","BLM","USCANOD","Northern California District","CANOD","Northern California District","","","D5GJ","RIVERVIEW","","","","","","2004","2004/09/25 00:00:00+00","269","1620","Human","Equipment and vehicle use","","2004/09/25 00:00:00+00","269","1625","1","B","40.32385","-122.169919","BLM","CA","Tehama","06103","Tehama County"
"-122.227486492","40.280525843","320071","326853","W-567870","FED","DOI-WFMI","BLM","USCANOD","Northern California District","CANOD","Northern California District","","","D5GJ","GRAHAM","","","","","","2004","2004/09/27 00:00:00+00","271","0927","Human","Equipment and vehicle use","","2004/09/27 00:00:00+00","271","1100","2","B","40.280531","-122.2275","PRIVATE","CA","Tehama","06103","Tehama County"
"-123.815305383","39.36512604","320072","326854","W-567206","FED","DOI-WFMI","BLM","USCANOD","Northern California District","CANOD","Northern California District","","","D5GJ","CASPAR","","","","","","2004","2004/09/29 00:00:00+00","273","1613","Human","Smoking","","2004/09/29 00:00:00+00","273","1700","1","B","39.365131","-123.815319","PRIVATE","CA","Mendocino","06045","Mendocino County"
"-123.172197312","40.553655902","320073","326855","W-567664","FED","DOI-WFMI","BLM","USCANOD","Northern California District","CANOD","Northern California District","","","D5GJ","HAYFORK","","","","","","2004","2004/09/29 00:00:00+00","273","1919","Human","Misuse of fire by a minor","Minor","2004/09/29 00:00:00+00","273","1920","0.1","A","40.553661","-123.172211","PRIVATE","CA","Trinity","06105","Trinity County"
"-122.750605585","39.004913983","320074","326856","W-567171","FED","DOI-WFMI","BLM","USCANOD","Northern California District","CANOD","Northern California District","","","D5GJ","EAST","","","","","","2004","2004/09/30 00:00:00+00","274","1622","Human","Arson/incendiarism","","2004/09/30 00:00:00+00","274","1800","1","B","39.004919","-122.750619","PRIVATE","CA","Lake","06033","Lake County"
"-122.829386581","38.945675993","320075","326857","W-567172","FED","DOI-WFMI","BLM","USCANOD","Northern California District","CANOD","Northern California District","","","D5GJ","29","","","","","","2004","2004/10/01 00:00:00+00","275","1623","Human","Equipment and vehicle use","","2004/10/01 00:00:00+00","275","1627","0.5","B","38.945681","-122.8294","PRIVATE","CA","Lake","06033","Lake County"
"-122.693955619","38.807233994","320076","326858","W-567173","FED","DOI-WFMI","BLM","USCANOD","Northern California District","CANOD","Northern California District","","","D5GJ","GIFFORD","","","","","","2004","2004/10/02 00:00:00+00","276","0642","Human","Missing data/not specified/undetermined","","2004/10/02 00:00:00+00","276","0900","0.1","A","38.807239","-122.693969","BLM","CA","Lake","06033","Lake County"
"-124.108767104","41.036175949","320077","326859","W-567020","FED","DOI-WFMI","BLM","USCANOD","Northern California District","CANOD","Northern California District","","","D5GJ","SIXTH","","","","","","2004","2004/10/02 00:00:00+00","276","1427","Human","Missing data/not specified/undetermined","","2004/10/02 00:00:00+00","276","1700","0.1","A","41.036181","-124.108781","PRIVATE","CA","Humboldt","06023","Humboldt County"
"-121.684217633","39.86602583","320078","326860","W-566963","FED","DOI-WFMI","BLM","USCANOD","Northern California District","CANOD","Northern California District","","","D5GJ","SCOTTY","","","","","","2004","2004/10/03 00:00:00+00","277","0504","Human","Missing data/not specified/undetermined","","2004/10/03 00:00:00+00","277","0542","0.2","A","39.866031","-121.684231","PRIVATE","CA","Butte","06007","Butte County"
"-121.398447514","41.014905717","320079","326861","W-567665","FED","DOI-WFMI","BLM","USCANOD","Northern California District","CANOD","Northern California District","","","D5GJ","DEE KNOCH","","","","","","2004","2004/10/03 00:00:00+00","277","1907","Human","Equipment and vehicle use","","2004/10/03 00:00:00+00","277","2045","0.3","B","41.014911","-121.398461","PRIVATE","CA","Shasta","06089","Shasta County"
"-122.246375497","40.223005849","320080","326862","W-567871","FED","DOI-WFMI","BLM","USCANOD","Northern California District","CANOD","Northern California District","","","D5GJ","FREEWAY","","","","","","2004","2004/10/04 00:00:00+00","278","1759","Human","Arson/incendiarism","","2004/10/04 00:00:00+00","278","1809","0.1","A","40.223011","-122.246389","PRIVATE","CA","Tehama","06103","Tehama County"
"-123.079005295","40.759913879","320081","326863","W-567666","FED","DOI-WFMI","BLM","USCANOD","Northern California District","CANOD","Northern California District","","","D5GJ","JUNCTION","","","","","","2004","2004/10/06 00:00:00+00","280","","Human","Missing data/not specified/undetermined","","2004/10/06 00:00:00+00","280","","0.1","A","40.759919","-123.079019","PRIVATE","CA","Trinity","06105","Trinity County"
"-122.269525425","40.701975815","320082","326864","W-567667","FED","DOI-WFMI","BLM","USCANOD","Northern California District","CANOD","Northern California District","","","D5GJ","MOUNTAIN","","","","","","2004","2004/10/07 00:00:00+00","281","1446","Human","Equipment and vehicle use","","2004/10/07 00:00:00+00","281","1520","0.1","A","40.701981","-122.269539","PRIVATE","CA","Shasta","06089","Shasta County"
"-122.545575201","41.894663753","320083","326865","W-567704","FED","DOI-WFMI","BLM","USCANOD","Northern California District","CANOD","Northern California District","","","D5GJ","COTTONWOOD","","","","","","2004","2004/10/08 00:00:00+00","282","1431","Human","Power generation/transmission/distribution","","2004/10/08 00:00:00+00","282","2104","7","B","41.894669","-122.545589","PRIVATE","CA","Siskiyou","06093","Siskiyou County"
"-122.717367219","41.617975788","320084","326866","W-567705","FED","DOI-WFMI","BLM","USCANOD","Northern California District","CANOD","Northern California District","","","D5GJ","MOFFET","","","","","","2004","2004/10/08 00:00:00+00","282","1956","Human","Equipment and vehicle use","","2004/10/08 00:00:00+00","282","2254","2","B","41.617981","-122.717381","PRIVATE","CA","Siskiyou","06093","Siskiyou County"
"-122.786305613","38.746534005","320085","326867","W-567174","FED","DOI-WFMI","BLM","USCANOD","Northern California District","CANOD","Northern California District","","","D5GJ","PINE","2004_CA-LNU-007858_PINE","","","","","2004","2004/10/10 00:00:00+00","284","1727","Human","Equipment and vehicle use","","2004/10/11 00:00:00+00","285","0800","75","C","38.746539","-122.786319","PRIVATE","CA","Sonoma","06097","Sonoma County"
"-122.308036722","38.441325993","320086","326869","W-567175","FED","DOI-WFMI","BLM","USCANOD","Northern California District","CANOD","Northern California District","","","D5GJ","SODA","","","","","","2004","2004/10/11 00:00:00+00","285","0951","Human","Power generation/transmission/distribution","","2004/10/11 00:00:00+00","285","1630","1","B","38.441331","-122.30805","PRIVATE","CA","Napa","06055","Napa County"
"-122.363497684","38.682713978","320087","326870","W-567176","FED","DOI-WFMI","BLM","USCANOD","Northern California District","CANOD","Northern California District","","","D5GJ","SNELL","2004_CA-LNU-007882_SNELL","","","","","2004","2004/10/11 00:00:00+00","285","1252","Human","Power generation/transmission/distribution","","2004/10/12 00:00:00+00","286","0800","14","C","38.682719","-122.363511","BLM","CA","Napa","06055","Napa County"
"-121.51548667","39.790383823","320088","326871","W-566964","FED","DOI-WFMI","BLM","USCANOD","Northern California District","CANOD","Northern California District","","","D5GJ","CONCOW","","","","","","2004","2004/10/11 00:00:00+00","285","1257","Human","Equipment and vehicle use","","2004/10/11 00:00:00+00","285","1304","0.1","A","39.790389","-121.5155","PRIVATE","CA","Butte","06007","Butte County"
"-121.772225688","39.355083878","320089","326872","W-566965","FED","DOI-WFMI","BLM","USCANOD","Northern California District","CANOD","Northern California District","","","D5GJ","LIBERTY","","","","","","2004","2004/10/11 00:00:00+00","285","1315","Human","Equipment and vehicle use","","2004/10/11 00:00:00+00","285","1525","100","D","39.355089","-121.772239","PRIVATE","CA","Butte","06007","Butte County"
"-122.549297661","38.643605995","320090","326873","W-567177","FED","DOI-WFMI","BLM","USCANOD","Northern California District","CANOD","Northern California District","","","D5GJ","SILVERADO","","","","","","2004","2004/10/11 00:00:00+00","285","1341","Human","Smoking","","2004/10/11 00:00:00+00","285","1343","0.1","A","38.643611","-122.549311","PRIVATE","CA","Napa","06055","Napa County"
"-121.702875652","39.704944845","320091","326874","W-566966","FED","DOI-WFMI","BLM","USCANOD","Northern California District","CANOD","Northern California District","","","D5GJ","HWY 99","","","","","","2004","2004/10/11 00:00:00+00","285","1600","Human","Missing data/not specified/undetermined","","2004/10/11 00:00:00+00","285","1700","100","D","39.70495","-121.702889","PRIVATE","CA","Butte","06007","Butte County"
"-123.093747608","38.419345054","320092","326875","W-567178","FED","DOI-WFMI","BLM","USCANOD","Northern California District","CANOD","Northern California District","","","D5GJ","PACIFIC 1","","","","","","2004","2004/10/11 00:00:00+00","285","1938","Human","Equipment and vehicle use","","2004/10/11 00:00:00+00","285","2208","1","B","38.41935","-123.093761","PRIVATE","CA","Sonoma","06097","Sonoma County"
"-123.093747608","38.419345054","320093","326876","W-567179","FED","DOI-WFMI","BLM","USCANOD","Northern California District","CANOD","Northern California District","","","D5GJ","PACIFIC 2","","","","","","2004","2004/10/11 00:00:00+00","285","1938","Human","Equipment and vehicle use","","2004/10/11 00:00:00+00","285","2208","2","B","38.41935","-123.093761","PRIVATE","CA","Sonoma","06097","Sonoma County"
"-122.831575603","38.770614007","320094","326877","W-567180","FED","DOI-WFMI","BLM","USCANOD","Northern California District","CANOD","Northern California District","","","D5GJ","GEYSERS","2004_CA-LNU-7910_GEYSERS","","","","","2004","2004/10/12 00:00:00+00","286","0011","Human","Missing data/not specified/undetermined","","2004/10/12 00:00:00+00","286","1800","150","D","38.770619","-122.831589","PRIVATE","CA","Sonoma","06097","Sonoma County"
"-123.112755516","39.131284001","320095","326878","W-567208","FED","DOI-WFMI","BLM","USCANOD","Northern California District","CANOD","Northern California District","","","D5GJ","MILL","","","","","","2004","2004/10/12 00:00:00+00","286","0835","Human","Recreation and ceremony","","2004/10/12 00:00:00+00","286","0908","0.1","A","39.131289","-123.112769","BLM","CA","Mendocino","06045","Mendocino County"
"-121.772225688","39.355083878","320096","326880","W-566967","FED","DOI-WFMI","BLM","USCANOD","Northern California District","CANOD","Northern California District","","","D5GJ","GRIDLEY","","","","","","2004","2004/10/12 00:00:00+00","286","1526","Human","Equipment and vehicle use","","2004/10/12 00:00:00+00","286","1701","12","C","39.355089","-121.772239","PRIVATE","CA","Butte","06007","Butte County"
"-122.11413651","40.279963834","320097","326881","W-567872","FED","DOI-WFMI","BLM","USCANOD","Northern California District","CANOD","Northern California District","","","D5GJ","HOG","","","","","","2004","2004/10/12 00:00:00+00","286","1718","Human","Equipment and vehicle use","","2004/10/12 00:00:00+00","286","1800","3","B","40.279969","-122.11415","PRIVATE","CA","Tehama","06103","Tehama County"
"-121.58867565","39.849933824","320098","326882","W-566968","FED","DOI-WFMI","BLM","USCANOD","Northern California District","CANOD","Northern California District","","","D5GJ","COLUMBINE","","","","","","2004","2004/10/13 00:00:00+00","287","1841","Human","Arson/incendiarism","","2004/10/13 00:00:00+00","287","1847","0.1","A","39.849939","-121.588689","PRIVATE","CA","Butte","06007","Butte County"
"-122.107917744","38.511394972","320099","326883","W-567181","FED","DOI-WFMI","BLM","USCANOD","Northern California District","CANOD","Northern California District","","","D5GJ","HWY 128","","","","","","2004","2004/10/15 00:00:00+00","289","1505","Human","Smoking","","2004/10/16 00:00:00+00","290","1500","50","C","38.5114","-122.107931","PRIVATE","CA","Napa","06055","Napa County"
"-123.043555305","40.731305878","320100","326884","W-567668","FED","DOI-WFMI","BLM","USCANOD","Northern California District","CANOD","Northern California District","","","D5GJ","MUNDELL","","","","","","2004","2004/10/16 00:00:00+00","290","1940","Human","Smoking","","2004/10/16 00:00:00+00","290","2015","0.1","A","40.731311","-123.043569","BLM","CA","Trinity","06105","Trinity County"
"-124.145675094","41.06586395","320101","326885","W-567021","FED","DOI-WFMI","BLM","USCANOD","Northern California District","CANOD","Northern California District","","","D5GJ","STUMP","","","","","","2004","2004/10/17 00:00:00+00","291","1400","Human","Recreation and ceremony","","2004/10/17 00:00:00+00","291","1415","0.1","A","41.065869","-124.145689","STATE","CA","Humboldt","06023","Humboldt County"
"-123.066647508","39.242313989","320102","326886","W-567209","FED","DOI-WFMI","BLM","USCANOD","Northern California District","CANOD","Northern California District","","","D5GJ","JENKINS","","","","","","2004","2004/10/21 00:00:00+00","295","1334","Human","Missing data/not specified/undetermined","","2004/10/21 00:00:00+00","295","1334","0.1","A","39.242319","-123.066661","PRIVATE","CA","Mendocino","06045","Mendocino County"
"-123.326147464","39.283795007","320103","326887","W-567210","FED","DOI-WFMI","BLM","USCANOD","Northern California District","CANOD","Northern California District","","","D5GJ","REEVES","","","","","","2004","2004/10/22 00:00:00+00","296","1519","Human","Debris and open burning","","2004/10/22 00:00:00+00","296","1600","2","B","39.2838","-123.326161","PRIVATE","CA","Mendocino","06045","Mendocino County"
"-123.798667389","39.335995041","320104","326888","W-567211","FED","DOI-WFMI","BLM","USCANOD","Northern California District","CANOD","Northern California District","","","D5GJ","YOUNG","","","","","","2004","2004/10/24 00:00:00+00","298","1158","Human","Debris and open burning","","2004/10/24 00:00:00+00","298","1248","0.3","B","39.336","-123.798681","STATE","CA","Mendocino","06045","Mendocino County"
"-123.316447503","38.999995027","320105","326889","W-567212","FED","DOI-WFMI","BLM","USCANOD","Northern California District","CANOD","Northern California District","","","D5GJ","HWY 253","","","","","","2004","2004/10/28 00:00:00+00","302","0800","Human","Arson/incendiarism","","2004/10/28 00:00:00+00","302","0915","0.1","A","39","-123.316461","PRIVATE","CA","Mendocino","06045","Mendocino County"
"-121.588825652","39.835544825","320106","326890","W-566969","FED","DOI-WFMI","BLM","USCANOD","Northern California District","CANOD","Northern California District","","","D5GJ","VISTA","","","","","","2004","2004/11/08 00:00:00+00","313","1338","Human","Debris and open burning","","2004/11/08 00:00:00+00","313","1555","0.5","B","39.83555","-121.588839","PRIVATE","CA","Butte","06007","Butte County"
"-122.584636606","39.033194967","320107","326891","W-567182","FED","DOI-WFMI","BLM","USCANOD","Northern California District","CANOD","Northern California District","","","D5GJ","WESTLAKE","","","","","","2004","2004/11/09 00:00:00+00","314","1832","Human","Missing data/not specified/undetermined","","2004/11/09 00:00:00+00","314","2100","3","B","39.0332","-122.58465","PRIVATE","CA","Lake","06033","Lake County"
"-124.265586206","40.189895019","320108","326892","W-125840","FED","DOI-WFMI","BLM","USCANOD","Northern California District","CANOD","Northern California District","","","BH4M","HUU SPAN","","","","","","2004","2004/11/15 00:00:00+00","320","1000","Human","Recreation and ceremony","","2004/11/15 00:00:00+00","320","1215","0.1","A","40.1899","-124.2656","BLM","CA","Humboldt","06023","Humboldt County"
"-123.539405499","38.776645061","320109","326893","W-567213","FED","DOI-WFMI","BLM","USCANOD","Northern California District","CANOD","Northern California District","","","D5GJ","COURT","","","","","","2004","2004/11/19 00:00:00+00","324","1149","Human","Debris and open burning","","2004/11/19 00:00:00+00","324","1335","0.1","A","38.77665","-123.539419","PRIVATE","CA","Mendocino","06045","Mendocino County"
"-121.960947515","40.410033811","320110","326894","W-567873","FED","DOI-WFMI","BLM","USCANOD","Northern California District","CANOD","Northern California District","","","D5GJ","DAVIS","","","","","","2004","2004/11/20 00:00:00+00","325","1122","Human","Missing data/not specified/undetermined","","2004/11/20 00:00:00+00","325","1200","0.1","A","40.410039","-121.960961","PRIVATE","CA","Tehama","06103","Tehama County"
"-121.832267524","40.481905795","320111","326895","W-567669","FED","DOI-WFMI","BLM","USCANOD","Northern California District","CANOD","Northern California District","","","D5GJ","ROCK","","","","","","2004","2004/11/20 00:00:00+00","325","1246","Human","Equipment and vehicle use","","2004/11/20 00:00:00+00","325","1800","25","C","40.481911","-121.832281","PRIVATE","CA","Shasta","06089","Shasta County"
"-120.55412557","41.537913604","320112","326896","W-567122","FED","DOI-WFMI","BLM","USCANOD","Northern California District","CANOD","Northern California District","","","D5GJ","PHEASANT","","","","","","2004","2004/11/20 00:00:00+00","325","1530","Human","Missing data/not specified/undetermined","","2004/11/20 00:00:00+00","325","1648","5","B","41.537919","-120.554139","PRIVATE","CA","Modoc","06049","Modoc County"
"-122.567817655","38.670283995","320113","326897","W-567183","FED","DOI-WFMI","BLM","USCANOD","Northern California District","CANOD","Northern California District","","","D5GJ","LIVERMORE","","","","","","2004","2004/11/20 00:00:00+00","325","1858","Human","Debris and open burning","","2004/11/21 00:00:00+00","326","1020","1","B","38.670289","-122.567831","PRIVATE","CA","Napa","06055","Napa County"
"-121.589275656","39.806644828","320114","326898","W-566970","FED","DOI-WFMI","BLM","USCANOD","Northern California District","CANOD","Northern California District","","","D5GJ","GOLF","","","","","","2004","2004/11/21 00:00:00+00","326","0938","Human","Smoking","","2004/11/21 00:00:00+00","326","0950","0.1","A","39.80665","-121.589289","PRIVATE","CA","Butte","06007","Butte County"
"-121.570425657","39.820805825","320115","326899","W-566971","FED","DOI-WFMI","BLM","USCANOD","Northern California District","CANOD","Northern California District","","","D5GJ","JORDAN HILL","","","","","","2004","2004/12/02 00:00:00+00","337","2050","Human","Equipment and vehicle use","","2004/12/03 00:00:00+00","338","2358","3","B","39.820811","-121.570439","PRIVATE","CA","Butte","06007","Butte County"
"-122.530136671","38.585483998","320116","326900","W-567184","FED","DOI-WFMI","BLM","USCANOD","Northern California District","CANOD","Northern California District","","","D5GJ","DUTCH","","","","","","2004","2004/12/16 00:00:00+00","351","1335","Human","Power generation/transmission/distribution","","2004/12/16 00:00:00+00","351","1343","0.1","A","38.585489","-122.53015","PRIVATE","CA","Napa","06055","Napa County"
"-120.76951762","40.970544667","320117","326901","W-567123","FED","DOI-WFMI","BLM","USCANOD","Northern California District","CANOD","Northern California District","","","D5GJ","SPRING","","","","","","2004","2004/12/26 00:00:00+00","361","0300","Human","Debris and open burning","","2004/12/26 00:00:00+00","361","1410","0.1","A","40.97055","-120.769531","USFS","CA","Lassen","06035","Lassen County"
"-121.312783741","39.491152831","320118","326902","W-568048","FED","DOI-WFMI","BLM","USCANOD","Northern California District","CANOD","Northern California District","","","D5GJ","EDDY","","","","","","2005","2005/01/24 00:00:00+00","24","0836","Human","Equipment and vehicle use","","2005/01/24 00:00:00+00","24","1400","3","B","39.491158","-121.312797","PRIVATE","CA","Butte","06007","Butte County"
"-122.723208618","38.779613998","320119","326903","W-568331","FED","DOI-WFMI","BLM","USCANOD","Northern California District","CANOD","Northern California District","","","D5GJ","PINE","","","","","","2005","2005/01/31 00:00:00+00","31","1130","Human","Equipment and vehicle use","","2005/01/31 00:00:00+00","31","1203","0.1","A","38.779619","-122.723222","PRIVATE","CA","Lake","06033","Lake County"
"-121.347047717","39.633102822","320120","326904","W-568049","FED","DOI-WFMI","BLM","USCANOD","Northern California District","CANOD","Northern California District","","","D5GJ","ENUMCLAW","","","","","","2005","2005/02/11 00:00:00+00","42","1039","Human","Debris and open burning","","2005/02/11 00:00:00+00","42","1300","0.2","A","39.633108","-121.347061","PRIVATE","CA","Butte","06007","Butte County"
"-122.473683421","40.521086846","320121","326905","W-568805","FED","DOI-WFMI","BLM","USCANOD","Northern California District","CANOD","Northern California District","","","D5GJ","MONTGOMERY","","","","","","2005","2005/03/10 00:00:00+00","69","0958","Human","Debris and open burning","","2005/03/10 00:00:00+00","69","1010","0.1","A","40.521092","-122.473697","PRIVATE","CA","Shasta","06089","Shasta County"
"-120.637875722","40.413786701","320122","326906","W-568317","FED","DOI-WFMI","BLM","USCANOD","Northern California District","CANOD","Northern California District","","","D5GJ","TANGIMAN","","","","","","2005","2005/03/14 00:00:00+00","73","1015","Human","Missing data/not specified/undetermined","","2005/03/14 00:00:00+00","73","1030","0.1","A","40.413792","-120.637889","PRIVATE","CA","Lassen","06035","Lassen County"
"-120.499986672","40.913194649","320123","326907","W-126068","FED","DOI-WFMI","BLM","USCANOD","Northern California District","CANOD","Northern California District","","","BLY7","GRAVEL","","","","","","2005","2005/03/18 00:00:00+00","77","1630","Human","Missing data/not specified/undetermined","","2005/03/18 00:00:00+00","77","1900","0.1","A","40.9132","-120.5","PRIVATE","CA","Lassen","06035","Lassen County"
"-122.493283211","41.885102749","320124","326908","W-568884","FED","DOI-WFMI","BLM","USCANOD","Northern California District","CANOD","Northern California District","","","D5GJ","ANDERSON","","","","","","2005","2005/03/20 00:00:00+00","79","1826","Human","Recreation and ceremony","","2005/03/20 00:00:00+00","79","1930","0.1","A","41.885108","-122.493297","PRIVATE","CA","Siskiyou","06093","Siskiyou County"
"-120.62813972","40.438063698","320125","326909","W-568318","FED","DOI-WFMI","BLM","USCANOD","Northern California District","CANOD","Northern California District","","","D5GJ","CARTRIGHT","","","","","","2005","2005/03/27 00:00:00+00","86","1449","Human","Debris and open burning","","2005/03/27 00:00:00+00","86","1604","0.1","A","40.438069","-120.628153","PRIVATE","CA","Lassen","06035","Lassen County"
"-122.382733409","40.695169825","320126","326910","W-568806","FED","DOI-WFMI","BLM","USCANOD","Northern California District","CANOD","Northern California District","","","D5GJ","DIGGER","","","","","","2005","2005/04/05 00:00:00+00","95","2222","Human","Missing data/not specified/undetermined","","2005/04/05 00:00:00+00","95","2235","0.1","A","40.695175","-122.382747","PRIVATE","CA","Shasta","06089","Shasta County"
"-120.280986772","40.466594667","320127","326911","W-126116","FED","DOI-WFMI","BLM","USCANOD","Northern California District","CANOD","Northern California District","","","BNV3","HAY","","","","","","2005","2005/04/14 00:00:00+00","104","1500","Human","Equipment and vehicle use","","2005/04/14 00:00:00+00","104","1540","0.1","A","40.4666","-120.281","BLM","CA","Lassen","06035","Lassen County"
"-122.381447435","40.516497838","320128","326912","W-568807","FED","DOI-WFMI","BLM","USCANOD","Northern California District","CANOD","Northern California District","","","D5GJ","CLEAR","","","","","","2005","2005/04/15 00:00:00+00","105","1916","Human","Debris and open burning","","2005/04/15 00:00:00+00","105","1930","0.1","A","40.516503","-122.381461","PRIVATE","CA","Shasta","06089","Shasta County"
"-122.264080426","40.702516814","320129","326913","W-568808","FED","DOI-WFMI","BLM","USCANOD","Northern California District","CANOD","Northern California District","","","D5GJ","MOSS","","","","","","2005","2005/04/18 00:00:00+00","108","1259","Human","Debris and open burning","","2005/04/18 00:00:00+00","108","1315","0.1","A","40.702522","-122.264094","PRIVATE","CA","Shasta","06089","Shasta County"
"-121.353961732","39.513458832","320130","326914","W-568050","FED","DOI-WFMI","BLM","USCANOD","Northern California District","CANOD","Northern California District","","","D5GJ","LUMPKIN","","","","","","2005","2005/04/18 00:00:00+00","108","1447","Human","Missing data/not specified/undetermined","","2005/04/18 00:00:00+00","108","1506","0.1","A","39.513464","-121.353975","PRIVATE","CA","Butte","06007","Butte County"
"-122.148939445","40.695558805","320131","326915","W-568809","FED","DOI-WFMI","BLM","USCANOD","Northern California District","CANOD","Northern California District","","","D5GJ","HOLIDAY","","","","","","2005","2005/04/18 00:00:00+00","108","1609","Human","Debris and open burning","","2005/04/18 00:00:00+00","108","1745","1","B","40.695564","-122.148953","PRIVATE","CA","Shasta","06089","Shasta County"
"-121.32410573","39.563616826","320132","326916","W-568051","FED","DOI-WFMI","BLM","USCANOD","Northern California District","CANOD","Northern California District","","","D5GJ","LUMPKIN","","","","","","2005","2005/04/20 00:00:00+00","110","1454","Human","Equipment and vehicle use","","2005/04/20 00:00:00+00","110","1830","3","B","39.563622","-121.324119","PRIVATE","CA","Butte","06007","Butte County"
"-122.711653616","38.813433994","320133","326917","W-568332","FED","DOI-WFMI","BLM","USCANOD","Northern California District","CANOD","Northern California District","","","D5GJ","HWY 175","","","","","","2005","2005/04/30 00:00:00+00","120","1553","Human","Debris and open burning","","2005/04/30 00:00:00+00","120","1554","0.1","A","38.813439","-122.711667","PRIVATE","CA","Lake","06033","Lake County"
"-121.602986653","39.814655828","320134","326918","W-568052","FED","DOI-WFMI","BLM","USCANOD","Northern California District","CANOD","Northern California District","","","D5GJ","DITZLER","","","","","","2005","2005/05/01 00:00:00+00","121","1738","Human","Equipment and vehicle use","","2005/05/01 00:00:00+00","121","1750","0.1","A","39.814661","-121.603","PRIVATE","CA","Butte","06007","Butte County"
"-121.59421765","39.843402825","320135","326919","W-568053","FED","DOI-WFMI","BLM","USCANOD","Northern California District","CANOD","Northern California District","","","D5GJ","UNNAMED FIRE 1254","","","","","","2005","2005/05/08 00:00:00+00","128","2000","Human","Equipment and vehicle use","","2005/05/08 00:00:00+00","128","2010","0.1","A","39.843408","-121.594231","PRIVATE","CA","Butte","06007","Butte County"
"-122.458644411","40.605411838","320136","326920","W-568810","FED","DOI-WFMI","BLM","USCANOD","Northern California District","CANOD","Northern California District","","","D5GJ","STACIE","","","","","","2005","2005/05/14 00:00:00+00","134","1827","Human","Misuse of fire by a minor","Minor","2005/05/14 00:00:00+00","134","1957","0.1","A","40.605417","-122.458658","PRIVATE","CA","Shasta","06089","Shasta County"
"-122.488650408","40.592977841","320137","326921","W-568811","FED","DOI-WFMI","BLM","USCANOD","Northern California District","CANOD","Northern California District","","","D5GJ","CROCKER","","","","","","2005","2005/05/23 00:00:00+00","143","1456","Human","Equipment and vehicle use","","2005/05/23 00:00:00+00","143","1507","0.1","A","40.592983","-122.488664","PRIVATE","CA","Shasta","06089","Shasta County"
"-122.574172193","41.919655754","320138","326922","W-568885","FED","DOI-WFMI","BLM","USCANOD","Northern California District","CANOD","Northern California District","","","D5GJ","ENTERPRISE","","","","","","2005","2005/05/26 00:00:00+00","146","1542","Human","Equipment and vehicle use","","2005/05/26 00:00:00+00","146","1651","0.1","A","41.919661","-122.574186","PRIVATE","CA","Siskiyou","06093","Siskiyou County"
"-121.651642632","39.911955824","320139","326923","W-568054","FED","DOI-WFMI","BLM","USCANOD","Northern California District","CANOD","Northern California District","","","D5GJ","STANFORD LN","","","","","","2005","2005/05/26 00:00:00+00","146","2103","Human","Equipment and vehicle use","","2005/05/26 00:00:00+00","146","2110","0.1","A","39.911961","-121.651656","PRIVATE","CA","Butte","06007","Butte County"
"-122.431064202","41.997955736","320140","326924","W-568886","FED","DOI-WFMI","BLM","USCANOD","Northern California District","CANOD","Northern California District","","","D5GJ","LIGHT  8","","","","","","2005","2005/05/28 00:00:00+00","148","1156","Natural","Natural","","2005/05/28 00:00:00+00","148","2130","0.1","A","41.997961","-122.431078","PRIVATE","CA","Siskiyou","06093","Siskiyou County"
"-121.934061318","41.748880709","320141","326925","W-568887","FED","DOI-WFMI","BLM","USCANOD","Northern California District","CANOD","Northern California District","","","D5GJ","LIGHT 7","","","","","","2005","2005/05/28 00:00:00+00","148","1303","Natural","Natural","","2005/05/28 00:00:00+00","148","1303","0.1","A","41.748886","-121.934075","PRIVATE","CA","Siskiyou","06093","Siskiyou County"
"-122.537780607","39.07985296","320142","326926","W-568333","FED","DOI-WFMI","BLM","USCANOD","Northern California District","CANOD","Northern California District","","","D5GJ","INDIAN VALLEY","","","","","","2005","2005/05/28 00:00:00+00","148","1330","Human","Recreation and ceremony","","2005/05/28 00:00:00+00","148","1430","0.8","B","39.079858","-122.537794","PRIVATE","CA","Lake","06033","Lake County"
"-121.611247657","39.772583832","320143","326927","W-568055","FED","DOI-WFMI","BLM","USCANOD","Northern California District","CANOD","Northern California District","","","D5GJ","BANGOR","","","","","","2005","2005/05/29 00:00:00+00","149","1155","Human","Debris and open burning","","2005/05/29 00:00:00+00","149","1445","0.3","B","39.772589","-121.611261","PRIVATE","CA","Butte","06007","Butte County"
"-122.208280492","40.305958839","320144","326928","W-569008","FED","DOI-WFMI","BLM","USCANOD","Northern California District","CANOD","Northern California District","","","D5GJ","FINCH","","","","","","2005","2005/05/30 00:00:00+00","150","1309","Human","Equipment and vehicle use","","2005/05/30 00:00:00+00","150","1400","3","B","40.305964","-122.208294","PRIVATE","CA","Tehama","06103","Tehama County"
"-122.514405581","39.31055094","320145","326929","W-568334","FED","DOI-WFMI","BLM","USCANOD","Northern California District","CANOD","Northern California District","","","D5GJ","ISLAND","","","","","","2005","2005/05/31 00:00:00+00","151","2131","Human","Equipment and vehicle use","","2005/05/31 00:00:00+00","151","2230","1","B","39.310556","-122.514419","PRIVATE","CA","Colusa","06011","Colusa County"
"-121.606686653","39.810194829","320146","326930","W-568056","FED","DOI-WFMI","BLM","USCANOD","Northern California District","CANOD","Northern California District","","","D5GJ","OLSEN","","","","","","2005","2005/06/01 00:00:00+00","152","1102","Human","Equipment and vehicle use","","2005/06/01 00:00:00+00","152","1112","0.1","A","39.8102","-121.6067","PRIVATE","CA","Butte","06007","Butte County"
"-124.247379969","41.774566913","320147","326931","W-568097","FED","DOI-WFMI","BLM","USCANOD","Northern California District","CANOD","Northern California District","","","D5GJ","RADIO","","","","","","2005","2005/06/01 00:00:00+00","152","1120","Human","Recreation and ceremony","","2005/06/01 00:00:00+00","152","1140","0.1","A","41.774572","-124.247394","PRIVATE","CA","Del Norte","06015","Del Norte County"
"-122.464139429","40.473794848","320148","326932","W-568812","FED","DOI-WFMI","BLM","USCANOD","Northern California District","CANOD","Northern California District","","","D5GJ","HEAVENLY","","","","","","2005","2005/06/02 00:00:00+00","153","1403","Human","Power generation/transmission/distribution","","2005/06/02 00:00:00+00","153","1421","0.5","B","40.4738","-122.464153","PRIVATE","CA","Shasta","06089","Shasta County"
"-122.337597443","40.505491835","320149","326933","W-568813","FED","DOI-WFMI","BLM","USCANOD","Northern California District","CANOD","Northern California District","","","D5GJ","KNIGHTON","","","","","","2005","2005/06/02 00:00:00+00","153","1455","Human","Equipment and vehicle use","","2005/06/02 00:00:00+00","153","1510","0.3","B","40.505497","-122.337611","PRIVATE","CA","Shasta","06089","Shasta County"
"-122.398864263","41.647711758","320150","326934","W-568888","FED","DOI-WFMI","BLM","USCANOD","Northern California District","CANOD","Northern California District","","","D5GJ","SMITH","","","","","","2005","2005/06/04 00:00:00+00","155","1337","Human","Debris and open burning","","2005/06/04 00:00:00+00","155","1623","0.8","B","41.647717","-122.398878","PRIVATE","CA","Siskiyou","06093","Siskiyou County"
"-121.668100633","39.887791827","320151","326935","W-568057","FED","DOI-WFMI","BLM","USCANOD","Northern California District","CANOD","Northern California District","","","D5GJ","TURNER","","","","","","2005","2005/06/04 00:00:00+00","155","1718","Human","Equipment and vehicle use","","2005/06/04 00:00:00+00","155","1727","0.3","B","39.887797","-121.668114","PRIVATE","CA","Butte","06007","Butte County"
"-122.934700322","40.72648387","320152","326936","W-568814","FED","DOI-WFMI","BLM","USCANOD","Northern California District","CANOD","Northern California District","","","D5GJ","WEAVER","","","","","","2005","2005/06/04 00:00:00+00","155","1915","Human","Smoking","","2005/06/04 00:00:00+00","155","1920","0.1","A","40.726489","-122.934714","PRIVATE","CA","Trinity","06105","Trinity County"
"-122.090305447","40.742911797","320153","326937","W-568815","FED","DOI-WFMI","BLM","USCANOD","Northern California District","CANOD","Northern California District","","","D5GJ","BACKBONE","","","","","","2005","2005/06/05 00:00:00+00","156","1627","Human","Debris and open burning","","2005/06/05 00:00:00+00","156","1810","2","B","40.742917","-122.090319","USFS","CA","Shasta","06089","Shasta County"
"-122.57178061","39.017716968","320154","326938","W-568335","FED","DOI-WFMI","BLM","USCANOD","Northern California District","CANOD","Northern California District","","","D5GJ","TWENTY","","","","","","2005","2005/06/12 00:00:00+00","163","1405","Human","Missing data/not specified/undetermined","","2005/06/12 00:00:00+00","163","1430","0.5","B","39.017722","-122.571794","PRIVATE","CA","Lake","06033","Lake County"
"-122.366344441","40.494111839","320155","326939","W-568816","FED","DOI-WFMI","BLM","USCANOD","Northern California District","CANOD","Northern California District","","","D5GJ","HAPPY","","","","","","2005","2005/06/13 00:00:00+00","164","2036","Human","Equipment and vehicle use","","2005/06/13 00:00:00+00","164","2051","0.1","A","40.494117","-122.366358","PRIVATE","CA","Shasta","06089","Shasta County"
"-121.575919671","39.709772834","320156","326940","W-568058","FED","DOI-WFMI","BLM","USCANOD","Northern California District","CANOD","Northern California District","","","D5GJ","PINEDALE","","","","","","2005","2005/06/14 00:00:00+00","165","0853","Human","Debris and open burning","","2005/06/14 00:00:00+00","165","0930","0.1","A","39.709778","-121.575933","PRIVATE","CA","Butte","06007","Butte County"
"-122.031553489","40.514150809","320157","326941","W-568817","FED","DOI-WFMI","BLM","USCANOD","Northern California District","CANOD","Northern California District","","","D5GJ","DERSH","","","","","","2005","2005/06/14 00:00:00+00","165","1430","Human","Equipment and vehicle use","","2005/06/14 00:00:00+00","165","1439","0.1","A","40.514156","-122.031567","PRIVATE","CA","Shasta","06089","Shasta County"
"-122.767286616","38.740612004","320158","326942","W-568336","FED","DOI-WFMI","BLM","USCANOD","Northern California District","CANOD","Northern California District","","","D5GJ","KENDAL","","","","","","2005","2005/06/14 00:00:00+00","165","1515","Human","Equipment and vehicle use","","2005/06/14 00:00:00+00","165","1526","0.1","A","38.740617","-122.7673","PRIVATE","CA","Sonoma","06097","Sonoma County"
"-122.512250393","40.671202838","320159","326943","W-568818","FED","DOI-WFMI","BLM","USCANOD","Northern California District","CANOD","Northern California District","","","D5GJ","IRON","","","","","","2005","2005/06/14 00:00:00+00","165","1658","Human","Missing data/not specified/undetermined","","2005/06/14 00:00:00+00","165","2040","2","B","40.671208","-122.512264","PRIVATE","CA","Shasta","06089","Shasta County"
"-121.595553655","39.802819828","320160","326944","W-568059","FED","DOI-WFMI","BLM","USCANOD","Northern California District","CANOD","Northern California District","","","D5GJ","SHELTON","","","","","","2005","2005/06/15 00:00:00+00","166","1702","Human","Equipment and vehicle use","","2005/06/15 00:00:00+00","166","1705","1","B","39.802825","-121.595567","PRIVATE","CA","Butte","06007","Butte County"
"-122.747622213","41.62779479","320161","326945","W-568889","FED","DOI-WFMI","BLM","USCANOD","Northern California District","CANOD","Northern California District","","","D5GJ","WILKINSON","","","","","","2005","2005/06/19 00:00:00+00","170","1738","Human","Recreation and ceremony","","2005/06/19 00:00:00+00","170","1840","0.2","A","41.6278","-122.747636","PRIVATE","CA","Siskiyou","06093","Siskiyou County"
"-121.572072494","40.967891736","320162","326946","W-568819","FED","DOI-WFMI","BLM","USCANOD","Northern California District","CANOD","Northern California District","","","D5GJ","POWER","","","","","","2005","2005/06/20 00:00:00+00","171","1448","Human","Equipment and vehicle use","","2005/06/20 00:00:00+00","171","1807","0.5","B","40.967897","-121.572086","USFS","CA","Shasta","06089","Shasta County"
"-122.256500494","40.235961849","320163","326948","W-569009","FED","DOI-WFMI","BLM","USCANOD","Northern California District","CANOD","Northern California District","","","D5GJ","JELLIN","","","","","","2005","2005/06/23 00:00:00+00","174","0827","Human","Equipment and vehicle use","","2005/06/23 00:00:00+00","174","0838","0.3","B","40.235967","-122.256514","PRIVATE","CA","Tehama","06103","Tehama County"
"-122.457505411","40.604422838","320164","326949","W-568821","FED","DOI-WFMI","BLM","USCANOD","Northern California District","CANOD","Northern California District","","","D5GJ","SANDERS","","","","","","2005","2005/06/23 00:00:00+00","174","1640","Human","Missing data/not specified/undetermined","","2005/06/23 00:00:00+00","174","1649","0.1","A","40.604428","-122.457519","PRIVATE","CA","Shasta","06089","Shasta County"
"-122.355283443","40.487911838","320165","326950","W-568822","FED","DOI-WFMI","BLM","USCANOD","Northern California District","CANOD","Northern California District","","","D5GJ","RIVER","","","","","","2005","2005/06/24 00:00:00+00","175","1258","Human","Missing data/not specified/undetermined","","2005/06/24 00:00:00+00","175","1320","0.3","B","40.487917","-122.355297","PRIVATE","CA","Shasta","06089","Shasta County"
"-122.496675638","38.889088972","320166","326951","W-568337","FED","DOI-WFMI","BLM","USCANOD","Northern California District","CANOD","Northern California District","","","D5GJ","STAEHLE","","","","","","2005","2005/06/25 00:00:00+00","176","1327","Human","Missing data/not specified/undetermined","","2005/06/25 00:00:00+00","176","1629","0.5","B","38.889094","-122.496689","PRIVATE","CA","Lake","06033","Lake County"
"-120.211086596","41.72659456","320167","326952","W-502197","FED","DOI-WFMI","BLM","USCANOD","Northern California District","CANOD","Northern California District","","","BV8L","GROUSE","","","","","","2005","2005/06/25 00:00:00+00","176","1500","Natural","Natural","","2005/06/25 00:00:00+00","176","1830","0.8","B","41.7266","-120.2111","BLM","CA","Modoc","06049","Modoc County"
"-120.164386677","41.246594594","320168","326953","W-502206","FED","DOI-WFMI","BLM","USCANOD","Northern California District","CANOD","Northern California District","","","BV8R","SWARINGER","","","","","","2005","2005/06/25 00:00:00+00","176","1556","Natural","Natural","","2005/06/25 00:00:00+00","176","1918","0.3","B","41.2466","-120.1644","BLM","CA","Modoc","06049","Modoc County"
"-122.826894194","41.672669794","320169","326954","W-568890","FED","DOI-WFMI","BLM","USCANOD","Northern California District","CANOD","Northern California District","","","D5GJ","LIGHT 14","","","","","","2005","2005/06/25 00:00:00+00","176","1636","Natural","Natural","","2005/06/25 00:00:00+00","176","1711","0.1","A","41.672675","-122.826908","PRIVATE","CA","Siskiyou","06093","Siskiyou County"
"-122.731155365","40.639083859","320170","326955","W-568823","FED","DOI-WFMI","BLM","USCANOD","Northern California District","CANOD","Northern California District","","","D5GJ","HOADLEY","","","","","","2005","2005/06/25 00:00:00+00","176","2030","Natural","Natural","","2005/06/25 00:00:00+00","176","2125","0.1","A","40.639089","-122.731169","BLM","CA","Shasta","06089","Shasta County"
"-120.778319702","40.395272714","320171","326956","W-568319","FED","DOI-WFMI","BLM","USCANOD","Northern California District","CANOD","Northern California District","","","D5GJ","FINKEL","","","","","","2005","2005/06/26 00:00:00+00","177","0704","Human","Debris and open burning","","2005/06/26 00:00:00+00","177","1000","1","B","40.395278","-120.778333","PRIVATE","CA","Lassen","06035","Lassen County"
"-122.029386493","40.486494811","320172","326958","W-501234","FED","DOI-WFMI","BLM","USCANOD","Northern California District","CANOD","Northern California District","","","BWW3","SHU CREEK","","","","","","2005","2005/06/26 00:00:00+00","177","1402","Human","Debris and open burning","","2005/06/26 00:00:00+00","177","1421","2","B","40.4865","-122.0294","BLM","CA","Shasta","06089","Shasta County"
"-122.02282246","40.723550792","320173","326959","W-568825","FED","DOI-WFMI","BLM","USCANOD","Northern California District","CANOD","Northern California District","","","D5GJ","RUN","","","","","","2005","2005/06/28 00:00:00+00","179","0842","Human","Equipment and vehicle use","","2005/06/28 00:00:00+00","179","1029","0.1","A","40.723556","-122.022836","PRIVATE","CA","Shasta","06089","Shasta County"
"-120.637625722","40.411611701","320174","326960","W-568320","FED","DOI-WFMI","BLM","USCANOD","Northern California District","CANOD","Northern California District","","","D5GJ","CAMP","","","","","","2005","2005/06/28 00:00:00+00","179","1000","Human","Recreation and ceremony","","2005/06/28 00:00:00+00","179","1015","0.1","A","40.411617","-120.637639","PRIVATE","CA","Lassen","06035","Lassen County"
"-122.003125497","40.487972809","320175","326961","W-568826","FED","DOI-WFMI","BLM","USCANOD","Northern California District","CANOD","Northern California District","","","D5GJ","BUTTE","","","","","","2005","2005/06/29 00:00:00+00","180","0135","Human","Equipment and vehicle use","","2005/06/29 00:00:00+00","180","0206","0.1","A","40.487978","-122.003139","PRIVATE","CA","Shasta","06089","Shasta County"
"-120.650475719","40.421133701","320176","326964","W-568321","FED","DOI-WFMI","BLM","USCANOD","Northern California District","CANOD","Northern California District","","","D5GJ","HUBBARD","","","","","","2005","2005/06/30 00:00:00+00","181","1138","Human","Debris and open burning","","2005/06/30 00:00:00+00","181","1300","0.2","A","40.421139","-120.650489","PRIVATE","CA","Lassen","06035","Lassen County"
"-122.32681466","38.916077957","320177","326965","W-568338","FED","DOI-WFMI","BLM","USCANOD","Northern California District","CANOD","Northern California District","","","D5GJ","MIDDLE","","","","","","2005","2005/06/30 00:00:00+00","181","1952","Human","Missing data/not specified/undetermined","","2005/06/30 00:00:00+00","181","2030","0.1","A","38.916083","-122.326828","PRIVATE","CA","Yolo","06113","Yolo County"
"-122.256500494","40.235961849","320178","326966","W-569010","FED","DOI-WFMI","BLM","USCANOD","Northern California District","CANOD","Northern California District","","","D5GJ","JELLYS","","","","","","2005","2005/07/01 00:00:00+00","182","0600","Human","Equipment and vehicle use","","2005/07/01 00:00:00+00","182","0610","0.1","A","40.235967","-122.256514","PRIVATE","CA","Tehama","06103","Tehama County"
"-122.276344699","38.668616972","320179","326967","W-568339","FED","DOI-WFMI","BLM","USCANOD","Northern California District","CANOD","Northern California District","","","D5GJ","POE","","","","","","2005","2005/07/01 00:00:00+00","182","1309","Human","Equipment and vehicle use","","2005/07/01 00:00:00+00","182","2000","10","C","38.668622","-122.276358","PRIVATE","CA","Napa","06055","Napa County"
"-122.474903419","40.532358845","320180","326968","W-568828","FED","DOI-WFMI","BLM","USCANOD","Northern California District","CANOD","Northern California District","","","D5GJ","CLOVER","","","","","","2005","2005/07/02 00:00:00+00","183","1028","Human","Equipment and vehicle use","","2005/07/02 00:00:00+00","183","1215","4","B","40.532364","-122.474917","PRIVATE","CA","Shasta","06089","Shasta County"
"-122.587464212","41.788886764","320181","326969","W-568891","FED","DOI-WFMI","BLM","USCANOD","Northern California District","CANOD","Northern California District","","","D5GJ","BRIDGE","","","","","","2005","2005/07/02 00:00:00+00","183","1050","Human","Equipment and vehicle use","","2005/07/02 00:00:00+00","183","1118","0.1","A","41.788892","-122.587478","PRIVATE","CA","Siskiyou","06093","Siskiyou County"
"-120.671086716","40.414894704","320182","326970","W-501859","FED","DOI-WFMI","BLM","USCANOD","Northern California District","CANOD","Northern California District","","","BXQ5","LMU HOBO","","","","","","2005","2005/07/02 00:00:00+00","183","1239","Human","Fireworks","Minor","2005/07/02 00:00:00+00","183","1510","1","B","40.4149","-120.6711","BLM","CA","Lassen","06035","Lassen County"
"-122.368286654","38.91769496","320183","326971","W-501691","FED","DOI-WFMI","BLM","USCANOD","Northern California District","CANOD","Northern California District","","","BYC0","LNU RUMSEY","","","","","","2005","2005/07/03 00:00:00+00","184","1347","Human","Fireworks","","2005/07/04 00:00:00+00","185","1900","50","C","38.9177","-122.3683","BLM","CA","Yolo","06113","Yolo County"
"-124.204102947","41.950841898","320184","326972","W-568098","FED","DOI-WFMI","BLM","USCANOD","Northern California District","CANOD","Northern California District","","","D5GJ","SHORELINE","","","","","","2005","2005/07/03 00:00:00+00","184","2154","Human","Missing data/not specified/undetermined","","2005/07/03 00:00:00+00","184","2230","0.1","A","41.950847","-124.204117","PRIVATE","CA","Del Norte","06015","Del Norte County"
"-122.034953758","38.484727969","320185","326973","W-568340","FED","DOI-WFMI","BLM","USCANOD","Northern California District","CANOD","Northern California District","","","D5GJ","DIGGER","","","","","","2005","2005/07/04 00:00:00+00","185","1140","Human","Equipment and vehicle use","","2005/07/04 00:00:00+00","185","1205","2","B","38.484733","-122.034967","BLM","CA","Solano","06095","Solano County"
"-121.784361551","40.343969801","320186","326974","W-569011","FED","DOI-WFMI","BLM","USCANOD","Northern California District","CANOD","Northern California District","","","D5GJ","HUSTEAD","","","","","","2005","2005/07/04 00:00:00+00","185","1304","Human","Missing data/not specified/undetermined","","2005/07/04 00:00:00+00","185","1315","0.1","A","40.343975","-121.784375","PRIVATE","CA","Tehama","06103","Tehama County"
"-121.548686698","39.536755846","320187","326975","W-568060","FED","DOI-WFMI","BLM","USCANOD","Northern California District","CANOD","Northern California District","","","D5GJ","CHEROKEE","","","","","","2005","2005/07/04 00:00:00+00","185","1516","Human","Missing data/not specified/undetermined","","2005/07/04 00:00:00+00","185","1530","0.4","B","39.536761","-121.5487","PRIVATE","CA","Butte","06007","Butte County"
"-122.434214412","40.621633835","320188","326976","W-568829","FED","DOI-WFMI","BLM","USCANOD","Northern California District","CANOD","Northern California District","","","D5GJ","SPRING","","","","","","2005","2005/07/04 00:00:00+00","185","1635","Human","Missing data/not specified/undetermined","","2005/07/04 00:00:00+00","185","1650","0.1","A","40.621639","-122.434228","PRIVATE","CA","Shasta","06089","Shasta County"
"-120.662686676","40.70319468","320189","326977","W-502218","FED","DOI-WFMI","BLM","USCANOD","Northern California District","CANOD","Northern California District","","","BYT1","LMU LAKE","","","","","","2005","2005/07/05 00:00:00+00","186","1849","Human","Recreation and ceremony","","2005/07/05 00:00:00+00","186","1905","0.1","A","40.7032","-120.6627","BLM","CA","Lassen","06035","Lassen County"
"-121.341930741","39.459450836","320190","326978","W-568061","FED","DOI-WFMI","BLM","USCANOD","Northern California District","CANOD","Northern California District","","","D5GJ","SODA","","","","","","2005","2005/07/06 00:00:00+00","187","","Human","Missing data/not specified/undetermined","","2005/07/06 00:00:00+00","187","","0.1","A","39.459456","-121.341944","PRIVATE","CA","Butte","06007","Butte County"
"-123.197036309","40.549275904","320191","326979","W-568831","FED","DOI-WFMI","BLM","USCANOD","Northern California District","CANOD","Northern California District","","","D5GJ","PLACER","","","","","","2005","2005/07/06 00:00:00+00","187","0345","Human","Equipment and vehicle use","","2005/07/06 00:00:00+00","187","0506","7","B","40.549281","-123.19705","PRIVATE","CA","Trinity","06105","Trinity County"
"-122.125678743","38.492780975","320192","326980","W-568341","FED","DOI-WFMI","BLM","USCANOD","Northern California District","CANOD","Northern California District","","","D5GJ","MARKLEY","2005_CA-LNU-004149_MARKLEY","","","","","2005","2005/07/06 00:00:00+00","187","1525","Human","Missing data/not specified/undetermined","","2005/07/06 00:00:00+00","187","1916","100","D","38.492786","-122.125692","PRIVATE","CA","Napa","06055","Napa County"
"-122.235439718","38.561394978","320193","326981","W-568342","FED","DOI-WFMI","BLM","USCANOD","Northern California District","CANOD","Northern California District","","","D5GJ","OAK SHORES","","","","","","2005","2005/07/06 00:00:00+00","187","1937","Human","Missing data/not specified/undetermined","","2005/07/06 00:00:00+00","187","1949","0.1","A","38.5614","-122.235453","PRIVATE","CA","Napa","06055","Napa County"
"-120.159886731","40.888494623","320194","326982","W-502210","FED","DOI-WFMI","BLM","USCANOD","Northern California District","CANOD","Northern California District","","","BY3R","TULEDAD","","","","","","2005","2005/07/07 00:00:00+00","188","0731","Human","Debris and open burning","","2005/07/07 00:00:00+00","188","1302","0.1","A","40.8885","-120.1599","PRIVATE","CA","Lassen","06035","Lassen County"
"-121.09493652","41.29214467","320195","326983","W-568322","FED","DOI-WFMI","BLM","USCANOD","Northern California District","CANOD","Northern California District","","","D5GJ","LOOKOUT","","","","","","2005","2005/07/07 00:00:00+00","188","1646","Human","Equipment and vehicle use","","2005/07/07 00:00:00+00","188","2200","6","B","41.29215","-121.09495","PRIVATE","CA","Modoc","06049","Modoc County"
"-122.125678743","38.492780975","320196","326984","W-568343","FED","DOI-WFMI","BLM","USCANOD","Northern California District","CANOD","Northern California District","","","D5GJ","MARKELY 2","","","","","","2005","2005/07/09 00:00:00+00","190","1110","Human","Missing data/not specified/undetermined","","2005/07/09 00:00:00+00","190","1300","0.5","B","38.492786","-122.125692","PRIVATE","CA","Napa","06055","Napa County"
"-123.063386299","40.747024879","320197","326986","W-502710","FED","DOI-WFMI","BLM","USCANOD","Northern California District","CANOD","Northern California District","","","BZ1E","SHU CAMP","","","","","","2005","2005/07/10 00:00:00+00","191","1513","Human","Debris and open burning","","2005/07/10 00:00:00+00","191","1520","0.1","A","40.74703","-123.0634","BLM","CA","Trinity","06105","Trinity County"
"-122.724083618","38.778980998","320198","326987","W-568344","FED","DOI-WFMI","BLM","USCANOD","Northern California District","CANOD","Northern California District","","","D5GJ","SOCRATES","","","","","","2005","2005/07/12 00:00:00+00","193","1239","Human","Equipment and vehicle use","","2005/07/12 00:00:00+00","193","1250","0.1","A","38.778986","-122.724097","PRIVATE","CA","Lake","06033","Lake County"
"-123.029353521","39.186616991","320199","326988","W-568345","FED","DOI-WFMI","BLM","USCANOD","Northern California District","CANOD","Northern California District","","","D5GJ","HWY 20 BLUE LAKES","","","","","","2005","2005/07/13 00:00:00+00","194","0103","Human","Equipment and vehicle use","","2005/07/13 00:00:00+00","194","0103","0.1","A","39.186622","-123.029367","PRIVATE","CA","Lake","06033","Lake County"
"-120.142686849","40.074894689","320200","326989","W-502844","FED","DOI-WFMI","BLM","USCANOD","Northern California District","CANOD","Northern California District","","","B0BL","CCD 395","","","","","","2005","2005/07/14 00:00:00+00","195","0931","Human","Missing data/not specified/undetermined","","2005/07/14 00:00:00+00","195","1700","0.7","B","40.0749","-120.1427","PRIVATE","CA","Lassen","06035","Lassen County"
"-122.577305606","39.044675966","320201","326990","W-568346","FED","DOI-WFMI","BLM","USCANOD","Northern California District","CANOD","Northern California District","","","D5GJ","LONG","","","","","","2005","2005/07/14 00:00:00+00","195","1944","Human","Missing data/not specified/undetermined","","2005/07/15 00:00:00+00","196","0025","6","B","39.044681","-122.577319","PRIVATE","CA","Lake","06033","Lake County"
"-122.333569444","40.505525835","320202","326991","W-568832","FED","DOI-WFMI","BLM","USCANOD","Northern California District","CANOD","Northern California District","","","D5GJ","KNIGHTON","","","","","","2005","2005/07/15 00:00:00+00","196","1220","Human","Equipment and vehicle use","","2005/07/15 00:00:00+00","196","1234","2","B","40.505531","-122.333583","PRIVATE","CA","Shasta","06089","Shasta County"
"-120.465383757","40.357477691","320203","326992","W-568323","FED","DOI-WFMI","BLM","USCANOD","Northern California District","CANOD","Northern California District","","","D5GJ","SAGEBRUSH","","","","","","2005","2005/07/16 00:00:00+00","197","1518","Human","Equipment and vehicle use","","2005/07/16 00:00:00+00","197","1630","1.2","B","40.357483","-120.465397","PRIVATE","CA","Lassen","06035","Lassen County"
"-121.616886666","39.696613839","320204","326993","W-568062","FED","DOI-WFMI","BLM","USCANOD","Northern California District","CANOD","Northern California District","","","D5GJ","ROYAL","","","","","","2005","2005/07/17 00:00:00+00","198","1711","Human","Equipment and vehicle use","","2005/07/17 00:00:00+00","198","1830","3","B","39.696619","-121.6169","PRIVATE","CA","Butte","06007","Butte County"
"-122.103889744","38.512094972","320205","326994","W-568347","FED","DOI-WFMI","BLM","USCANOD","Northern California District","CANOD","Northern California District","","","D5GJ","DAMN","","","","","","2005","2005/07/19 00:00:00+00","200","1807","Human","Equipment and vehicle use","","2005/07/19 00:00:00+00","200","1850","0.5","B","38.5121","-122.103903","PRIVATE","CA","Napa","06055","Napa County"
"-119.952686732","41.113194587","320206","326995","W-503834","FED","DOI-WFMI","BLM","USCANOD","Northern California District","CANOD","Northern California District","","","B1DX","WINDMILL","","","","","","2005","2005/07/21 00:00:00+00","202","1530","Natural","Natural","","2005/07/21 00:00:00+00","202","2200","3.1","B","41.1132","-119.9527","BLM","NV","Washoe","32031","Washoe County"
"-122.042658458","40.716094795","320207","326996","W-568833","FED","DOI-WFMI","BLM","USCANOD","Northern California District","CANOD","Northern California District","","","D5GJ","LOOKOUT","","","","","","2005","2005/07/22 00:00:00+00","203","1148","Human","Equipment and vehicle use","","2005/07/22 00:00:00+00","203","1400","0.1","A","40.7161","-122.042672","PRIVATE","CA","Shasta","06089","Shasta County"
"-122.074444482","40.515211813","320208","326997","W-568834","FED","DOI-WFMI","BLM","USCANOD","Northern California District","CANOD","Northern California District","","","D5GJ","GREY","","","","","","2005","2005/07/22 00:00:00+00","203","1355","Human","Debris and open burning","","2005/07/22 00:00:00+00","203","1408","2","B","40.515217","-122.074458","PRIVATE","CA","Shasta","06089","Shasta County"
"-121.596828655","39.806683828","320209","326998","W-568064","FED","DOI-WFMI","BLM","USCANOD","Northern California District","CANOD","Northern California District","","","D5GJ","WHITE SPRING","","","","","","2005","2005/07/22 00:00:00+00","203","1607","Human","Debris and open burning","","2005/07/22 00:00:00+00","203","1815","0.5","B","39.806689","-121.596842","PRIVATE","CA","Butte","06007","Butte County"
"-122.244878463","40.46991183","320210","326999","W-568835","FED","DOI-WFMI","BLM","USCANOD","Northern California District","CANOD","Northern California District","","","D5GJ","DESCHUTES","","","","","","2005","2005/07/23 00:00:00+00","204","1250","Human","Equipment and vehicle use","","2005/07/23 00:00:00+00","204","1259","0.1","A","40.469917","-122.244892","PRIVATE","CA","Shasta","06089","Shasta County"
"-122.387425413","40.664580828","320211","327000","W-568836","FED","DOI-WFMI","BLM","USCANOD","Northern California District","CANOD","Northern California District","","","D5GJ","KNAUFF","","","","","","2005","2005/07/23 00:00:00+00","204","2004","Human","Arson/incendiarism","","2005/07/23 00:00:00+00","204","2010","0.1","A","40.664586","-122.387439","PRIVATE","CA","Shasta","06089","Shasta County"
"-122.796847401","40.319222887","320212","327001","W-569012","FED","DOI-WFMI","BLM","USCANOD","Northern California District","CANOD","Northern California District","","","D5GJ","RANCH","2005_CA-TGU-04548_RANCH","","CA-TGU-04548-20050725","RANCH","","2005","2005/07/25 00:00:00+00","206","1258","Human","Equipment and vehicle use","","2005/07/27 00:00:00+00","208","2000","430","E","40.319228","-122.796861","PRIVATE","CA","Tehama","06103","Tehama County"
"-123.760530127","41.214297907","320213","327003","W-568099","FED","DOI-WFMI","BLM","USCANOD","Northern California District","CANOD","Northern California District","","","D5GJ","MITCHELL","","","","","","2005","2005/07/25 00:00:00+00","206","1345","Human","Equipment and vehicle use","","2005/07/25 00:00:00+00","206","1600","0.1","A","41.214303","-123.760544","PRIVATE","CA","Humboldt","06023","Humboldt County"
"-122.223583488","40.31603084","320214","327004","W-569013","FED","DOI-WFMI","BLM","USCANOD","Northern California District","CANOD","Northern California District","","","D5GJ","JELLYS","","","","","","2005","2005/07/25 00:00:00+00","206","1404","Human","Equipment and vehicle use","","2005/07/25 00:00:00+00","206","1441","10","C","40.316036","-122.223597","PRIVATE","CA","Tehama","06103","Tehama County"
"-120.628955571","41.446680618","320215","327005","W-568324","FED","DOI-WFMI","BLM","USCANOD","Northern California District","CANOD","Northern California District","","","D5GJ","COUNTY","","","","","","2005","2005/07/25 00:00:00+00","206","1738","Human","Equipment and vehicle use","","2005/07/25 00:00:00+00","206","1900","0.5","B","41.446686","-120.628969","PRIVATE","CA","Modoc","06049","Modoc County"
"-122.289283703","38.616775978","320216","327006","W-568348","FED","DOI-WFMI","BLM","USCANOD","Northern California District","CANOD","Northern California District","","","D5GJ","BRIDGE","","","","","","2005","2005/07/25 00:00:00+00","206","1758","Human","Equipment and vehicle use","","2005/07/25 00:00:00+00","206","1815","0.1","A","38.616781","-122.289297","BOR","CA","Napa","06055","Napa County"
"-122.146408447","40.685550806","320217","327007","W-568837","FED","DOI-WFMI","BLM","USCANOD","Northern California District","CANOD","Northern California District","","","D5GJ","WOODMAN","","","","","","2005","2005/07/25 00:00:00+00","206","2230","Human","Equipment and vehicle use","","2005/07/25 00:00:00+00","206","2240","1","B","40.685556","-122.146422","PRIVATE","CA","Shasta","06089","Shasta County"
"-122.031553489","40.514150809","320218","327008","W-568838","FED","DOI-WFMI","BLM","USCANOD","Northern California District","CANOD","Northern California District","","","D5GJ","DERSH","","","","","","2005","2005/07/26 00:00:00+00","207","0145","Human","Arson/incendiarism","","2005/07/26 00:00:00+00","207","0320","0.2","A","40.514156","-122.031567","PRIVATE","CA","Shasta","06089","Shasta County"
"-122.338197444","40.503102835","320219","327009","W-568839","FED","DOI-WFMI","BLM","USCANOD","Northern California District","CANOD","Northern California District","","","D5GJ","KNIGHTON","","","","","","2005","2005/07/26 00:00:00+00","207","1752","Human","Equipment and vehicle use","","2005/07/26 00:00:00+00","207","1810","0.1","A","40.503108","-122.338211","PRIVATE","CA","Shasta","06089","Shasta County"
"-121.599700652","39.820477827","320220","327010","W-568065","FED","DOI-WFMI","BLM","USCANOD","Northern California District","CANOD","Northern California District","","","D5GJ","CENTERVILLE","","","","","","2005","2005/07/28 00:00:00+00","209","0903","Human","Power generation/transmission/distribution","","2005/07/28 00:00:00+00","209","1530","0.1","A","39.820483","-121.599714","PRIVATE","CA","Butte","06007","Butte County"
"-120.466086678","40.913194646","320221","327011","W-503867","FED","DOI-WFMI","BLM","USCANOD","Northern California District","CANOD","Northern California District","","","B2EZ","PEAK","","","","","","2005","2005/07/29 00:00:00+00","210","1100","Natural","Natural","","2005/07/29 00:00:00+00","210","1500","0.1","A","40.9132","-120.4661","PRIVATE","CA","Lassen","06035","Lassen County"
"-124.251924967","41.782494913","320222","327012","W-568100","FED","DOI-WFMI","BLM","USCANOD","Northern California District","CANOD","Northern California District","","","D5GJ","GEORGE","","","","","","2005","2005/07/30 00:00:00+00","211","1900","Human","Recreation and ceremony","","2005/07/30 00:00:00+00","211","1945","0.1","A","41.7825","-124.251939","PRIVATE","CA","Del Norte","06015","Del Norte County"
"-122.94024432","40.73207287","320223","327013","W-568840","FED","DOI-WFMI","BLM","USCANOD","Northern California District","CANOD","Northern California District","","","D5GJ","OREGON","","","","","","2005","2005/07/31 00:00:00+00","212","1718","Human","Missing data/not specified/undetermined","","2005/07/31 00:00:00+00","212","1725","0.3","B","40.732078","-122.940258","PRIVATE","CA","Trinity","06105","Trinity County"
"-122.803205602","38.815014001","320224","327014","W-568350","FED","DOI-WFMI","BLM","USCANOD","Northern California District","CANOD","Northern California District","","","D5GJ","GEYSERS","","","","","","2005","2005/08/01 00:00:00+00","213","0200","Human","Equipment and vehicle use","","2005/08/01 00:00:00+00","213","0345","5","B","38.815019","-122.803219","PRIVATE","CA","Sonoma","06097","Sonoma County"
"-122.419486415","40.617394834","320225","327015","W-505395","FED","DOI-WFMI","BLM","USCANOD","Northern California District","CANOD","Northern California District","","","B2U1","SHU KESWIC","","","","","","2005","2005/08/01 00:00:00+00","213","1624","Human","Equipment and vehicle use","","2005/08/01 00:00:00+00","213","2030","19","C","40.6174","-122.4195","BLM","CA","Shasta","06089","Shasta County"
"-121.626847651","39.797283831","320226","327017","W-568066","FED","DOI-WFMI","BLM","USCANOD","Northern California District","CANOD","Northern California District","","","D5GJ","QUAIL","","","","","","2005","2005/08/03 00:00:00+00","215","1801","Human","Equipment and vehicle use","","2005/08/03 00:00:00+00","215","2000","0.5","B","39.797289","-121.626861","PRIVATE","CA","Butte","06007","Butte County"
"-122.446467416","40.584422839","320227","327018","W-568842","FED","DOI-WFMI","BLM","USCANOD","Northern California District","CANOD","Northern California District","","","D5GJ","LOWER","","","","","","2005","2005/08/03 00:00:00+00","215","2204","Human","Missing data/not specified/undetermined","","2005/08/03 00:00:00+00","215","2255","0.1","A","40.584428","-122.446481","PRIVATE","CA","Shasta","06089","Shasta County"
"-120.447386648","41.133794627","320228","327019","W-504573","FED","DOI-WFMI","BLM","USCANOD","Northern California District","CANOD","Northern California District","","","B3DV","TULE","","","","","","2005","2005/08/05 00:00:00+00","217","1000","Natural","Natural","","2005/08/06 00:00:00+00","218","1400","0.5","B","41.1338","-120.4474","BLM","CA","Lassen","06035","Lassen County"
"-120.706086571","41.368194631","320229","327020","W-504226","FED","DOI-WFMI","BLM","USCANOD","Northern California District","CANOD","Northern California District","","","B3CV","LMU LGT 4","","","","","","2005","2005/08/05 00:00:00+00","217","1720","Natural","Natural","","2005/08/05 00:00:00+00","217","2000","0.8","B","41.3682","-120.7061","BLM","CA","Modoc","06049","Modoc County"
"-122.198842732","38.49750898","320230","327021","W-568351","FED","DOI-WFMI","BLM","USCANOD","Northern California District","CANOD","Northern California District","","","D5GJ","STEEL 2","","","","","","2005","2005/08/05 00:00:00+00","217","2129","Human","Equipment and vehicle use","","2005/08/05 00:00:00+00","217","2300","0.3","B","38.497514","-122.198856","PRIVATE","CA","Napa","06055","Napa County"
"-120.151386764","40.67079464","320231","327022","W-504561","FED","DOI-WFMI","BLM","USCANOD","Northern California District","CANOD","Northern California District","","","B3EJ","SHINN","","","","","","2005","2005/08/06 00:00:00+00","218","1200","Natural","Natural","","2005/08/07 00:00:00+00","219","1600","5","B","40.6708","-120.1514","BLM","CA","Lassen","06035","Lassen County"
"-120.17298684","40.102694689","320232","327023","W-504910","FED","DOI-WFMI","BLM","USCANOD","Northern California District","CANOD","Northern California District","","","B3EE","CCD WILD","","","","","","2005","2005/08/06 00:00:00+00","218","1402","Human","Missing data/not specified/undetermined","","2005/08/06 00:00:00+00","218","1520","0.1","A","40.1027","-120.173","PRIVATE","CA","Lassen","06035","Lassen County"
"-122.285428468","40.38931384","320233","327024","W-568843","FED","DOI-WFMI","BLM","USCANOD","Northern California District","CANOD","Northern California District","","","D5GJ","GAS","","","","","","2005","2005/08/07 00:00:00+00","219","1438","Human","Equipment and vehicle use","","2005/08/07 00:00:00+00","219","1515","4","B","40.389319","-122.285442","PRIVATE","CA","Shasta","06089","Shasta County"
"-120.468586734","40.522994678","320234","327025","W-505463","FED","DOI-WFMI","BLM","USCANOD","Northern California District","CANOD","Northern California District","","","B3MF","BELFAST","","","","","","2005","2005/08/08 00:00:00+00","220","1108","Human","Equipment and vehicle use","","2005/08/08 00:00:00+00","220","1431","3.5","B","40.523","-120.4686","BLM","CA","Lassen","06035","Lassen County"
"-124.071925256","40.030556014","320235","327026","W-568101","FED","DOI-WFMI","BLM","USCANOD","Northern California District","CANOD","Northern California District","","","D5GJ","MILL 1","","","","","","2005","2005/08/08 00:00:00+00","220","1251","Human","Missing data/not specified/undetermined","","2005/08/08 00:00:00+00","220","1345","0.2","A","40.030561","-124.071939","PRIVATE","CA","Humboldt","06023","Humboldt County"
"-123.041044306","40.727850878","320236","327027","W-568844","FED","DOI-WFMI","BLM","USCANOD","Northern California District","CANOD","Northern California District","","","D5GJ","HWY 299","","","","","","2005","2005/08/08 00:00:00+00","220","1510","Human","Missing data/not specified/undetermined","","2005/08/08 00:00:00+00","220","1525","0.1","A","40.727856","-123.041058","PRIVATE","CA","Trinity","06105","Trinity County"
"-122.768375614","38.759962003","320237","327028","W-568352","FED","DOI-WFMI","BLM","USCANOD","Northern California District","CANOD","Northern California District","","","D5GJ","MULE","","","","","","2005","2005/08/10 00:00:00+00","222","1332","Human","Equipment and vehicle use","","2005/08/10 00:00:00+00","222","1600","4","B","38.759967","-122.768389","PRIVATE","CA","Sonoma","06097","Sonoma County"
"-121.592358654","39.817772827","320238","327029","W-568067","FED","DOI-WFMI","BLM","USCANOD","Northern California District","CANOD","Northern California District","","","D5GJ","ROCK","","","","","","2005","2005/08/10 00:00:00+00","222","1626","Human","Missing data/not specified/undetermined","","2005/08/10 00:00:00+00","222","1645","0.1","A","39.817778","-121.592372","PRIVATE","CA","Butte","06007","Butte County"
"-123.768197411","39.205373048","320239","327030","W-568382","FED","DOI-WFMI","BLM","USCANOD","Northern California District","CANOD","Northern California District","","","D5GJ","NAVARRO","","","","","","2005","2005/08/11 00:00:00+00","223","1547","Human","Debris and open burning","","2005/08/11 00:00:00+00","223","1550","0.1","A","39.205378","-123.768211","PRIVATE","CA","Mendocino","06045","Mendocino County"
"-122.070942511","40.313533827","320240","327031","W-569014","FED","DOI-WFMI","BLM","USCANOD","Northern California District","CANOD","Northern California District","","","D5GJ","MANTON","2005_CA-TGU-005015_MANTON","","","","","2005","2005/08/11 00:00:00+00","223","1706","Human","Equipment and vehicle use","","2005/08/11 00:00:00+00","223","1835","28","C","40.313539","-122.070956","PRIVATE","CA","Tehama","06103","Tehama County"
"-122.472089418","40.542302844","320241","327032","W-568845","FED","DOI-WFMI","BLM","USCANOD","Northern California District","CANOD","Northern California District","","","D5GJ","STONE","","","","","","2005","2005/08/12 00:00:00+00","224","0024","Human","Missing data/not specified/undetermined","","2005/08/12 00:00:00+00","224","0050","0.1","A","40.542308","-122.472103","PRIVATE","CA","Shasta","06089","Shasta County"
"-122.451875427","40.501544845","320242","327033","W-568846","FED","DOI-WFMI","BLM","USCANOD","Northern California District","CANOD","Northern California District","","","D5GJ","CREEK","","","","","","2005","2005/08/13 00:00:00+00","225","0417","Human","Missing data/not specified/undetermined","","2005/08/13 00:00:00+00","225","0435","0.1","A","40.50155","-122.451889","PRIVATE","CA","Shasta","06089","Shasta County"
"-120.182303801","40.374133667","320243","327034","W-568325","FED","DOI-WFMI","BLM","USCANOD","Northern California District","CANOD","Northern California District","","","D5GJ","LGT 6","","","","","","2005","2005/08/15 00:00:00+00","227","1820","Natural","Natural","","2005/08/15 00:00:00+00","227","2029","0.1","A","40.374139","-120.182317","PRIVATE","CA","Lassen","06035","Lassen County"
"-120.26608671","40.91069463","320244","327035","W-507364","FED","DOI-WFMI","BLM","USCANOD","Northern California District","CANOD","Northern California District","","","B4GU","HAYSTACK","","","","","","2005","2005/08/17 00:00:00+00","229","0647","Natural","Natural","","2005/08/18 00:00:00+00","230","1200","2.3","B","40.9107","-120.2661","PRIVATE","CA","Lassen","06035","Lassen County"
