"ï»¿X","Y","OBJECTID","FOD_ID","FPA_ID","SOURCE_SYSTEM_TYPE","SOURCE_SYSTEM","NWCG_REPORTING_AGENCY","NWCG_REPORTING_UNIT_ID","NWCG_REPORTING_UNIT_NAME","SOURCE_REPORTING_UNIT","SOURCE_REPORTING_UNIT_NAME","LOCAL_FIRE_REPORT_ID","LOCAL_INCIDENT_ID","FIRE_CODE","FIRE_NAME","ICS_209_PLUS_INCIDENT_JOIN_ID","ICS_209_PLUS_COMPLEX_JOIN_ID","MTBS_ID","MTBS_FIRE_NAME","COMPLEX_NAME","FIRE_YEAR","DISCOVERY_DATE","DISCOVERY_DOY","DISCOVERY_TIME","NWCG_CAUSE_CLASSIFICATION","NWCG_GENERAL_CAUSE","NWCG_CAUSE_AGE_CATEGORY","CONT_DATE","CONT_DOY","CONT_TIME","FIRE_SIZE","FIRE_SIZE_CLASS","LATITUDE","LONGITUDE","OWNER_DESCR","STATE","COUNTY","FIPS_CODE","FIPS_NAME"
"-118.998876378","36.146106079","1090001","1328694","CDF_1997_56_2234_109         ","NONFED","ST-CACDF","ST/C&L","USCATUU","Tulare Unit","CATUU","Tulare Unit","","109         ","","STARK                    ","","","","","","1997","1997/07/08 00:00:00+00","189","","Human","Missing data/not specified/undetermined","","","","","0.1","A","36.14611111","-118.99888888","MISSING/NOT SPECIFIED","CA","","",""
"-118.989987508","36.058883857","1090002","1328695","CDF_1997_56_2234_11253       ","NONFED","ST-CACDF","ST/C&L","USCATUU","Tulare Unit","CATUU","Tulare Unit","","11253       ","","RIVER BOTTOM #7          ","","","","","","1997","1997/07/08 00:00:00+00","189","","Human","Arson/incendiarism","","","","","0.2","A","36.05888888","-118.99","MISSING/NOT SPECIFIED","CA","","",""
"-118.989987508","36.058883857","1090003","1328696","CDF_1997_56_2234_11251       ","NONFED","ST-CACDF","ST/C&L","USCATUU","Tulare Unit","CATUU","Tulare Unit","","11251       ","","TULARE CO.#115           ","","","","","","1997","1997/07/08 00:00:00+00","189","","Human","Arson/incendiarism","","","","","0.2","A","36.05888888","-118.99","MISSING/NOT SPECIFIED","CA","","",""
"-119.473042985","35.999995014","1090004","1328697","CDF_1997_56_2234_11261       ","NONFED","ST-CACDF","ST/C&L","USCATUU","Tulare Unit","CATUU","Tulare Unit","","11261       ","","STATE OF CALIF # 42      ","","","","","","1997","1997/07/08 00:00:00+00","189","","Human","Arson/incendiarism","","","","","0.3","B","36","-119.47305555","MISSING/NOT SPECIFIED","CA","","",""
"-119.41193185","36.348883856","1090005","1328698","CDF_1997_56_2234_11268       ","NONFED","ST-CACDF","ST/C&L","USCATUU","Tulare Unit","CATUU","Tulare Unit","","11268       ","","CARGILLS                 ","","","","","","1997","1997/07/09 00:00:00+00","190","","Human","Arson/incendiarism","","","","","0.5","B","36.34888888","-119.41194444","MISSING/NOT SPECIFIED","CA","","",""
"-119.043876388","35.971939429","1090006","1328699","CDF_1997_56_2234_11276       ","NONFED","ST-CACDF","ST/C&L","USCATUU","Tulare Unit","CATUU","Tulare Unit","","11276       ","","GUINN                    ","","","","","","1997","1997/07/09 00:00:00+00","190","","Human","Arson/incendiarism","","","","","40","C","35.97194444","-119.04388888","MISSING/NOT SPECIFIED","CA","","",""
"-119.293876354","35.898883893","1090007","1328700","CDF_1997_56_2234_11081       ","NONFED","ST-CACDF","ST/C&L","USCATUU","Tulare Unit","CATUU","Tulare Unit","","11081       ","","JOHNSON                  ","","","","","","1997","1997/06/22 00:00:00+00","173","","Human","Arson/incendiarism","","","","","2","B","35.89888888","-119.29388888","MISSING/NOT SPECIFIED","CA","","",""
"-119.231098536","36.478883831","1090008","1328701","CDF_1997_56_2234_11104       ","NONFED","ST-CACDF","ST/C&L","USCATUU","Tulare Unit","CATUU","Tulare Unit","","11104       ","","SEVILLE #5               ","","","","","","1997","1997/06/25 00:00:00+00","176","","Human","Arson/incendiarism","","","","","2","B","36.47888888","-119.23111111","MISSING/NOT SPECIFIED","CA","","",""
"-119.008043052","36.088050525","1090009","1328702","CDF_1997_56_2234_11110       ","NONFED","ST-CACDF","ST/C&L","USCATUU","Tulare Unit","CATUU","Tulare Unit","","11110       ","","TULARE CO. # 105         ","","","","","","1997","1997/06/25 00:00:00+00","176","","Human","Arson/incendiarism","","","","","0.3","B","36.08805555","-119.00805555","MISSING/NOT SPECIFIED","CA","","",""
"-119.231098536","36.478883831","1090010","1328703","CDF_1997_56_2234_11103       ","NONFED","ST-CACDF","ST/C&L","USCATUU","Tulare Unit","CATUU","Tulare Unit","","11103       ","","SEVILLE #4               ","","","","","","1997","1997/06/25 00:00:00+00","176","","Human","Arson/incendiarism","","","","","40","C","36.47888888","-119.23111111","MISSING/NOT SPECIFIED","CA","","",""
"-119.008043067","35.94305054","1090011","1328704","CDF_1997_56_2234_11144       ","NONFED","ST-CACDF","ST/C&L","USCATUU","Tulare Unit","CATUU","Tulare Unit","","11144       ","","GROVE                    ","","","","","","1997","1997/06/28 00:00:00+00","179","","Human","Arson/incendiarism","","","","","0.5","B","35.94305555","-119.00805555","MISSING/NOT SPECIFIED","CA","","",""
"-119.043043049","36.05888386","1090012","1328705","CDF_1997_56_2234_11149       ","NONFED","ST-CACDF","ST/C&L","USCATUU","Tulare Unit","CATUU","Tulare Unit","","11149       ","","SAN JOAQUIN VALLEY 7     ","","","","","","1997","1997/06/29 00:00:00+00","180","","Human","Arson/incendiarism","","","","","0.2","A","36.05888888","-119.04305555","MISSING/NOT SPECIFIED","CA","","",""
"-118.989987508","36.058883857","1090013","1328706","CDF_1997_56_2234_11151       ","NONFED","ST-CACDF","ST/C&L","USCATUU","Tulare Unit","CATUU","Tulare Unit","","11151       ","","BRADFORD                 ","","","","","","1997","1997/06/29 00:00:00+00","180","","Human","Arson/incendiarism","","","","","0.2","A","36.05888888","-118.99","MISSING/NOT SPECIFIED","CA","","",""
"-119.231098536","36.478883831","1090014","1328707","CDF_1997_56_2234_11172       ","NONFED","ST-CACDF","ST/C&L","USCATUU","Tulare Unit","CATUU","Tulare Unit","","11172       ","","BENZENBERG #4            ","","","","","","1997","1997/06/30 00:00:00+00","181","","Human","Arson/incendiarism","","","","","0.1","A","36.47888888","-119.23111111","MISSING/NOT SPECIFIED","CA","","",""
"-118.989987508","36.058883857","1090015","1328708","CDF_1997_56_2234_11160       ","NONFED","ST-CACDF","ST/C&L","USCATUU","Tulare Unit","CATUU","Tulare Unit","","11160       ","","QUIRM                    ","","","","","","1997","1997/06/30 00:00:00+00","181","","Human","Arson/incendiarism","","","","","0.2","A","36.05888888","-118.99","MISSING/NOT SPECIFIED","CA","","",""
"-119.114987513","35.798050561","1090016","1328709","CDF_1997_56_2234_11165       ","NONFED","ST-CACDF","ST/C&L","USCATUU","Tulare Unit","CATUU","Tulare Unit","","11165       ","","STREBEL # 2              ","","","","","","1997","1997/06/30 00:00:00+00","181","","Human","Missing data/not specified/undetermined","","","","","0.3","B","35.79805555","-119.115","MISSING/NOT SPECIFIED","CA","","",""
"-119.08998747","36.274994962","1090017","1328710","CDF_1997_56_2234_102         ","NONFED","ST-CACDF","ST/C&L","USCATUU","Tulare Unit","CATUU","Tulare Unit","","102         ","","YOKOHL                   ","","","","","","1997","1997/07/05 00:00:00+00","186","","Human","Arson/incendiarism","","","","","0.2","A","36.275","-119.09","MISSING/NOT SPECIFIED","CA","","",""
"-119.018876369","36.203883844","1090018","1328711","CDF_1997_56_2234_11229       ","NONFED","ST-CACDF","ST/C&L","USCATUU","Tulare Unit","CATUU","Tulare Unit","","11229       ","","MERRITT                  ","","","","","","1997","1997/07/05 00:00:00+00","186","","Human","Arson/incendiarism","","","","","1","B","36.20388888","-119.01888888","MISSING/NOT SPECIFIED","CA","","",""
"-118.971931951","36.058883856","1090019","1328712","CDF_1997_56_2234_11219       ","NONFED","ST-CACDF","ST/C&L","USCATUU","Tulare Unit","CATUU","Tulare Unit","","11219       ","","RIVER BOTTOM 6           ","","","","","","1997","1997/07/05 00:00:00+00","186","","Human","Missing data/not specified/undetermined","","","","","0.1","A","36.05888888","-118.97194444","MISSING/NOT SPECIFIED","CA","","",""
"-119.196931887","36.333883843","1090020","1328713","CDF_1997_56_2234_11232       ","NONFED","ST-CACDF","ST/C&L","USCATUU","Tulare Unit","CATUU","Tulare Unit","","11232       ","","PEREZ                    ","","","","","","1997","1997/07/06 00:00:00+00","187","","Human","Missing data/not specified/undetermined","","","","","0.1","A","36.33388888","-119.19694444","MISSING/NOT SPECIFIED","CA","","",""
"-119.08998748","36.173883852","1090021","1328714","CDF_1997_56_2234_11240       ","NONFED","ST-CACDF","ST/C&L","USCATUU","Tulare Unit","CATUU","Tulare Unit","","11240       ","","ORCHARD                  ","","","","","","1997","1997/07/06 00:00:00+00","187","","Human","Arson/incendiarism","","","","","3","B","36.17388888","-119.09","MISSING/NOT SPECIFIED","CA","","",""
"-119.089987472","36.261106073","1090022","1328715","CDF_1997_56_2234_11237       ","NONFED","ST-CACDF","ST/C&L","USCATUU","Tulare Unit","CATUU","Tulare Unit","","11237       ","","TULARE COUNTY #112       ","","","","","","1997","1997/07/06 00:00:00+00","187","","Human","Arson/incendiarism","","","","","0.1","A","36.26111111","-119.09","MISSING/NOT SPECIFIED","CA","","",""
"-119.304987427","36.348883848","1090023","1328716","CDF_1997_56_2234_11243       ","NONFED","ST-CACDF","ST/C&L","USCATUU","Tulare Unit","CATUU","Tulare Unit","","11243       ","","HIPWELL                  ","","","","","","1997","1997/07/07 00:00:00+00","188","","Human","Equipment and vehicle use","","","","","0.1","A","36.34888888","-119.305","MISSING/NOT SPECIFIED","CA","","",""
"-119.231098536","36.478883831","1090024","1328717","CDF_1997_56_2234_11259       ","NONFED","ST-CACDF","ST/C&L","USCATUU","Tulare Unit","CATUU","Tulare Unit","","11259       ","","SEVILLE # 6              ","","","","","","1997","1997/07/08 00:00:00+00","189","","Human","Arson/incendiarism","","","","","3","B","36.47888888","-119.23111111","MISSING/NOT SPECIFIED","CA","","",""
"-119.526931877","35.883883909","1090025","1328718","CDF_1997_56_2234_11272       ","NONFED","ST-CACDF","ST/C&L","USCATUU","Tulare Unit","CATUU","Tulare Unit","","11272       ","","AIRINGTON                ","","","","","","1997","1997/07/09 00:00:00+00","190","","Human","Equipment and vehicle use","","","","","3","B","35.88388888","-119.52694444","MISSING/NOT SPECIFIED","CA","","",""
"-119.16109856","36.363050508","1090026","1328719","CDF_1997_56_2234_11283       ","NONFED","ST-CACDF","ST/C&L","USCATUU","Tulare Unit","CATUU","Tulare Unit","","11283       ","","MCCAIN                   ","","","","","","1997","1997/07/10 00:00:00+00","191","","Human","Smoking","","","","","0.5","B","36.36305555","-119.16111111","MISSING/NOT SPECIFIED","CA","","",""
"-119.454987443","35.941939459","1090027","1328720","CDF_1997_56_2234_11286       ","NONFED","ST-CACDF","ST/C&L","USCATUU","Tulare Unit","CATUU","Tulare Unit","","11286       ","","SANTE FE #3              ","","","","","","1997","1997/07/10 00:00:00+00","191","","Human","Missing data/not specified/undetermined","","","","","1","B","35.94194444","-119.455","MISSING/NOT SPECIFIED","CA","","",""
"-119.018876369","36.203883844","1090028","1328721","CDF_1997_56_2234_111         ","NONFED","ST-CACDF","ST/C&L","USCATUU","Tulare Unit","CATUU","Tulare Unit","","111         ","","STRATHMORE               ","","","","","","1997","1997/07/10 00:00:00+00","191","","Human","Arson/incendiarism","","","","","1","B","36.20388888","-119.01888888","MISSING/NOT SPECIFIED","CA","","",""
"-119.391931866","36.218050537","1090029","1328722","CDF_1997_56_2234_11294       ","NONFED","ST-CACDF","ST/C&L","USCATUU","Tulare Unit","CATUU","Tulare Unit","","11294       ","","BENAVIDEZ                ","","","","","","1997","1997/07/11 00:00:00+00","192","","Human","Debris and open burning","","","","","0.6","B","36.21805555","-119.39194444","MISSING/NOT SPECIFIED","CA","","",""
"-119.036098598","36.188883847","1090030","1328723","CDF_1997_56_2234_11298       ","NONFED","ST-CACDF","ST/C&L","USCATUU","Tulare Unit","CATUU","Tulare Unit","","11298       ","","GLICK                    ","","","","","","1997","1997/07/11 00:00:00+00","192","","Human","Arson/incendiarism","","","","","0.5","B","36.18888888","-119.03611111","MISSING/NOT SPECIFIED","CA","","",""
"-119.364987472","35.798050577","1090031","1328724","CDF_1997_56_2234_11292       ","NONFED","ST-CACDF","ST/C&L","USCATUU","Tulare Unit","CATUU","Tulare Unit","","11292       ","","CA STATE #43             ","","","","","","1997","1997/07/11 00:00:00+00","192","","Human","Arson/incendiarism","","","","","1","B","35.79805555","-119.365","MISSING/NOT SPECIFIED","CA","","",""
"-119.018876369","36.203883844","1090032","1328725","CDF_1997_56_2234_113         ","NONFED","ST-CACDF","ST/C&L","USCATUU","Tulare Unit","CATUU","Tulare Unit","","113         ","","MERRITT                  ","","","","","","1997","1997/07/11 00:00:00+00","192","","Human","Arson/incendiarism","","","","","2","B","36.20388888","-119.01888888","MISSING/NOT SPECIFIED","CA","","",""
"-119.018043044","36.159994969","1090033","1328726","CDF_1997_56_2234_11302       ","NONFED","ST-CACDF","ST/C&L","USCATUU","Tulare Unit","CATUU","Tulare Unit","","11302       ","","HARRIS                   ","","","","","","1997","1997/07/12 00:00:00+00","193","","Human","Debris and open burning","","","","","1","B","36.16","-119.01805555","MISSING/NOT SPECIFIED","CA","","",""
"-119.08998747","36.274994962","1090034","1328727","CDF_1997_56_2234_115         ","NONFED","ST-CACDF","ST/C&L","USCATUU","Tulare Unit","CATUU","Tulare Unit","","115         ","","GILL RANCH #2            ","","","","","","1997","1997/07/12 00:00:00+00","193","","Human","Arson/incendiarism","","","","","2","B","36.275","-119.09","MISSING/NOT SPECIFIED","CA","","",""
"-119.036931926","36.203050515","1090035","1328728","CDF_1997_56_2234_11300       ","NONFED","ST-CACDF","ST/C&L","USCATUU","Tulare Unit","CATUU","Tulare Unit","","11300       ","","GLICK                    ","","","","","","1997","1997/07/12 00:00:00+00","193","","Human","Arson/incendiarism","","","","","0.1","A","36.20305555","-119.03694444","MISSING/NOT SPECIFIED","CA","","",""
"-119.071931922","36.188883849","1090036","1328729","CDF_1997_56_2234_11354       ","NONFED","ST-CACDF","ST/C&L","USCATUU","Tulare Unit","CATUU","Tulare Unit","","11354       ","","SANDERS                  ","","","","","","1997","1997/07/17 00:00:00+00","198","","Human","Arson/incendiarism","","","","","1","B","36.18888888","-119.07194444","MISSING/NOT SPECIFIED","CA","","",""
"-119.061098604","36.088050529","1090037","1328730","CDF_1997_56_2234_11362       ","NONFED","ST-CACDF","ST/C&L","USCATUU","Tulare Unit","CATUU","Tulare Unit","","11362       ","","BELTRAN                  ","","","","","","1997","1997/07/18 00:00:00+00","199","","Human","Smoking","","","","","0.5","B","36.08805555","-119.06111111","MISSING/NOT SPECIFIED","CA","","",""
"-119.454987443","35.941939459","1090038","1328731","CDF_1997_56_2234_11363       ","NONFED","ST-CACDF","ST/C&L","USCATUU","Tulare Unit","CATUU","Tulare Unit","","11363       ","","GRASS                    ","","","","","","1997","1997/07/18 00:00:00+00","199","","Human","Missing data/not specified/undetermined","","","","","242","D","35.94194444","-119.455","MISSING/NOT SPECIFIED","CA","","",""
"-119.403042939","36.568050503","1090039","1328732","CDF_1997_56_2234_11365       ","NONFED","ST-CACDF","ST/C&L","USCATUU","Tulare Unit","CATUU","Tulare Unit","","11365       ","","MORALES                  ","","","","","","1997","1997/07/19 00:00:00+00","200","","Human","Missing data/not specified/undetermined","","","","","1","B","36.56805555","-119.40305555","MISSING/NOT SPECIFIED","CA","","",""
"-119.473042976","36.086939445","1090040","1328733","CDF_1997_56_2234_11371       ","NONFED","ST-CACDF","ST/C&L","USCATUU","Tulare Unit","CATUU","Tulare Unit","","11371       ","","BOSWEL                   ","","","","","","1997","1997/07/20 00:00:00+00","201","","Human","Equipment and vehicle use","","","","","1","B","36.08694444","-119.47305555","MISSING/NOT SPECIFIED","CA","","",""
"-119.198043002","36.276106079","1090041","1328734","CDF_1997_56_2234_122         ","NONFED","ST-CACDF","ST/C&L","USCATUU","Tulare Unit","CATUU","Tulare Unit","","122         ","","GILL                     ","","","","","","1997","1997/07/20 00:00:00+00","201","","Human","Arson/incendiarism","","","","","2","B","36.27611111","-119.19805555","MISSING/NOT SPECIFIED","CA","","",""
"-119.483042938","36.45193941","1090042","1328735","CDF_1997_56_2234_11374       ","NONFED","ST-CACDF","ST/C&L","USCATUU","Tulare Unit","CATUU","Tulare Unit","","11374       ","","STATE OF CA #45          ","","","","","","1997","1997/07/20 00:00:00+00","201","","Human","Equipment and vehicle use","","","","","0.2","A","36.45194444","-119.48305555","MISSING/NOT SPECIFIED","CA","","",""
"-119.018043041","36.188883846","1090043","1328737","CDF_1997_56_2234_121         ","NONFED","ST-CACDF","ST/C&L","USCATUU","Tulare Unit","CATUU","Tulare Unit","","121         ","","GLASS ROCK               ","","","","","","1997","1997/07/20 00:00:00+00","201","","Human","Arson/incendiarism","","","","","1","B","36.18888888","-119.01805555","MISSING/NOT SPECIFIED","CA","","",""
"-119.114987496","35.971939434","1090044","1328738","CDF_1997_56_2234_11378       ","NONFED","ST-CACDF","ST/C&L","USCATUU","Tulare Unit","CATUU","Tulare Unit","","11378       ","","TULE DIST.               ","","","","","","1997","1997/07/20 00:00:00+00","201","","Human","Missing data/not specified/undetermined","","","","","0.1","A","35.97194444","-119.115","MISSING/NOT SPECIFIED","CA","","",""
"-118.81498753","36.128883838","1090045","1328739","CDF_1997_56_2234_126         ","NONFED","ST-CACDF","ST/C&L","USCATUU","Tulare Unit","CATUU","Tulare Unit","","126         ","","OWEN                     ","","","","","","1997","1997/07/21 00:00:00+00","202","","Human","Equipment and vehicle use","","","","","0.3","B","36.12888888","-118.815","MISSING/NOT SPECIFIED","CA","","",""
"-118.81498753","36.128883838","1090046","1328740","CDF_1997_56_2234_124         ","NONFED","ST-CACDF","ST/C&L","USCATUU","Tulare Unit","CATUU","Tulare Unit","","124         ","","SCHOOL                   ","","","","","","1997","1997/07/21 00:00:00+00","202","","Human","Equipment and vehicle use","","","","","500","E","36.12888888","-118.815","MISSING/NOT SPECIFIED","CA","","",""
"-119.098042995","36.506939379","1090047","1328741","CDF_1997_56_2234_130         ","NONFED","ST-CACDF","ST/C&L","USCATUU","Tulare Unit","CATUU","Tulare Unit","","130         ","","GOMES                    ","","","","","","1997","1997/07/26 00:00:00+00","207","","Human","Arson/incendiarism","","","","","1","B","36.50694444","-119.09805555","MISSING/NOT SPECIFIED","CA","","",""
"-119.294987411","36.523050501","1090048","1328742","CDF_1997_56_2234_11417       ","NONFED","ST-CACDF","ST/C&L","USCATUU","Tulare Unit","CATUU","Tulare Unit","","11417       ","","PALM                     ","","","","","","1997","1997/07/26 00:00:00+00","207","","Human","Arson/incendiarism","","","","","0.1","A","36.52305555","-119.295","MISSING/NOT SPECIFIED","CA","","",""
"-119.293876355","35.884995014","1090049","1328743","CDF_1997_56_2234_11423       ","NONFED","ST-CACDF","ST/C&L","USCATUU","Tulare Unit","CATUU","Tulare Unit","","11423       ","","STATE OF CALIF. #50      ","","","","","","1997","1997/07/26 00:00:00+00","207","","Human","Equipment and vehicle use","","","","","0.2","A","35.885","-119.29388888","MISSING/NOT SPECIFIED","CA","","",""
"-119.223042969","36.566106052","1090050","1328744","CDF_1997_56_2234_129         ","NONFED","ST-CACDF","ST/C&L","USCATUU","Tulare Unit","CATUU","Tulare Unit","","129         ","","LEDBETTER                ","","","","","","1997","1997/07/26 00:00:00+00","207","","Human","Arson/incendiarism","","","","","0.5","B","36.56611111","-119.22305555","MISSING/NOT SPECIFIED","CA","","",""
"-119.231098536","36.478883831","1090051","1328745","CDF_1997_56_2234_11424       ","NONFED","ST-CACDF","ST/C&L","USCATUU","Tulare Unit","CATUU","Tulare Unit","","11424       ","","SEVILLE #8               ","","","","","","1997","1997/07/27 00:00:00+00","208","","Human","Arson/incendiarism","","","","","5","B","36.47888888","-119.23111111","MISSING/NOT SPECIFIED","CA","","",""
"-119.411931851","36.334994977","1090052","1328746","CDF_1997_56_2234_11427       ","NONFED","ST-CACDF","ST/C&L","USCATUU","Tulare Unit","CATUU","Tulare Unit","","11427       ","","MAPLE                    ","","","","","","1997","1997/07/27 00:00:00+00","208","","Human","Equipment and vehicle use","","","","","0.1","A","36.335","-119.41194444","MISSING/NOT SPECIFIED","CA","","",""
"-118.989987508","36.058883857","1090053","1328747","CDF_1997_56_2234_11429       ","NONFED","ST-CACDF","ST/C&L","USCATUU","Tulare Unit","CATUU","Tulare Unit","","11429       ","","SLOUGH                   ","","","","","","1997","1997/07/27 00:00:00+00","208","","Human","Arson/incendiarism","","","","","0.1","A","36.05888888","-118.99","MISSING/NOT SPECIFIED","CA","","",""
"-119.088876337","36.406106058","1090054","1328748","CDF_1997_56_2234_132         ","NONFED","ST-CACDF","ST/C&L","USCATUU","Tulare Unit","CATUU","Tulare Unit","","132         ","","STATE OF CA. #51         ","","","","","","1997","1997/07/29 00:00:00+00","210","","Human","Equipment and vehicle use","","","","","0.1","A","36.40611111","-119.08888888","MISSING/NOT SPECIFIED","CA","","",""
"-119.511098487","36.511106076","1090055","1328749","CDF_1997_56_2234_11441       ","NONFED","ST-CACDF","ST/C&L","USCATUU","Tulare Unit","CATUU","Tulare Unit","","11441       ","","WARD                     ","","","","","","1997","1997/07/29 00:00:00+00","210","","Human","Misuse of fire by a minor","Minor","","","","1","B","36.51111111","-119.51111111","MISSING/NOT SPECIFIED","CA","","",""
"-119.276931854","36.523050499","1090056","1328750","CDF_1997_56_2234_11499       ","NONFED","ST-CACDF","ST/C&L","USCATUU","Tulare Unit","CATUU","Tulare Unit","","11499       ","","RIVERA                   ","","","","","","1997","1997/08/07 00:00:00+00","219","","Human","Equipment and vehicle use","","","","","4","B","36.52305555","-119.27694444","MISSING/NOT SPECIFIED","CA","","",""
"-119.161098564","36.318883842","1090057","1328751","CDF_1997_56_2234_11506       ","NONFED","ST-CACDF","ST/C&L","USCATUU","Tulare Unit","CATUU","Tulare Unit","","11506       ","","ORANGE                   ","","","","","","1997","1997/08/08 00:00:00+00","220","","Human","Arson/incendiarism","","","","","20","C","36.31888888","-119.16111111","MISSING/NOT SPECIFIED","CA","","",""
"-119.141931881","36.478050495","1090058","1328752","CDF_1997_56_2234_141         ","NONFED","ST-CACDF","ST/C&L","USCATUU","Tulare Unit","CATUU","Tulare Unit","","141         ","","MUD                      ","","","","","","1997","1997/08/08 00:00:00+00","220","","Human","Smoking","","","","","60","C","36.47805555","-119.14194444","MISSING/NOT SPECIFIED","CA","","",""
"-118.778876443","35.854994984","1090059","1328753","CDF_1997_56_2234_142         ","NONFED","ST-CACDF","ST/C&L","USCATUU","Tulare Unit","CATUU","Tulare Unit","","142         ","","HOT SPRINGS              ","","","","","","1997","1997/08/08 00:00:00+00","220","","Human","Missing data/not specified/undetermined","","","","","13","C","35.855","-118.77888888","MISSING/NOT SPECIFIED","CA","","",""
"-119.383876325","36.043883884","1090060","1328754","CDF_1997_56_2234_11510       ","NONFED","ST-CACDF","ST/C&L","USCATUU","Tulare Unit","CATUU","Tulare Unit","","11510       ","","BARCELLOS                ","","","","","","1997","1997/08/09 00:00:00+00","221","","Human","Smoking","","","","","0.1","A","36.04388888","-119.38388888","MISSING/NOT SPECIFIED","CA","","",""
"-119.528876256","36.496106079","1090061","1328755","CDF_1997_56_2234_11519       ","NONFED","ST-CACDF","ST/C&L","USCATUU","Tulare Unit","CATUU","Tulare Unit","","11519       ","","SPRR 36                  ","","","","","","1997","1997/08/12 00:00:00+00","224","","Human","Equipment and vehicle use","","","","","0.3","B","36.49611111","-119.52888888","MISSING/NOT SPECIFIED","CA","","",""
"-119.196931878","36.421106064","1090062","1328756","CDF_1997_56_2234_11529       ","NONFED","ST-CACDF","ST/C&L","USCATUU","Tulare Unit","CATUU","Tulare Unit","","11529       ","","HATAKEDA                 ","","","","","","1997","1997/08/12 00:00:00+00","224","","Human","Arson/incendiarism","","","","","1","B","36.42111111","-119.19694444","MISSING/NOT SPECIFIED","CA","","",""
"-119.178876327","36.363050509","1090063","1328757","CDF_1997_56_2234_11528       ","NONFED","ST-CACDF","ST/C&L","USCATUU","Tulare Unit","CATUU","Tulare Unit","","11528       ","","TULARE CO. #127          ","","","","","","1997","1997/08/13 00:00:00+00","225","","Human","Arson/incendiarism","","","","","0.1","A","36.36305555","-119.17888888","MISSING/NOT SPECIFIED","CA","","",""
"-119.411931851","36.334994977","1090064","1328758","CDF_1997_56_2234_11555       ","NONFED","ST-CACDF","ST/C&L","USCATUU","Tulare Unit","CATUU","Tulare Unit","","11555       ","","IVEX                     ","","","","","","1997","1997/08/15 00:00:00+00","227","","Human","Missing data/not specified/undetermined","","","","","0.1","A","36.335","-119.41194444","MISSING/NOT SPECIFIED","CA","","",""
"-119.499987382","36.481106078","1090065","1328759","CDF_1997_56_2234_11637       ","NONFED","ST-CACDF","ST/C&L","USCATUU","Tulare Unit","CATUU","Tulare Unit","","11637       ","","SP RR #38                ","","","","","","1997","1997/08/29 00:00:00+00","241","","Human","Arson/incendiarism","","","","","0.3","B","36.48111111","-119.5","MISSING/NOT SPECIFIED","CA","","",""
"-119.043876389","35.956939431","1090066","1328760","CDF_1997_56_2234_11639       ","NONFED","ST-CACDF","ST/C&L","USCATUU","Tulare Unit","CATUU","Tulare Unit","","11639       ","","CHURCH                   ","","","","","","1997","1997/08/30 00:00:00+00","242","","Human","Missing data/not specified/undetermined","","","","","0.1","A","35.95694444","-119.04388888","MISSING/NOT SPECIFIED","CA","","",""
"-119.473042993","35.913050573","1090067","1328761","CDF_1997_56_2234_11650       ","NONFED","ST-CACDF","ST/C&L","USCATUU","Tulare Unit","CATUU","Tulare Unit","","11650       ","","PG&E # 3                 ","","","","","","1997","1997/09/01 00:00:00+00","244","","Human","Equipment and vehicle use","","","","","1","B","35.91305555","-119.47305555","MISSING/NOT SPECIFIED","CA","","",""
"-119.078876374","36.058883863","1090068","1328762","CDF_1997_56_2234_11653       ","NONFED","ST-CACDF","ST/C&L","USCATUU","Tulare Unit","CATUU","Tulare Unit","","11653       ","","RIVERBOTTOM #9           ","","","","","","1997","1997/09/01 00:00:00+00","244","","Human","Arson/incendiarism","","","","","0.1","A","36.05888888","-119.07888888","MISSING/NOT SPECIFIED","CA","","",""
"-118.883876403","36.086939407","1090069","1328763","CDF_1997_56_2234_163         ","NONFED","ST-CACDF","ST/C&L","USCATUU","Tulare Unit","CATUU","Tulare Unit","","163         ","","BLACK                    ","","","","","","1997","1997/09/03 00:00:00+00","246","","Natural","Natural","","","","","3","B","36.08694444","-118.88388888","MISSING/NOT SPECIFIED","CA","","",""
"-119.078876389","35.898883879","1090070","1328764","CDF_1997_56_2234_11675       ","NONFED","ST-CACDF","ST/C&L","USCATUU","Tulare Unit","CATUU","Tulare Unit","","11675       ","","TULARE COUNTY #133       ","","","","","","1997","1997/09/04 00:00:00+00","247","","Human","Equipment and vehicle use","","","","","2","B","35.89888888","-119.07888888","MISSING/NOT SPECIFIED","CA","","",""
"-118.67998754","36.259994936","1090071","1328765","CDF_1997_56_2234_165         ","NONFED","ST-CACDF","ST/C&L","USCATUU","Tulare Unit","CATUU","Tulare Unit","","165         ","","LIGHTNING-7              ","","","","","","1997","1997/09/04 00:00:00+00","247","","Natural","Natural","","","","","2","B","36.26","-118.68","MISSING/NOT SPECIFIED","CA","","",""
"-119.126098576","36.261106075","1090072","1328766","CDF_1997_56_2234_11679       ","NONFED","ST-CACDF","ST/C&L","USCATUU","Tulare Unit","CATUU","Tulare Unit","","11679       ","","S.J.V.R. #11             ","","","","","","1997","1997/09/05 00:00:00+00","248","","Human","Missing data/not specified/undetermined","","","","","0.2","A","36.26111111","-119.12611111","MISSING/NOT SPECIFIED","CA","","",""
"-119.043876391","35.943050542","1090073","1328767","CDF_1997_56_2234_11690       ","NONFED","ST-CACDF","ST/C&L","USCATUU","Tulare Unit","CATUU","Tulare Unit","","11690       ","","STATE OF CALIF. #61      ","","","","","","1997","1997/09/06 00:00:00+00","249","","Human","Equipment and vehicle use","","","","","0.1","A","35.94305555","-119.04388888","MISSING/NOT SPECIFIED","CA","","",""
"-118.954987527","35.928050538","1090074","1328768","CDF_1997_56_2234_11693       ","NONFED","ST-CACDF","ST/C&L","USCATUU","Tulare Unit","CATUU","Tulare Unit","","11693       ","","MULLER                   ","","","","","","1997","1997/09/06 00:00:00+00","249","","Human","Missing data/not specified/undetermined","","","","","0.3","B","35.92805555","-118.955","MISSING/NOT SPECIFIED","CA","","",""
"-119.286098535","36.406939401","1090075","1328769","CDF_1997_56_2234_11716       ","NONFED","ST-CACDF","ST/C&L","USCATUU","Tulare Unit","CATUU","Tulare Unit","","11716       ","","SPRR #39                 ","","","","","","1997","1997/09/09 00:00:00+00","252","","Human","Missing data/not specified/undetermined","","","","","1","B","36.40694444","-119.28611111","MISSING/NOT SPECIFIED","CA","","",""
"-119.08998747","36.274994962","1090076","1328770","CDF_1997_56_2234_114         ","NONFED","ST-CACDF","ST/C&L","USCATUU","Tulare Unit","CATUU","Tulare Unit","","114         ","","GIL RANCH                ","","","","","","1997","1997/07/12 00:00:00+00","193","","Human","Arson/incendiarism","","","","","0.5","B","36.275","-119.09","MISSING/NOT SPECIFIED","CA","","",""
"-119.43693189","35.898883902","1090077","1328771","CDF_1997_56_2234_11303       ","NONFED","ST-CACDF","ST/C&L","USCATUU","Tulare Unit","CATUU","Tulare Unit","","11303       ","","TULARE COUNTY #117       ","","","","","","1997","1997/07/13 00:00:00+00","194","","Human","Arson/incendiarism","","","","","0.2","A","35.89888888","-119.43694444","MISSING/NOT SPECIFIED","CA","","",""
"-119.436931892","35.883883903","1090078","1328772","CDF_1997_56_2234_11305       ","NONFED","ST-CACDF","ST/C&L","USCATUU","Tulare Unit","CATUU","Tulare Unit","","11305       ","","TULARE CO # 118          ","","","","","","1997","1997/07/13 00:00:00+00","194","","Human","Arson/incendiarism","","","","","0.1","A","35.88388888","-119.43694444","MISSING/NOT SPECIFIED","CA","","",""
"-119.143876338","36.303883842","1090079","1328773","CDF_1997_56_2234_11313       ","NONFED","ST-CACDF","ST/C&L","USCATUU","Tulare Unit","CATUU","Tulare Unit","","11313       ","","EXETER CITY #25          ","","","","","","1997","1997/07/14 00:00:00+00","195","","Human","Equipment and vehicle use","","","","","1","B","36.30388888","-119.14388888","MISSING/NOT SPECIFIED","CA","","",""
"-119.124987476","36.159994975","1090080","1328774","CDF_1997_56_2234_11337       ","NONFED","ST-CACDF","ST/C&L","USCATUU","Tulare Unit","CATUU","Tulare Unit","","11337       ","","QUINTERO                 ","","","","","","1997","1997/07/15 00:00:00+00","196","","Human","Arson/incendiarism","","","","","10","C","36.16","-119.125","MISSING/NOT SPECIFIED","CA","","",""
"-119.133043043","35.971939435","1090081","1328775","CDF_1997_56_2234_11329       ","NONFED","ST-CACDF","ST/C&L","USCATUU","Tulare Unit","CATUU","Tulare Unit","","11329       ","","DEER CREEK               ","","","","","","1997","1997/07/15 00:00:00+00","196","","Human","Equipment and vehicle use","","","","","0.3","B","35.97194444","-119.13305555","MISSING/NOT SPECIFIED","CA","","",""
"-119.018876369","36.203883844","1090082","1328776","CDF_1997_56_2234_118         ","NONFED","ST-CACDF","ST/C&L","USCATUU","Tulare Unit","CATUU","Tulare Unit","","118         ","","MERRITT                  ","","","","","","1997","1997/07/15 00:00:00+00","196","","Human","Arson/incendiarism","","","","","2","B","36.20388888","-119.01888888","MISSING/NOT SPECIFIED","CA","","",""
"-118.989987521","35.92805054","1090083","1328777","CDF_1997_56_2234_11328       ","NONFED","ST-CACDF","ST/C&L","USCATUU","Tulare Unit","CATUU","Tulare Unit","","11328       ","","TRUST                    ","","","","","","1997","1997/07/15 00:00:00+00","196","","Human","Arson/incendiarism","","","","","11","C","35.92805555","-118.99","MISSING/NOT SPECIFIED","CA","","",""
"-119.311931918","35.826939461","1090084","1328778","CDF_1997_56_2234_11385       ","NONFED","ST-CACDF","ST/C&L","USCATUU","Tulare Unit","CATUU","Tulare Unit","","11385       ","","MILLIKIN                 ","","","","","","1997","1997/07/21 00:00:00+00","202","","Human","Missing data/not specified/undetermined","","","","","3","B","35.82694444","-119.31194444","MISSING/NOT SPECIFIED","CA","","",""
"-118.989987508","36.058883857","1090085","1328780","CDF_1997_56_2234_11396       ","NONFED","ST-CACDF","ST/C&L","USCATUU","Tulare Unit","CATUU","Tulare Unit","","11396       ","","RIVER BOTTOM #8          ","","","","","","1997","1997/07/22 00:00:00+00","203","","Human","Arson/incendiarism","","","","","2","B","36.05888888","-118.99","MISSING/NOT SPECIFIED","CA","","",""
"-119.008043052","36.088050525","1090086","1328781","CDF_1997_56_2234_11399       ","NONFED","ST-CACDF","ST/C&L","USCATUU","Tulare Unit","CATUU","Tulare Unit","","11399       ","","MULLBERRY                ","","","","","","1997","1997/07/23 00:00:00+00","204","","Human","Arson/incendiarism","","","","","0.5","B","36.08805555","-119.00805555","MISSING/NOT SPECIFIED","CA","","",""
"-119.258876294","36.551939385","1090087","1328782","CDF_1997_56_2234_11414       ","NONFED","ST-CACDF","ST/C&L","USCATUU","Tulare Unit","CATUU","Tulare Unit","","11414       ","","SANTA FE #4              ","","","","","","1997","1997/07/25 00:00:00+00","206","","Human","Arson/incendiarism","","","","","0.2","A","36.55194444","-119.25888888","MISSING/NOT SPECIFIED","CA","","",""
"-119.241098524","36.579994941","1090088","1328783","CDF_1997_56_2234_127         ","NONFED","ST-CACDF","ST/C&L","USCATUU","Tulare Unit","CATUU","Tulare Unit","","127         ","","FRASER                   ","","","","","","1997","1997/07/26 00:00:00+00","207","","Human","Arson/incendiarism","","","","","4","B","36.58","-119.24111111","MISSING/NOT SPECIFIED","CA","","",""
"-119.241098526","36.566106053","1090089","1328784","CDF_1997_56_2234_128         ","NONFED","ST-CACDF","ST/C&L","USCATUU","Tulare Unit","CATUU","Tulare Unit","","128         ","","CANAL                    ","","","","","","1997","1997/07/26 00:00:00+00","207","","Human","Arson/incendiarism","","","","","0.3","B","36.56611111","-119.24111111","MISSING/NOT SPECIFIED","CA","","",""
"-119.393876294","36.334994976","1090090","1328785","CDF_1997_56_2234_11425       ","NONFED","ST-CACDF","ST/C&L","USCATUU","Tulare Unit","CATUU","Tulare Unit","","11425       ","","STATE OF CAL #49         ","","","","","","1997","1997/07/26 00:00:00+00","207","","Human","Missing data/not specified/undetermined","","","","","0.5","B","36.335","-119.39388888","MISSING/NOT SPECIFIED","CA","","",""
"-118.804987528","36.171939393","1090091","1328786","CDF_1997_56_2234_133         ","NONFED","ST-CACDF","ST/C&L","USCATUU","Tulare Unit","CATUU","Tulare Unit","","133         ","","GREEN                    ","","","","","","1997","1997/07/31 00:00:00+00","212","","Human","Equipment and vehicle use","","","","","0.3","B","36.17194444","-118.805","MISSING/NOT SPECIFIED","CA","","",""
"-119.276098588","35.884995013","1090092","1328787","CDF_1997_56_2234_11452       ","NONFED","ST-CACDF","ST/C&L","USCATUU","Tulare Unit","CATUU","Tulare Unit","","11452       ","","STATE OF CALIF #53       ","","","","","","1997","1997/07/31 00:00:00+00","212","","Human","Missing data/not specified/undetermined","","","","","0.5","B","35.885","-119.27611111","MISSING/NOT SPECIFIED","CA","","",""
"-119.108876351","36.231939407","1090093","1328788","CDF_1997_56_2234_11464       ","NONFED","ST-CACDF","ST/C&L","USCATUU","Tulare Unit","CATUU","Tulare Unit","","11464       ","","CAL VALLEY               ","","","","","","1997","1997/08/01 00:00:00+00","213","","Human","Equipment and vehicle use","","","","","1","B","36.23194444","-119.10888888","MISSING/NOT SPECIFIED","CA","","",""
"-119.073043029","36.218050516","1090094","1328789","CDF_1997_56_2234_11466       ","NONFED","ST-CACDF","ST/C&L","USCATUU","Tulare Unit","CATUU","Tulare Unit","","11466       ","","FRIANT                   ","","","","","","1997","1997/08/02 00:00:00+00","214","","Human","Arson/incendiarism","","","","","1","B","36.21805555","-119.07305555","MISSING/NOT SPECIFIED","CA","","",""
"-119.384987395","36.538883835","1090095","1328790","CDF_1997_56_2234_11469       ","NONFED","ST-CACDF","ST/C&L","USCATUU","Tulare Unit","CATUU","Tulare Unit","","11469       ","","DINUBA                   ","","","","","","1997","1997/08/02 00:00:00+00","214","","Human","Equipment and vehicle use","","","","","7","B","36.53888888","-119.385","MISSING/NOT SPECIFIED","CA","","",""
"-119.454987443","35.941939459","1090096","1328791","CDF_1997_56_2234_11480       ","NONFED","ST-CACDF","ST/C&L","USCATUU","Tulare Unit","CATUU","Tulare Unit","","11480       ","","GOLDEN                   ","","","","","","1997","1997/08/03 00:00:00+00","215","","Human","Equipment and vehicle use","","","","","10","C","35.94194444","-119.455","MISSING/NOT SPECIFIED","CA","","",""
"-118.91804307","36.058883852","1090097","1328792","CDF_1997_56_2234_137         ","NONFED","ST-CACDF","ST/C&L","USCATUU","Tulare Unit","CATUU","Tulare Unit","","137         ","","SUCCESS                  ","","","","","","1997","1997/08/04 00:00:00+00","216","","Human","Equipment and vehicle use","","","","","7","B","36.05888888","-118.91805555","MISSING/NOT SPECIFIED","CA","","",""
"-119.091098586","36.216939408","1090098","1328793","CDF_1997_56_2234_11491       ","NONFED","ST-CACDF","ST/C&L","USCATUU","Tulare Unit","CATUU","Tulare Unit","","11491       ","","CHAMPION                 ","","","","","","1997","1997/08/05 00:00:00+00","217","","Human","Equipment and vehicle use","","","","","0.1","A","36.21694444","-119.09111111","MISSING/NOT SPECIFIED","CA","","",""
"-119.114987486","36.073050534","1090099","1328794","CDF_1997_56_2234_11490       ","NONFED","ST-CACDF","ST/C&L","USCATUU","Tulare Unit","CATUU","Tulare Unit","","11490       ","","TULARE COUNTY 124        ","","","","","","1997","1997/08/05 00:00:00+00","217","","Human","Arson/incendiarism","","","","","0.1","A","36.07305555","-119.115","MISSING/NOT SPECIFIED","CA","","",""
"-119.293876348","35.956939447","1090100","1328795","CDF_1997_56_2234_11492       ","NONFED","ST-CACDF","ST/C&L","USCATUU","Tulare Unit","CATUU","Tulare Unit","","11492       ","","STATE OF CALIF #55       ","","","","","","1997","1997/08/05 00:00:00+00","217","","Human","Missing data/not specified/undetermined","","","","","0.5","B","35.95694444","-119.29388888","MISSING/NOT SPECIFIED","CA","","",""
"-119.108043024","36.20305052","1090101","1328796","CDF_1997_56_2234_11582       ","NONFED","ST-CACDF","ST/C&L","USCATUU","Tulare Unit","CATUU","Tulare Unit","","11582       ","","STATE OF CA. #58         ","","","","","","1997","1997/08/20 00:00:00+00","232","","Human","Missing data/not specified/undetermined","","","","","0.1","A","36.20305555","-119.10805555","MISSING/NOT SPECIFIED","CA","","",""
"-119.108043024","36.20305052","1090102","1328797","CDF_1997_56_2234_11583       ","NONFED","ST-CACDF","ST/C&L","USCATUU","Tulare Unit","CATUU","Tulare Unit","","11583       ","","STATE OF CA. #59         ","","","","","","1997","1997/08/20 00:00:00+00","232","","Human","Missing data/not specified/undetermined","","","","","0.1","A","36.20305555","-119.10805555","MISSING/NOT SPECIFIED","CA","","",""
"-119.108043024","36.20305052","1090103","1328798","CDF_1997_56_2234_11581       ","NONFED","ST-CACDF","ST/C&L","USCATUU","Tulare Unit","CATUU","Tulare Unit","","11581       ","","STATE OF CA. #57         ","","","","","","1997","1997/08/20 00:00:00+00","232","","Human","Missing data/not specified/undetermined","","","","","0.1","A","36.20305555","-119.10805555","MISSING/NOT SPECIFIED","CA","","",""
"-119.454987443","35.941939459","1090104","1328799","CDF_1997_56_2234_11587       ","NONFED","ST-CACDF","ST/C&L","USCATUU","Tulare Unit","CATUU","Tulare Unit","","11587       ","","GOLDEN                   ","","","","","","1997","1997/08/21 00:00:00+00","233","","Human","Equipment and vehicle use","","","","","40","C","35.94194444","-119.455","MISSING/NOT SPECIFIED","CA","","",""
"-119.258043007","36.131106097","1090105","1328800","CDF_1997_56_2234_11600       ","NONFED","ST-CACDF","ST/C&L","USCATUU","Tulare Unit","CATUU","Tulare Unit","","11600       ","","TAPAL                    ","","","","","","1997","1997/08/23 00:00:00+00","235","","Human","Equipment and vehicle use","","","","","3","B","36.13111111","-119.25805555","MISSING/NOT SPECIFIED","CA","","",""
"-119.364987472","35.798050577","1090106","1328801","CDF_1997_56_2234_11605       ","NONFED","ST-CACDF","ST/C&L","USCATUU","Tulare Unit","CATUU","Tulare Unit","","11605       ","","MAICAS                   ","","","","","","1997","1997/08/23 00:00:00+00","235","","Human","Missing data/not specified/undetermined","","","","","1","B","35.79805555","-119.365","MISSING/NOT SPECIFIED","CA","","",""
"-119.276931851","36.551939387","1090107","1328802","CDF_1997_56_2234_11618       ","NONFED","ST-CACDF","ST/C&L","USCATUU","Tulare Unit","CATUU","Tulare Unit","","11618       ","","SAND                     ","","","","","","1997","1997/08/25 00:00:00+00","237","","Human","Missing data/not specified/undetermined","","","","","0.3","B","36.55194444","-119.27694444","MISSING/NOT SPECIFIED","CA","","",""
"-119.29498741","36.538050499","1090108","1328803","CDF_1997_56_2234_11627       ","NONFED","ST-CACDF","ST/C&L","USCATUU","Tulare Unit","CATUU","Tulare Unit","","11627       ","","EDWARD                   ","","","","","","1997","1997/08/26 00:00:00+00","238","","Human","Missing data/not specified/undetermined","","","","","10","C","36.53805555","-119.295","MISSING/NOT SPECIFIED","CA","","",""
"-119.231931869","36.449994954","1090109","1328804","CDF_1997_56_2234_11631       ","NONFED","ST-CACDF","ST/C&L","USCATUU","Tulare Unit","CATUU","Tulare Unit","","11631       ","","REYNOSO                  ","","","","","","1997","1997/08/28 00:00:00+00","240","","Human","Debris and open burning","","","","","42","C","36.45","-119.23194444","MISSING/NOT SPECIFIED","CA","","",""
"-118.989987508","36.058883857","1090110","1328805","CDF_1997_56_2234_11721       ","NONFED","ST-CACDF","ST/C&L","USCATUU","Tulare Unit","CATUU","Tulare Unit","","11721       ","","SANCHEZ                  ","","","","","","1997","1997/09/10 00:00:00+00","253","","Human","Misuse of fire by a minor","Minor","","","","1","B","36.05888888","-118.99","MISSING/NOT SPECIFIED","CA","","",""
"-119.483042938","36.45193941","1090111","1328806","CDF_1997_56_2234_11724       ","NONFED","ST-CACDF","ST/C&L","USCATUU","Tulare Unit","CATUU","Tulare Unit","","11724       ","","STATE OF CALIF 62        ","","","","","","1997","1997/09/11 00:00:00+00","254","","Human","Debris and open burning","","","","","0.1","A","36.45194444","-119.48305555","MISSING/NOT SPECIFIED","CA","","",""
"-119.483042938","36.45193941","1090112","1328807","CDF_1997_56_2234_11739       ","NONFED","ST-CACDF","ST/C&L","USCATUU","Tulare Unit","CATUU","Tulare Unit","","11739       ","","STATE OF CA# 63          ","","","","","","1997","1997/09/14 00:00:00+00","257","","Human","Equipment and vehicle use","","","","","0.3","B","36.45194444","-119.48305555","MISSING/NOT SPECIFIED","CA","","",""
"-119.481931825","36.481106077","1090113","1328808","CDF_1997_56_2234_11747       ","NONFED","ST-CACDF","ST/C&L","USCATUU","Tulare Unit","CATUU","Tulare Unit","","11747       ","","SWANSON                  ","","","","","","1997","1997/09/15 00:00:00+00","258","","Human","Missing data/not specified/undetermined","","","","","2.5","B","36.48111111","-119.48194444","MISSING/NOT SPECIFIED","CA","","",""
"-119.078876369","36.101939418","1090114","1328809","CDF_1997_56_2234_11776       ","NONFED","ST-CACDF","ST/C&L","USCATUU","Tulare Unit","CATUU","Tulare Unit","","11776       ","","FALLERT #2               ","","","","","","1997","1997/09/19 00:00:00+00","262","","Human","Equipment and vehicle use","","","","","3","B","36.10194444","-119.07888888","MISSING/NOT SPECIFIED","CA","","",""
"-119.078876369","36.101939418","1090115","1328810","CDF_1997_56_2234_11772       ","NONFED","ST-CACDF","ST/C&L","USCATUU","Tulare Unit","CATUU","Tulare Unit","","11772       ","","FALLERT #1               ","","","","","","1997","1997/09/19 00:00:00+00","262","","Human","Equipment and vehicle use","","","","","0.1","A","36.10194444","-119.07888888","MISSING/NOT SPECIFIED","CA","","",""
"-119.49304293","36.511106075","1090116","1328811","CDF_1997_56_2234_11774       ","NONFED","ST-CACDF","ST/C&L","USCATUU","Tulare Unit","CATUU","Tulare Unit","","11774       ","","PG&E 4                   ","","","","","","1997","1997/09/19 00:00:00+00","262","","Human","Equipment and vehicle use","","","","","0.3","B","36.51111111","-119.49305555","MISSING/NOT SPECIFIED","CA","","",""
"-119.311931908","35.928050561","1090117","1328812","CDF_1997_56_2234_11773       ","NONFED","ST-CACDF","ST/C&L","USCATUU","Tulare Unit","CATUU","Tulare Unit","","11773       ","","RISI                     ","","","","","","1997","1997/09/19 00:00:00+00","262","","Human","Equipment and vehicle use","","","","","25","C","35.92805555","-119.31194444","MISSING/NOT SPECIFIED","CA","","",""
"-119.151098592","36.058883867","1090118","1328813","CDF_1997_56_2234_11853       ","NONFED","ST-CACDF","ST/C&L","USCATUU","Tulare Unit","CATUU","Tulare Unit","","11853       ","","RAMIREZ                  ","","","","","","1997","1997/09/29 00:00:00+00","272","","Human","Smoking","","","","","0.1","A","36.05888888","-119.15111111","MISSING/NOT SPECIFIED","CA","","",""
"-119.124987453","36.391939392","1090119","1328814","CDF_1997_56_2234_11874       ","NONFED","ST-CACDF","ST/C&L","USCATUU","Tulare Unit","CATUU","Tulare Unit","","11874       ","","TULARE COUNTY #147       ","","","","","","1997","1997/10/03 00:00:00+00","276","","Human","Missing data/not specified/undetermined","","","","","0.4","B","36.39194444","-119.125","MISSING/NOT SPECIFIED","CA","","",""
"-119.13304303","36.101939422","1090120","1328815","CDF_1997_56_2234_11876       ","NONFED","ST-CACDF","ST/C&L","USCATUU","Tulare Unit","CATUU","Tulare Unit","","11876       ","","RIVERBOTTOM # 11         ","","","","","","1997","1997/10/03 00:00:00+00","276","","Human","Equipment and vehicle use","","","","","10","C","36.10194444","-119.13305555","MISSING/NOT SPECIFIED","CA","","",""
"-119.29498741","36.538050499","1090121","1328816","CDF_1997_56_2234_11888       ","NONFED","ST-CACDF","ST/C&L","USCATUU","Tulare Unit","CATUU","Tulare Unit","","11888       ","","PASILLIAS                ","","","","","","1997","1997/10/05 00:00:00+00","278","","Human","Missing data/not specified/undetermined","","","","","0.1","A","36.53805555","-119.295","MISSING/NOT SPECIFIED","CA","","",""
"-119.311931894","36.073050546","1090122","1328817","CDF_1997_56_2234_12003       ","NONFED","ST-CACDF","ST/C&L","USCATUU","Tulare Unit","CATUU","Tulare Unit","","12003       ","","STATE OF CALIF.#68       ","","","","","","1997","1997/10/19 00:00:00+00","292","","Human","Smoking","","","","","0.1","A","36.07305555","-119.31194444","MISSING/NOT SPECIFIED","CA","","",""
"-119.073043029","36.218050516","1090123","1328818","CDF_1997_56_2234_12012       ","NONFED","ST-CACDF","ST/C&L","USCATUU","Tulare Unit","CATUU","Tulare Unit","","12012       ","","HART                     ","","","","","","1997","1997/10/21 00:00:00+00","294","","Human","Equipment and vehicle use","","","","","0.3","B","36.21805555","-119.07305555","MISSING/NOT SPECIFIED","CA","","",""
"-119.276098588","35.884995013","1090124","1328819","CDF_1997_56_2234_12014       ","NONFED","ST-CACDF","ST/C&L","USCATUU","Tulare Unit","CATUU","Tulare Unit","","12014       ","","S.P.R.R. #42             ","","","","","","1997","1997/10/21 00:00:00+00","294","","Human","Missing data/not specified/undetermined","","","","","0.1","A","35.885","-119.27611111","MISSING/NOT SPECIFIED","CA","","",""
"-118.758876394","36.388050478","1090125","1328820","CDF_1997_56_2234_199         ","NONFED","ST-CACDF","ST/C&L","USCATUU","Tulare Unit","CATUU","Tulare Unit","","199         ","","DENNISON                 ","","","","","","1997","1997/10/21 00:00:00+00","294","","Human","Recreation and ceremony","","","","","0.4","B","36.38805555","-118.75888888","MISSING/NOT SPECIFIED","CA","","",""
"-119.196931878","36.421106064","1090126","1328821","CDF_1997_56_2234_12026       ","NONFED","ST-CACDF","ST/C&L","USCATUU","Tulare Unit","CATUU","Tulare Unit","","12026       ","","GUNICHI                  ","","","","","","1997","1997/10/22 00:00:00+00","295","","Human","Arson/incendiarism","","","","","0.3","B","36.42111111","-119.19694444","MISSING/NOT SPECIFIED","CA","","",""
"-119.311931911","35.898883894","1090127","1328822","CDF_1997_56_2234_12029       ","NONFED","ST-CACDF","ST/C&L","USCATUU","Tulare Unit","CATUU","Tulare Unit","","12029       ","","HUMPHRIES                ","","","","","","1997","1997/10/23 00:00:00+00","296","","Human","Arson/incendiarism","","","","","2","B","35.89888888","-119.31194444","MISSING/NOT SPECIFIED","CA","","",""
"-119.114987486","36.073050534","1090128","1328823","CDF_1997_56_2234_12037       ","NONFED","ST-CACDF","ST/C&L","USCATUU","Tulare Unit","CATUU","Tulare Unit","","12037       ","","FERNANDEZ                ","","","","","","1997","1997/10/24 00:00:00+00","297","","Human","Missing data/not specified/undetermined","","","","","43700","G","36.07305555","-119.115","MISSING/NOT SPECIFIED","CA","","",""
"-119.16109856","36.363050508","1090129","1328824","CDF_1997_56_2234_12039       ","NONFED","ST-CACDF","ST/C&L","USCATUU","Tulare Unit","CATUU","Tulare Unit","","12039       ","","DEVERS                   ","","","","","","1997","1997/10/25 00:00:00+00","298","","Human","Debris and open burning","","","","","0.1","A","36.36305555","-119.16111111","MISSING/NOT SPECIFIED","CA","","",""
"-119.231098536","36.478883831","1090130","1328825","CDF_1997_56_2234_12042       ","NONFED","ST-CACDF","ST/C&L","USCATUU","Tulare Unit","CATUU","Tulare Unit","","12042       ","","COUNTY #154              ","","","","","","1997","1997/10/25 00:00:00+00","298","","Human","Arson/incendiarism","","","","","1","B","36.47888888","-119.23111111","MISSING/NOT SPECIFIED","CA","","",""
"-119.231098536","36.478883831","1090131","1328826","CDF_1997_56_2234_12040       ","NONFED","ST-CACDF","ST/C&L","USCATUU","Tulare Unit","CATUU","Tulare Unit","","12040       ","","COUNTY #153              ","","","","","","1997","1997/10/25 00:00:00+00","298","","Human","Arson/incendiarism","","","","","0.1","A","36.47888888","-119.23111111","MISSING/NOT SPECIFIED","CA","","",""
"-119.043876386","35.986106098","1090132","1328827","CDF_1997_56_2234_12044       ","NONFED","ST-CACDF","ST/C&L","USCATUU","Tulare Unit","CATUU","Tulare Unit","","12044       ","","TULARE COUNTY #155       ","","","","","","1997","1997/10/26 00:00:00+00","299","","Human","Missing data/not specified/undetermined","","","","","0.1","A","35.98611111","-119.04388888","MISSING/NOT SPECIFIED","CA","","",""
"-119.374987431","36.203883867","1090133","1328828","CDF_1997_56_2234_12065       ","NONFED","ST-CACDF","ST/C&L","USCATUU","Tulare Unit","CATUU","Tulare Unit","","12065       ","","APCD #178                ","","","","","","1997","1997/10/30 00:00:00+00","303","","Human","Missing data/not specified/undetermined","","","","","0.3","B","36.20388888","-119.375","MISSING/NOT SPECIFIED","CA","","",""
"-119.034987469","36.376106058","1090134","1328829","CDF_1997_56_2234_204         ","NONFED","ST-CACDF","ST/C&L","USCATUU","Tulare Unit","CATUU","Tulare Unit","","204         ","","WILSON                   ","","","","","","1997","1997/11/10 00:00:00+00","314","","Human","Debris and open burning","","","","","0.2","A","36.37611111","-119.035","MISSING/NOT SPECIFIED","CA","","",""
"-119.41193185","36.348883856","1090135","1328830","CDF_1997_56_2234_12370       ","NONFED","ST-CACDF","ST/C&L","USCATUU","Tulare Unit","CATUU","Tulare Unit","","12370       ","","TULARE CO. #165          ","","","","","","1997","1997/12/27 00:00:00+00","361","","Human","Missing data/not specified/undetermined","","","","","0.1","A","36.34888888","-119.41194444","MISSING/NOT SPECIFIED","CA","","",""
"-119.511098489","36.496106078","1090136","1328831","CDF_1998_56_2234_10316       ","NONFED","ST-CACDF","ST/C&L","USCATUU","Tulare Unit","CATUU","Tulare Unit","","10316       ","","KINGSBURG                ","","","","","","1998","1998/03/22 00:00:00+00","81","","Human","Missing data/not specified/undetermined","","","","","2","B","36.49611111","-119.51111111","MISSING/NOT SPECIFIED","CA","","",""
"-119.061098604","36.088050529","1090137","1328832","CDF_1997_56_2234_11780       ","NONFED","ST-CACDF","ST/C&L","USCATUU","Tulare Unit","CATUU","Tulare Unit","","11780       ","","TULARE COUNTY # 141      ","","","","","","1997","1997/09/20 00:00:00+00","263","","Human","Missing data/not specified/undetermined","","","","","0.1","A","36.08805555","-119.06111111","MISSING/NOT SPECIFIED","CA","","",""
"-119.034987474","36.331939392","1090138","1328833","CDF_1997_56_2234_182         ","NONFED","ST-CACDF","ST/C&L","USCATUU","Tulare Unit","CATUU","Tulare Unit","","182         ","","GRAY                     ","","","","","","1997","1997/09/20 00:00:00+00","263","","Human","Equipment and vehicle use","","","","","12","C","36.33194444","-119.035","MISSING/NOT SPECIFIED","CA","","",""
"-119.511098489","36.496106078","1090139","1328834","CDF_1997_56_2234_11785       ","NONFED","ST-CACDF","ST/C&L","USCATUU","Tulare Unit","CATUU","Tulare Unit","","11785       ","","SPRR 40                  ","","","","","","1997","1997/09/21 00:00:00+00","264","","Human","Railroad operations and maintenance","","","","","0.1","A","36.49611111","-119.51111111","MISSING/NOT SPECIFIED","CA","","",""
"-119.178876316","36.464994949","1090140","1328835","CDF_1997_56_2234_11791       ","NONFED","ST-CACDF","ST/C&L","USCATUU","Tulare Unit","CATUU","Tulare Unit","","11791       ","","IOH                      ","","","","","","1997","1997/09/21 00:00:00+00","264","","Human","Arson/incendiarism","","","","","0.5","B","36.465","-119.17888888","MISSING/NOT SPECIFIED","CA","","",""
"-119.178876316","36.464994949","1090141","1328836","CDF_1997_56_2234_11788       ","NONFED","ST-CACDF","ST/C&L","USCATUU","Tulare Unit","CATUU","Tulare Unit","","11788       ","","AINLEY                   ","","","","","","1997","1997/09/21 00:00:00+00","264","","Human","Arson/incendiarism","","","","","0.5","B","36.465","-119.17888888","MISSING/NOT SPECIFIED","CA","","",""
"-119.311931897","36.043883879","1090142","1328837","CDF_1997_56_2234_11786       ","NONFED","ST-CACDF","ST/C&L","USCATUU","Tulare Unit","CATUU","Tulare Unit","","11786       ","","PHILLIPS                 ","","","","","","1997","1997/09/21 00:00:00+00","264","","Human","Arson/incendiarism","","","","","0.3","B","36.04388888","-119.31194444","MISSING/NOT SPECIFIED","CA","","",""
"-119.374987422","36.291106089","1090143","1328838","CDF_1997_56_2234_11815       ","NONFED","ST-CACDF","ST/C&L","USCATUU","Tulare Unit","CATUU","Tulare Unit","","11815       ","","STATE CA #64             ","","","","","","1997","1997/09/24 00:00:00+00","267","","Human","Missing data/not specified/undetermined","","","","","0.1","A","36.29111111","-119.375","MISSING/NOT SPECIFIED","CA","","",""
"-119.518042929","36.48193941","1090144","1328840","CDF_1997_56_2234_11833       ","NONFED","ST-CACDF","ST/C&L","USCATUU","Tulare Unit","CATUU","Tulare Unit","","11833       ","","FRANCO                   ","","","","","","1997","1997/09/27 00:00:00+00","270","","Human","Debris and open burning","","","","","0.1","A","36.48194444","-119.51805555","MISSING/NOT SPECIFIED","CA","","",""
"-118.989987517","35.971106096","1090145","1328841","CDF_1997_56_2234_11919       ","NONFED","ST-CACDF","ST/C&L","USCATUU","Tulare Unit","CATUU","Tulare Unit","","11919       ","","DOYLE                    ","","","","","","1997","1997/10/09 00:00:00+00","282","","Human","Arson/incendiarism","","","","","0.1","A","35.97111111","-118.99","MISSING/NOT SPECIFIED","CA","","",""
"-119.143042997","36.421106061","1090146","1328842","CDF_1997_56_2234_11924       ","NONFED","ST-CACDF","ST/C&L","USCATUU","Tulare Unit","CATUU","Tulare Unit","","11924       ","","CO. #148                 ","","","","","","1997","1997/10/10 00:00:00+00","283","","Human","Arson/incendiarism","","","","","0.1","A","36.42111111","-119.14305555","MISSING/NOT SPECIFIED","CA","","",""
"-119.008043072","35.884994996","1090147","1328843","CDF_1997_56_2234_11927       ","NONFED","ST-CACDF","ST/C&L","USCATUU","Tulare Unit","CATUU","Tulare Unit","","11927       ","","TULARE COUNTY #149       ","","","","","","1997","1997/10/10 00:00:00+00","283","","Human","Equipment and vehicle use","","","","","0.1","A","35.885","-119.00805555","MISSING/NOT SPECIFIED","CA","","",""
"-119.096098545","36.608050479","1090148","1328844","CDF_1997_56_2234_194         ","NONFED","ST-CACDF","ST/C&L","USCATUU","Tulare Unit","CATUU","Tulare Unit","","194         ","","MACKEY                   ","","","","","","1997","1997/10/13 00:00:00+00","286","","Human","Equipment and vehicle use","","","","","2","B","36.60805555","-119.09611111","MISSING/NOT SPECIFIED","CA","","",""
"-119.071098569","36.421106056","1090149","1328845","CDF_1997_56_2234_11963       ","NONFED","ST-CACDF","ST/C&L","USCATUU","Tulare Unit","CATUU","Tulare Unit","","11963       ","","BERESFORD                ","","","","","","1997","1997/10/14 00:00:00+00","287","","Human","Equipment and vehicle use","","","","","0.5","B","36.42111111","-119.07111111","MISSING/NOT SPECIFIED","CA","","",""
"-119.251098542","36.391939401","1090150","1328846","CDF_1997_56_2234_11978       ","NONFED","ST-CACDF","ST/C&L","USCATUU","Tulare Unit","CATUU","Tulare Unit","","11978       ","","ARCHER                   ","","","","","","1997","1997/10/17 00:00:00+00","290","","Human","Arson/incendiarism","","","","","0.2","A","36.39194444","-119.25111111","MISSING/NOT SPECIFIED","CA","","",""
"-119.526931884","35.811939476","1090151","1328847","CDF_1997_56_2234_12064       ","NONFED","ST-CACDF","ST/C&L","USCATUU","Tulare Unit","CATUU","Tulare Unit","","12064       ","","ATWELL                   ","","","","","","1997","1997/10/30 00:00:00+00","303","","Human","Missing data/not specified/undetermined","","","","","40","C","35.81194444","-119.52694444","MISSING/NOT SPECIFIED","CA","","",""
"-119.411931853","36.319994978","1090152","1328848","CDF_1997_56_2234_12078       ","NONFED","ST-CACDF","ST/C&L","USCATUU","Tulare Unit","CATUU","Tulare Unit","","12078       ","","STATE OF CA #69          ","","","","","","1997","1997/11/01 00:00:00+00","305","","Human","Equipment and vehicle use","","","","","1","B","36.32","-119.41194444","MISSING/NOT SPECIFIED","CA","","",""
"-119.384987396","36.523883837","1090153","1328849","CDF_1997_56_2234_12096       ","NONFED","ST-CACDF","ST/C&L","USCATUU","Tulare Unit","CATUU","Tulare Unit","","12096       ","","RICHARDS # 2             ","","","","","","1997","1997/11/02 00:00:00+00","306","","Human","Arson/incendiarism","","","","","0.1","A","36.52388888","-119.385","MISSING/NOT SPECIFIED","CA","","",""
"-118.971931951","36.058883856","1090154","1328850","CDF_1997_56_2234_12091       ","NONFED","ST-CACDF","ST/C&L","USCATUU","Tulare Unit","CATUU","Tulare Unit","","12091       ","","OROZCO                   ","","","","","","1997","1997/11/02 00:00:00+00","306","","Human","Missing data/not specified/undetermined","","","","","0.5","B","36.05888888","-118.97194444","MISSING/NOT SPECIFIED","CA","","",""
"-119.293876354","35.898883893","1090155","1328851","CDF_1997_56_2234_12090       ","NONFED","ST-CACDF","ST/C&L","USCATUU","Tulare Unit","CATUU","Tulare Unit","","12090       ","","AVALOS                   ","","","","","","1997","1997/11/02 00:00:00+00","306","","Human","Debris and open burning","","","","","1","B","35.89888888","-119.29388888","MISSING/NOT SPECIFIED","CA","","",""
"-119.403042941","36.553050505","1090156","1328852","CDF_1997_56_2234_12106       ","NONFED","ST-CACDF","ST/C&L","USCATUU","Tulare Unit","CATUU","Tulare Unit","","12106       ","","PG&E # 8                 ","","","","","","1997","1997/11/05 00:00:00+00","309","","Human","Equipment and vehicle use","","","","","0.1","A","36.55305555","-119.40305555","MISSING/NOT SPECIFIED","CA","","",""
"-119.464987392","36.43693941","1090157","1328853","CDF_1997_56_2234_12113       ","NONFED","ST-CACDF","ST/C&L","USCATUU","Tulare Unit","CATUU","Tulare Unit","","12113       ","","DOWNS                    ","","","","","","1997","1997/11/06 00:00:00+00","310","","Human","Equipment and vehicle use","","","","","0.1","A","36.43694444","-119.465","MISSING/NOT SPECIFIED","CA","","",""
"-119.331098517","36.508883834","1090158","1328854","CDF_1997_56_2234_12116       ","NONFED","ST-CACDF","ST/C&L","USCATUU","Tulare Unit","CATUU","Tulare Unit","","12116       ","","QUALLS                   ","","","","","","1997","1997/11/06 00:00:00+00","310","","Human","Arson/incendiarism","","","","","10","C","36.50888888","-119.33111111","MISSING/NOT SPECIFIED","CA","","",""
"-119.008043058","36.029994981","1090159","1328855","CDF_1998_56_2234_10493       ","NONFED","ST-CACDF","ST/C&L","USCATUU","Tulare Unit","CATUU","Tulare Unit","","10493       ","","GUNDERSON                ","","","","","","1998","1998/05/01 00:00:00+00","121","","Human","Debris and open burning","","","","","0.1","A","36.03","-119.00805555","MISSING/NOT SPECIFIED","CA","","",""
"-118.848876412","36.058050518","1090160","1328856","CDF_1998_56_2234_27          ","NONFED","ST-CACDF","ST/C&L","USCATUU","Tulare Unit","CATUU","Tulare Unit","","27          ","","BURCHELL                 ","","","","","","1998","1998/05/01 00:00:00+00","121","","Human","Equipment and vehicle use","","","","","0.1","A","36.05805555","-118.84888888","MISSING/NOT SPECIFIED","CA","","",""
"-119.114987513","35.798050561","1090161","1328857","CDF_1998_56_2234_10565       ","NONFED","ST-CACDF","ST/C&L","USCATUU","Tulare Unit","CATUU","Tulare Unit","","10565       ","","CITRUS                   ","","","","","","1998","1998/05/14 00:00:00+00","134","","Human","Arson/incendiarism","","","","","0.2","A","35.79805555","-119.115","MISSING/NOT SPECIFIED","CA","","",""
"-119.151931933","35.943050549","1090162","1328858","CDF_1998_56_2234_10571       ","NONFED","ST-CACDF","ST/C&L","USCATUU","Tulare Unit","CATUU","Tulare Unit","","10571       ","","GARZA                    ","","","","","","1998","1998/05/15 00:00:00+00","135","","Human","Equipment and vehicle use","","","","","10","C","35.94305555","-119.15194444","MISSING/NOT SPECIFIED","CA","","",""
"-119.143043003","36.363050506","1090163","1328859","CDF_1998_56_2234_10593       ","NONFED","ST-CACDF","ST/C&L","USCATUU","Tulare Unit","CATUU","Tulare Unit","","10593       ","","COUNTY #12               ","","","","","","1998","1998/05/19 00:00:00+00","139","","Human","Missing data/not specified/undetermined","","","","","0.1","A","36.36305555","-119.14305555","MISSING/NOT SPECIFIED","CA","","",""
"-119.043043051","36.043883862","1090164","1328860","CDF_1998_56_2234_10594       ","NONFED","ST-CACDF","ST/C&L","USCATUU","Tulare Unit","CATUU","Tulare Unit","","10594       ","","TULARE CO. #13           ","","","","","","1998","1998/05/19 00:00:00+00","139","","Human","Missing data/not specified/undetermined","","","","","1","B","36.04388888","-119.04305555","MISSING/NOT SPECIFIED","CA","","",""
"-118.831931969","36.114994961","1090165","1328861","CDF_1998_56_2234_30          ","NONFED","ST-CACDF","ST/C&L","USCATUU","Tulare Unit","CATUU","Tulare Unit","","30          ","","FYFE                     ","","","","","","1998","1998/05/22 00:00:00+00","142","","Human","Equipment and vehicle use","","","","","0.1","A","36.115","-118.83194444","MISSING/NOT SPECIFIED","CA","","",""
"-119.25109854","36.406939399","1090166","1328862","CDF_1998_56_2234_10697       ","NONFED","ST-CACDF","ST/C&L","USCATUU","Tulare Unit","CATUU","Tulare Unit","","10697       ","","BEAYRD                   ","","","","","","1998","1998/06/01 00:00:00+00","152","","Human","Smoking","","","","","4","B","36.40694444","-119.25111111","MISSING/NOT SPECIFIED","CA","","",""
"-119.053043039","36.146106082","1090167","1328863","CDF_1998_56_2234_10708       ","NONFED","ST-CACDF","ST/C&L","USCATUU","Tulare Unit","CATUU","Tulare Unit","","10708       ","","SFD #6                   ","","","","","","1998","1998/06/02 00:00:00+00","153","","Human","Smoking","","","","","0.1","A","36.14611111","-119.05305555","MISSING/NOT SPECIFIED","CA","","",""
"-118.989987508","36.058883857","1090168","1328864","CDF_1998_56_2234_10713       ","NONFED","ST-CACDF","ST/C&L","USCATUU","Tulare Unit","CATUU","Tulare Unit","","10713       ","","RIVER BOTTOM #1          ","","","","","","1998","1998/06/02 00:00:00+00","153","","Human","Arson/incendiarism","","","","","1","B","36.05888888","-118.99","MISSING/NOT SPECIFIED","CA","","",""
"-119.276098582","35.943050557","1090169","1328865","CDF_1998_56_2234_10702       ","NONFED","ST-CACDF","ST/C&L","USCATUU","Tulare Unit","CATUU","Tulare Unit","","10702       ","","LEDEZMA                  ","","","","","","1998","1998/06/02 00:00:00+00","153","","Human","Equipment and vehicle use","","","","","0.1","A","35.94305555","-119.27611111","MISSING/NOT SPECIFIED","CA","","",""
"-119.41193185","36.348883856","1090170","1328866","CDF_1998_56_2234_10718       ","NONFED","ST-CACDF","ST/C&L","USCATUU","Tulare Unit","CATUU","Tulare Unit","","10718       ","","OKLEY                    ","","","","","","1998","1998/06/04 00:00:00+00","155","","Human","Missing data/not specified/undetermined","","","","","0.1","A","36.34888888","-119.41194444","MISSING/NOT SPECIFIED","CA","","",""
"-119.024987504","36.043883861","1090171","1328867","CDF_1998_56_2234_10720       ","NONFED","ST-CACDF","ST/C&L","USCATUU","Tulare Unit","CATUU","Tulare Unit","","10720       ","","HARDAWAY                 ","","","","","","1998","1998/06/04 00:00:00+00","155","","Human","Arson/incendiarism","","","","","2.5","B","36.04388888","-119.025","MISSING/NOT SPECIFIED","CA","","",""
"-119.053876366","36.174994969","1090172","1328868","CDF_1998_56_2234_10728       ","NONFED","ST-CACDF","ST/C&L","USCATUU","Tulare Unit","CATUU","Tulare Unit","","10728       ","","TULARE CO. #15           ","","","","","","1998","1998/06/05 00:00:00+00","156","","Human","Equipment and vehicle use","","","","","0.1","A","36.175","-119.05388888","MISSING/NOT SPECIFIED","CA","","",""
"-119.204987467","36.116939425","1090173","1328869","CDF_1998_56_2234_10753       ","NONFED","ST-CACDF","ST/C&L","USCATUU","Tulare Unit","CATUU","Tulare Unit","","10753       ","","TUALRE CO. #16           ","","","","","","1998","1998/06/09 00:00:00+00","160","","Human","Arson/incendiarism","","","","","0.1","A","36.11694444","-119.205","MISSING/NOT SPECIFIED","CA","","",""
"-119.061931942","36.001106097","1090174","1328870","CDF_1998_56_2234_10815       ","NONFED","ST-CACDF","ST/C&L","USCATUU","Tulare Unit","CATUU","Tulare Unit","","10815       ","","PIT                      ","","","","","","1998","1998/06/16 00:00:00+00","167","","Human","Arson/incendiarism","","","","","2","B","36.00111111","-119.06194444","MISSING/NOT SPECIFIED","CA","","",""
"-119.143042994","36.449994948","1090175","1328871","CDF_1998_56_2234_39          ","NONFED","ST-CACDF","ST/C&L","USCATUU","Tulare Unit","CATUU","Tulare Unit","","39          ","","LINDBOCK                 ","","","","","","1998","1998/06/16 00:00:00+00","167","","Human","Debris and open burning","","","","","0.3","B","36.45","-119.14305555","MISSING/NOT SPECIFIED","CA","","",""
"-119.108043017","36.274994963","1090176","1328872","CDF_1998_56_2234_40          ","NONFED","ST-CACDF","ST/C&L","USCATUU","Tulare Unit","CATUU","Tulare Unit","","40          ","","ROCKY                    ","","","","","","1998","1998/06/17 00:00:00+00","168","","Human","Equipment and vehicle use","","","","","0.2","A","36.275","-119.10805555","MISSING/NOT SPECIFIED","CA","","",""
"-119.043876388","35.971939429","1090177","1328873","CDF_1998_56_2234_10821       ","NONFED","ST-CACDF","ST/C&L","USCATUU","Tulare Unit","CATUU","Tulare Unit","","10821       ","","ROBINSON                 ","","","","","","1998","1998/06/17 00:00:00+00","168","","Human","Misuse of fire by a minor","Minor","","","","0.2","A","35.97194444","-119.04388888","MISSING/NOT SPECIFIED","CA","","",""
"-119.126931907","36.246106077","1090178","1328874","CDF_1998_56_2234_10837       ","NONFED","ST-CACDF","ST/C&L","USCATUU","Tulare Unit","CATUU","Tulare Unit","","10837       ","","FERNANDEZ                ","","","","","","1998","1998/06/19 00:00:00+00","170","","Human","Equipment and vehicle use","","","","","0.3","B","36.24611111","-119.12694444","MISSING/NOT SPECIFIED","CA","","",""
"-119.473042993","35.913050573","1090179","1328875","CDF_1998_56_2234_10839       ","NONFED","ST-CACDF","ST/C&L","USCATUU","Tulare Unit","CATUU","Tulare Unit","","10839       ","","PALM                     ","","","","","","1998","1998/06/19 00:00:00+00","170","","Human","Recreation and ceremony","","","","","1","B","35.91305555","-119.47305555","MISSING/NOT SPECIFIED","CA","","",""
"-119.214987447","36.304994967","1090180","1328876","CDF_1998_56_2234_10838       ","NONFED","ST-CACDF","ST/C&L","USCATUU","Tulare Unit","CATUU","Tulare Unit","","10838       ","","TC #20                   ","","","","","","1998","1998/06/19 00:00:00+00","170","","Human","Equipment and vehicle use","","","","","0.2","A","36.305","-119.215","MISSING/NOT SPECIFIED","CA","","",""
"-119.091098586","36.216939408","1090181","1328877","CDF_1998_56_2234_10845       ","NONFED","ST-CACDF","ST/C&L","USCATUU","Tulare Unit","CATUU","Tulare Unit","","10845       ","","SANDOVAL                 ","","","","","","1998","1998/06/20 00:00:00+00","171","","Human","Missing data/not specified/undetermined","","","","","3","B","36.21694444","-119.09111111","MISSING/NOT SPECIFIED","CA","","",""
"-119.376098515","36.451106073","1090182","1328879","CDF_1998_56_2234_10893       ","NONFED","ST-CACDF","ST/C&L","USCATUU","Tulare Unit","CATUU","Tulare Unit","","10893       ","","AUKEMAN                  ","","","","","","1998","1998/06/25 00:00:00+00","176","","Human","Missing data/not specified/undetermined","","","","","2","B","36.45111111","-119.37611111","MISSING/NOT SPECIFIED","CA","","",""
"-119.293876354","35.898883893","1090183","1328880","CDF_1998_56_2234_10896       ","NONFED","ST-CACDF","ST/C&L","USCATUU","Tulare Unit","CATUU","Tulare Unit","","10896       ","","BAKER                    ","","","","","","1998","1998/06/25 00:00:00+00","176","","Human","Debris and open burning","","","","","1","B","35.89888888","-119.29388888","MISSING/NOT SPECIFIED","CA","","",""
"-119.304987427","36.348883848","1090184","1328881","CDF_1998_56_2234_10910       ","NONFED","ST-CACDF","ST/C&L","USCATUU","Tulare Unit","CATUU","Tulare Unit","","10910       ","","PARKWAY                  ","","","","","","1998","1998/06/27 00:00:00+00","178","","Human","Missing data/not specified/undetermined","","","","","3","B","36.34888888","-119.305","MISSING/NOT SPECIFIED","CA","","",""
"-119.018043042","36.174994967","1090185","1328882","CDF_1998_56_2234_10907       ","NONFED","ST-CACDF","ST/C&L","USCATUU","Tulare Unit","CATUU","Tulare Unit","","10907       ","","NEWSOME                  ","","","","","","1998","1998/06/27 00:00:00+00","178","","Human","Arson/incendiarism","","","","","1","B","36.175","-119.01805555","MISSING/NOT SPECIFIED","CA","","",""
"-119.41193185","36.348883856","1090186","1328883","CDF_1998_56_2234_10920       ","NONFED","ST-CACDF","ST/C&L","USCATUU","Tulare Unit","CATUU","Tulare Unit","","10920       ","","SPRR#4                   ","","","","","","1998","1998/06/28 00:00:00+00","179","","Human","Arson/incendiarism","","","","","1","B","36.34888888","-119.41194444","MISSING/NOT SPECIFIED","CA","","",""
"-119.311931895","36.058883878","1090187","1328884","CDF_1998_56_2234_10914       ","NONFED","ST-CACDF","ST/C&L","USCATUU","Tulare Unit","CATUU","Tulare Unit","","10914       ","","STATE OF CALIF #10       ","","","","","","1998","1998/06/28 00:00:00+00","179","","Human","Missing data/not specified/undetermined","","","","","0.3","B","36.05888888","-119.31194444","MISSING/NOT SPECIFIED","CA","","",""
"-119.39387629","36.378050521","1090188","1328885","CDF_1998_56_2234_10924       ","NONFED","ST-CACDF","ST/C&L","USCATUU","Tulare Unit","CATUU","Tulare Unit","","10924       ","","HOVANNISION #3           ","","","","","","1998","1998/06/29 00:00:00+00","180","","Human","Arson/incendiarism","","","","","0.1","A","36.37805555","-119.39388888","MISSING/NOT SPECIFIED","CA","","",""
"-119.41193185","36.348883856","1090189","1328886","CDF_1998_56_2234_10922       ","NONFED","ST-CACDF","ST/C&L","USCATUU","Tulare Unit","CATUU","Tulare Unit","","10922       ","","SPRR#5                   ","","","","","","1998","1998/06/29 00:00:00+00","180","","Human","Arson/incendiarism","","","","","6","B","36.34888888","-119.41194444","MISSING/NOT SPECIFIED","CA","","",""
"-119.258876293","36.566106054","1090190","1328887","CDF_1998_56_2234_10928       ","NONFED","ST-CACDF","ST/C&L","USCATUU","Tulare Unit","CATUU","Tulare Unit","","10928       ","","RELINGO                  ","","","","","","1998","1998/06/29 00:00:00+00","180","","Human","Arson/incendiarism","","","","","0.3","B","36.56611111","-119.25888888","MISSING/NOT SPECIFIED","CA","","",""
"-119.231098536","36.478883831","1090191","1328888","CDF_1998_56_2234_10933       ","NONFED","ST-CACDF","ST/C&L","USCATUU","Tulare Unit","CATUU","Tulare Unit","","10933       ","","CLEAVER                  ","","","","","","1998","1998/06/30 00:00:00+00","181","","Human","Arson/incendiarism","","","","","0.5","B","36.47888888","-119.23111111","MISSING/NOT SPECIFIED","CA","","",""
"-119.088876336","36.421106057","1090192","1328889","CDF_1998_56_2234_58          ","NONFED","ST-CACDF","ST/C&L","USCATUU","Tulare Unit","CATUU","Tulare Unit","","58          ","","GREASY                   ","","","","","","1998","1998/06/30 00:00:00+00","181","","Human","Equipment and vehicle use","","","","","3","B","36.42111111","-119.08888888","MISSING/NOT SPECIFIED","CA","","",""
"-119.043876375","36.101939416","1090193","1328890","CDF_1998_56_2234_10936       ","NONFED","ST-CACDF","ST/C&L","USCATUU","Tulare Unit","CATUU","Tulare Unit","","10936       ","","NELMS                    ","","","","","","1998","1998/06/30 00:00:00+00","181","","Human","Equipment and vehicle use","","","","","0.1","A","36.10194444","-119.04388888","MISSING/NOT SPECIFIED","CA","","",""
"-119.501098521","36.188883877","1090194","1328891","CDF_1998_56_2234_10975       ","NONFED","ST-CACDF","ST/C&L","USCATUU","Tulare Unit","CATUU","Tulare Unit","","10975       ","","TULARE COUNTY #35        ","","","","","","1998","1998/07/04 00:00:00+00","185","","Human","Arson/incendiarism","","","","","30","C","36.18888888","-119.50111111","MISSING/NOT SPECIFIED","CA","","",""
"-118.913043042","36.348883823","1090195","1328892","CDF_1998_56_2234_70          ","NONFED","ST-CACDF","ST/C&L","USCATUU","Tulare Unit","CATUU","Tulare Unit","","70          ","","NORTH FORK               ","","","","","","1998","1998/07/04 00:00:00+00","185","","Human","Arson/incendiarism","","","","","0.1","A","36.34888888","-118.91305555","MISSING/NOT SPECIFIED","CA","","",""
"-119.008043072","35.884994996","1090196","1328893","CDF_1998_56_2234_11252       ","NONFED","ST-CACDF","ST/C&L","USCATUU","Tulare Unit","CATUU","Tulare Unit","","11252       ","","RIVER                    ","","","","","","1998","1998/07/04 00:00:00+00","185","","Human","Missing data/not specified/undetermined","","","","","1","B","35.885","-119.00805555","MISSING/NOT SPECIFIED","CA","","",""
"-119.231098536","36.478883831","1090197","1328894","CDF_1998_56_2234_10980       ","NONFED","ST-CACDF","ST/C&L","USCATUU","Tulare Unit","CATUU","Tulare Unit","","10980       ","","SEVILLE                  ","","","","","","1998","1998/07/05 00:00:00+00","186","","Human","Arson/incendiarism","","","","","8","B","36.47888888","-119.23111111","MISSING/NOT SPECIFIED","CA","","",""
"-119.026098622","35.95693943","1090198","1328896","CDF_1998_56_2234_10628       ","NONFED","ST-CACDF","ST/C&L","USCATUU","Tulare Unit","CATUU","Tulare Unit","","10628       ","","CARAVEO                  ","","","","","","1998","1998/05/24 00:00:00+00","144","","Human","Arson/incendiarism","","","","","3","B","35.95694444","-119.02611111","MISSING/NOT SPECIFIED","CA","","",""
"-119.043043051","36.043883862","1090199","1328897","CDF_1998_56_2234_10634       ","NONFED","ST-CACDF","ST/C&L","USCATUU","Tulare Unit","CATUU","Tulare Unit","","10634       ","","JESSEN                   ","","","","","","1998","1998/05/27 00:00:00+00","147","","Human","Misuse of fire by a minor","Minor","","","","0.1","A","36.04388888","-119.04305555","MISSING/NOT SPECIFIED","CA","","",""
"-119.311931892","36.086939435","1090200","1328898","CDF_1998_56_2234_10662       ","NONFED","ST-CACDF","ST/C&L","USCATUU","Tulare Unit","CATUU","Tulare Unit","","10662       ","","DAVIDSON                 ","","","","","","1998","1998/05/28 00:00:00+00","148","","Human","Arson/incendiarism","","","","","0.5","B","36.08694444","-119.31194444","MISSING/NOT SPECIFIED","CA","","",""
"-119.446931831","36.481106075","1090201","1328899","CDF_1998_56_2234_10668       ","NONFED","ST-CACDF","ST/C&L","USCATUU","Tulare Unit","CATUU","Tulare Unit","","10668       ","","HOVANNASIAN 1            ","","","","","","1998","1998/05/29 00:00:00+00","149","","Human","Arson/incendiarism","","","","","0.1","A","36.48111111","-119.44694444","MISSING/NOT SPECIFIED","CA","","",""
"-118.953876396","36.043883856","1090202","1328900","CDF_1998_56_2234_10752       ","NONFED","ST-CACDF","ST/C&L","USCATUU","Tulare Unit","CATUU","Tulare Unit","","10752       ","","CHRISTMAS                ","","","","","","1998","1998/06/09 00:00:00+00","160","","Human","Equipment and vehicle use","","","","","1","B","36.04388888","-118.95388888","MISSING/NOT SPECIFIED","CA","","",""
"-119.294987411","36.523050501","1090203","1328901","CDF_1998_56_2234_10776       ","NONFED","ST-CACDF","ST/C&L","USCATUU","Tulare Unit","CATUU","Tulare Unit","","10776       ","","20 ACRE                  ","","","","","","1998","1998/06/11 00:00:00+00","162","","Human","Arson/incendiarism","","","","","20","C","36.52305555","-119.295","MISSING/NOT SPECIFIED","CA","","",""
"-119.008043055","36.058883858","1090204","1328902","CDF_1998_56_2234_10774       ","NONFED","ST-CACDF","ST/C&L","USCATUU","Tulare Unit","CATUU","Tulare Unit","","10774       ","","NEEL                     ","","","","","","1998","1998/06/11 00:00:00+00","162","","Human","Missing data/not specified/undetermined","","","","","0.5","B","36.05888888","-119.00805555","MISSING/NOT SPECIFIED","CA","","",""
"-119.41193185","36.348883856","1090205","1328903","CDF_1998_56_2234_10787       ","NONFED","ST-CACDF","ST/C&L","USCATUU","Tulare Unit","CATUU","Tulare Unit","","10787       ","","ZION                     ","","","","","","1998","1998/06/13 00:00:00+00","164","","Human","Arson/incendiarism","","","","","0.3","B","36.34888888","-119.41194444","MISSING/NOT SPECIFIED","CA","","",""
"-119.186931941","35.798050566","1090206","1328904","CDF_1998_56_2234_10783       ","NONFED","ST-CACDF","ST/C&L","USCATUU","Tulare Unit","CATUU","Tulare Unit","","10783       ","","GOLDBEERG                ","","","","","","1998","1998/06/13 00:00:00+00","164","","Human","Missing data/not specified/undetermined","","","","","0.2","A","35.79805555","-119.18694444","MISSING/NOT SPECIFIED","CA","","",""
"-118.94804303","36.406939379","1090207","1328905","CDF_1998_56_2234_35          ","NONFED","ST-CACDF","ST/C&L","USCATUU","Tulare Unit","CATUU","Tulare Unit","","35          ","","MCCORD                   ","","","","","","1998","1998/06/14 00:00:00+00","165","","Human","Equipment and vehicle use","","","","","3","B","36.40694444","-118.94805555","MISSING/NOT SPECIFIED","CA","","",""
"-119.293876354","35.898883893","1090208","1328906","CDF_1998_56_2234_10799       ","NONFED","ST-CACDF","ST/C&L","USCATUU","Tulare Unit","CATUU","Tulare Unit","","10799       ","","TORRES                   ","","","","","","1998","1998/06/15 00:00:00+00","166","","Human","Debris and open burning","","","","","3","B","35.89888888","-119.29388888","MISSING/NOT SPECIFIED","CA","","",""
"-118.989987508","36.058883857","1090209","1328907","CDF_1998_56_2234_10803       ","NONFED","ST-CACDF","ST/C&L","USCATUU","Tulare Unit","CATUU","Tulare Unit","","10803       ","","RIVER BOTTOM #3          ","","","","","","1998","1998/06/15 00:00:00+00","166","","Human","Arson/incendiarism","","","","","1","B","36.05888888","-118.99","MISSING/NOT SPECIFIED","CA","","",""
"-119.511098487","36.511106076","1090210","1328908","CDF_1998_56_2234_10849       ","NONFED","ST-CACDF","ST/C&L","USCATUU","Tulare Unit","CATUU","Tulare Unit","","10849       ","","ADAMS                    ","","","","","","1998","1998/06/20 00:00:00+00","171","","Human","Equipment and vehicle use","","","","","0.1","A","36.51111111","-119.51111111","MISSING/NOT SPECIFIED","CA","","",""
"-119.473042995","35.898883904","1090211","1328909","CDF_1998_56_2234_10854       ","NONFED","ST-CACDF","ST/C&L","USCATUU","Tulare Unit","CATUU","Tulare Unit","","10854       ","","CANAL                    ","","","","","","1998","1998/06/21 00:00:00+00","172","","Human","Misuse of fire by a minor","Minor","","","","0.5","B","35.89888888","-119.47305555","MISSING/NOT SPECIFIED","CA","","",""
"-119.251098549","36.319994968","1090212","1328910","CDF_1998_56_2234_10861       ","NONFED","ST-CACDF","ST/C&L","USCATUU","Tulare Unit","CATUU","Tulare Unit","","10861       ","","TULARE COUNTY #21        ","","","","","","1998","1998/06/22 00:00:00+00","173","","Human","Arson/incendiarism","","","","","0.1","A","36.32","-119.25111111","MISSING/NOT SPECIFIED","CA","","",""
"-119.026098609","36.088050526","1090213","1328911","CDF_1998_56_2234_10863       ","NONFED","ST-CACDF","ST/C&L","USCATUU","Tulare Unit","CATUU","Tulare Unit","","10863       ","","MAHNKE                   ","","","","","","1998","1998/06/22 00:00:00+00","173","","Human","Misuse of fire by a minor","Minor","","","","2","B","36.08805555","-119.02611111","MISSING/NOT SPECIFIED","CA","","",""
"-119.356931868","36.261939421","1090214","1328912","CDF_1998_56_2234_10862       ","NONFED","ST-CACDF","ST/C&L","USCATUU","Tulare Unit","CATUU","Tulare Unit","","10862       ","","STATE #8                 ","","","","","","1998","1998/06/22 00:00:00+00","173","","Human","Smoking","","","","","0.3","B","36.26194444","-119.35694444","MISSING/NOT SPECIFIED","CA","","",""
"-119.518042929","36.48193941","1090215","1328913","CDF_1998_56_2234_10877       ","NONFED","ST-CACDF","ST/C&L","USCATUU","Tulare Unit","CATUU","Tulare Unit","","10877       ","","JIANG                    ","","","","","","1998","1998/06/23 00:00:00+00","174","","Human","Missing data/not specified/undetermined","","","","","0.1","A","36.48194444","-119.51805555","MISSING/NOT SPECIFIED","CA","","",""
"-119.41193185","36.348883856","1090216","1328914","CDF_1998_56_2234_10874       ","NONFED","ST-CACDF","ST/C&L","USCATUU","Tulare Unit","CATUU","Tulare Unit","","10874       ","","CAMP                     ","","","","","","1998","1998/06/23 00:00:00+00","174","","Human","Misuse of fire by a minor","Minor","","","","0.1","A","36.34888888","-119.41194444","MISSING/NOT SPECIFIED","CA","","",""
"-119.008043067","35.94305054","1090217","1328915","CDF_1998_56_2234_10878       ","NONFED","ST-CACDF","ST/C&L","USCATUU","Tulare Unit","CATUU","Tulare Unit","","10878       ","","TULARE COUNTY #23        ","","","","","","1998","1998/06/23 00:00:00+00","174","","Human","Arson/incendiarism","","","","","1","B","35.94305555","-119.00805555","MISSING/NOT SPECIFIED","CA","","",""
"-119.258876287","36.623883818","1090218","1328916","CDF_1998_56_2234_49          ","NONFED","ST-CACDF","ST/C&L","USCATUU","Tulare Unit","CATUU","Tulare Unit","","49          ","","JOHNSON                  ","","","","","","1998","1998/06/25 00:00:00+00","176","","Human","Equipment and vehicle use","","","","","12","C","36.62388888","-119.25888888","MISSING/NOT SPECIFIED","CA","","",""
"-119.061098602","36.101939417","1090219","1328917","CDF_1998_56_2234_10931       ","NONFED","ST-CACDF","ST/C&L","USCATUU","Tulare Unit","CATUU","Tulare Unit","","10931       ","","MCCLURE                  ","","","","","","1998","1998/06/30 00:00:00+00","181","","Human","Equipment and vehicle use","","","","","3","B","36.10194444","-119.06111111","MISSING/NOT SPECIFIED","CA","","",""
"-119.276931847","36.594994942","1090220","1328920","CDF_1998_56_2234_64          ","NONFED","ST-CACDF","ST/C&L","USCATUU","Tulare Unit","CATUU","Tulare Unit","","64          ","","OROSI                    ","","","","","","1998","1998/07/02 00:00:00+00","183","","Human","Arson/incendiarism","","","","","60","C","36.595","-119.27694444","MISSING/NOT SPECIFIED","CA","","",""
"-119.124987453","36.391939392","1090221","1328921","CDF_1998_56_2234_10951       ","NONFED","ST-CACDF","ST/C&L","USCATUU","Tulare Unit","CATUU","Tulare Unit","","10951       ","","TULARE CO. #29           ","","","","","","1998","1998/07/02 00:00:00+00","183","","Human","Arson/incendiarism","","","","","0.1","A","36.39194444","-119.125","MISSING/NOT SPECIFIED","CA","","",""
"-119.018043042","36.174994967","1090222","1328922","CDF_1998_56_2234_10949       ","NONFED","ST-CACDF","ST/C&L","USCATUU","Tulare Unit","CATUU","Tulare Unit","","10949       ","","VILLARREAL               ","","","","","","1998","1998/07/02 00:00:00+00","183","","Human","Missing data/not specified/undetermined","","","","","0.1","A","36.175","-119.01805555","MISSING/NOT SPECIFIED","CA","","",""
"-119.088876363","36.146106085","1090223","1328923","CDF_1998_56_2234_10958       ","NONFED","ST-CACDF","ST/C&L","USCATUU","Tulare Unit","CATUU","Tulare Unit","","10958       ","","BJORKMAN                 ","","","","","","1998","1998/07/03 00:00:00+00","184","","Human","Misuse of fire by a minor","Minor","","","","1","B","36.14611111","-119.08888888","MISSING/NOT SPECIFIED","CA","","",""
"-119.374987403","36.47999496","1090224","1328924","CDF_1998_56_2234_10957       ","NONFED","ST-CACDF","ST/C&L","USCATUU","Tulare Unit","CATUU","Tulare Unit","","10957       ","","DEPT. OF AGRICULTURE     ","","","","","","1998","1998/07/03 00:00:00+00","184","","Human","Equipment and vehicle use","","","","","40","C","36.48","-119.375","MISSING/NOT SPECIFIED","CA","","",""
"-119.168876359","36.058883869","1090225","1328925","CDF_1998_56_2234_10962       ","NONFED","ST-CACDF","ST/C&L","USCATUU","Tulare Unit","CATUU","Tulare Unit","","10962       ","","GARCIA                   ","","","","","","1998","1998/07/03 00:00:00+00","184","","Human","Missing data/not specified/undetermined","","","","","0.5","B","36.05888888","-119.16888888","MISSING/NOT SPECIFIED","CA","","",""
"-119.143042994","36.449994948","1090226","1328926","CDF_1998_56_2234_10959       ","NONFED","ST-CACDF","ST/C&L","USCATUU","Tulare Unit","CATUU","Tulare Unit","","10959       ","","CASTELLO                 ","","","","","","1998","1998/07/03 00:00:00+00","184","","Human","Equipment and vehicle use","","","","","0.1","A","36.45","-119.14305555","MISSING/NOT SPECIFIED","CA","","",""
"-119.41193185","36.348883856","1090227","1328927","CDF_1998_56_2234_11000       ","NONFED","ST-CACDF","ST/C&L","USCATUU","Tulare Unit","CATUU","Tulare Unit","","11000       ","","SPRR#7                   ","","","","","","1998","1998/07/06 00:00:00+00","187","","Human","Arson/incendiarism","","","","","2","B","36.34888888","-119.41194444","MISSING/NOT SPECIFIED","CA","","",""
"-119.231098536","36.478883831","1090228","1328928","CDF_1998_56_2234_10995       ","NONFED","ST-CACDF","ST/C&L","USCATUU","Tulare Unit","CATUU","Tulare Unit","","10995       ","","SEVILLE # 2              ","","","","","","1998","1998/07/06 00:00:00+00","187","","Human","Arson/incendiarism","","","","","2","B","36.47888888","-119.23111111","MISSING/NOT SPECIFIED","CA","","",""
"-119.089987467","36.303883839","1090229","1328929","CDF_1998_56_2234_74          ","NONFED","ST-CACDF","ST/C&L","USCATUU","Tulare Unit","CATUU","Tulare Unit","","74          ","","GILL                     ","","","","","","1998","1998/07/06 00:00:00+00","187","","Human","Arson/incendiarism","","","","","0.1","A","36.30388888","-119.09","MISSING/NOT SPECIFIED","CA","","",""
"-119.159987438","36.478050496","1090230","1328930","CDF_1998_56_2234_11002       ","NONFED","ST-CACDF","ST/C&L","USCATUU","Tulare Unit","CATUU","Tulare Unit","","11002       ","","FRIANT                   ","","","","","","1998","1998/07/07 00:00:00+00","188","","Human","Arson/incendiarism","","","","","1","B","36.47805555","-119.16","MISSING/NOT SPECIFIED","CA","","",""
"-119.071098575","36.361939392","1090231","1328931","CDF_1998_56_2234_11008       ","NONFED","ST-CACDF","ST/C&L","USCATUU","Tulare Unit","CATUU","Tulare Unit","","11008       ","","JOSH                     ","","","","","","1998","1998/07/07 00:00:00+00","188","","Human","Missing data/not specified/undetermined","","","","","0.7","B","36.36194444","-119.07111111","MISSING/NOT SPECIFIED","CA","","",""
"-119.41193185","36.348883856","1090232","1328932","CDF_1998_56_2234_11023       ","NONFED","ST-CACDF","ST/C&L","USCATUU","Tulare Unit","CATUU","Tulare Unit","","11023       ","","NEAL                     ","","","","","","1998","1998/07/08 00:00:00+00","189","","Human","Arson/incendiarism","","","","","0.1","A","36.34888888","-119.41194444","MISSING/NOT SPECIFIED","CA","","",""
"-119.231098536","36.478883831","1090233","1328933","CDF_1998_56_2234_11036       ","NONFED","ST-CACDF","ST/C&L","USCATUU","Tulare Unit","CATUU","Tulare Unit","","11036       ","","SEVILLE # 4              ","","","","","","1998","1998/07/09 00:00:00+00","190","","Human","Arson/incendiarism","","","","","1","B","36.47888888","-119.23111111","MISSING/NOT SPECIFIED","CA","","",""
"-119.096931923","36.131106087","1090234","1328934","CDF_1998_56_2234_11029       ","NONFED","ST-CACDF","ST/C&L","USCATUU","Tulare Unit","CATUU","Tulare Unit","","11029       ","","MOORE                    ","","","","","","1998","1998/07/09 00:00:00+00","190","","Human","Misuse of fire by a minor","Minor","","","","2","B","36.13111111","-119.09694444","MISSING/NOT SPECIFIED","CA","","",""
"-119.483042938","36.45193941","1090235","1328935","CDF_1998_56_2234_11031       ","NONFED","ST-CACDF","ST/C&L","USCATUU","Tulare Unit","CATUU","Tulare Unit","","11031       ","","JACKSON                  ","","","","","","1998","1998/07/09 00:00:00+00","190","","Human","Railroad operations and maintenance","","","","","0.1","A","36.45194444","-119.48305555","MISSING/NOT SPECIFIED","CA","","",""
"-119.293876341","36.02888388","1090236","1328936","CDF_1998_56_2234_11071       ","NONFED","ST-CACDF","ST/C&L","USCATUU","Tulare Unit","CATUU","Tulare Unit","","11071       ","","SAND                     ","","","","","","1998","1998/07/14 00:00:00+00","195","","Human","Arson/incendiarism","","","","","0.5","B","36.02888888","-119.29388888","MISSING/NOT SPECIFIED","CA","","",""
"-119.331098512","36.5530505","1090237","1328937","CDF_1998_56_2234_11077       ","NONFED","ST-CACDF","ST/C&L","USCATUU","Tulare Unit","CATUU","Tulare Unit","","11077       ","","SCHOOL                   ","","","","","","1998","1998/07/15 00:00:00+00","196","","Human","Arson/incendiarism","","","","","2","B","36.55305555","-119.33111111","MISSING/NOT SPECIFIED","CA","","",""
"-119.008043055","36.058883858","1090238","1328938","CDF_1998_56_2234_11084       ","NONFED","ST-CACDF","ST/C&L","USCATUU","Tulare Unit","CATUU","Tulare Unit","","11084       ","","SJVRR # 5                ","","","","","","1998","1998/07/16 00:00:00+00","197","","Human","Misuse of fire by a minor","Minor","","","","1","B","36.05888888","-119.00805555","MISSING/NOT SPECIFIED","CA","","",""
"-118.936098627","36.058883853","1090239","1328939","CDF_1998_56_2234_11060       ","NONFED","ST-CACDF","ST/C&L","USCATUU","Tulare Unit","CATUU","Tulare Unit","","11060       ","","TUU-39                   ","","","","","","1998","1998/07/18 00:00:00+00","199","","Human","Missing data/not specified/undetermined","","","","","1","B","36.05888888","-118.93611111","MISSING/NOT SPECIFIED","CA","","",""
"-118.989987508","36.058883857","1090240","1328940","CDF_1998_56_2234_11101       ","NONFED","ST-CACDF","ST/C&L","USCATUU","Tulare Unit","CATUU","Tulare Unit","","11101       ","","LASURE                   ","","","","","","1998","1998/07/19 00:00:00+00","200","","Human","Arson/incendiarism","","","","","1","B","36.05888888","-118.99","MISSING/NOT SPECIFIED","CA","","",""
"-119.41193185","36.348883856","1090241","1328941","CDF_1998_56_2234_11116       ","NONFED","ST-CACDF","ST/C&L","USCATUU","Tulare Unit","CATUU","Tulare Unit","","11116       ","","HOVANISIAN # 4           ","","","","","","1998","1998/07/21 00:00:00+00","202","","Human","Arson/incendiarism","","","","","0.1","A","36.34888888","-119.41194444","MISSING/NOT SPECIFIED","CA","","",""
"-119.41193185","36.348883856","1090242","1328943","CDF_1998_56_2234_11154       ","NONFED","ST-CACDF","ST/C&L","USCATUU","Tulare Unit","CATUU","Tulare Unit","","11154       ","","OZIATT                   ","","","","","","1998","1998/07/25 00:00:00+00","206","","Human","Missing data/not specified/undetermined","","","","","0.5","B","36.34888888","-119.41194444","MISSING/NOT SPECIFIED","CA","","",""
"-119.294987411","36.523050501","1090243","1328944","CDF_1998_56_2234_11160       ","NONFED","ST-CACDF","ST/C&L","USCATUU","Tulare Unit","CATUU","Tulare Unit","","11160       ","","CO #46                   ","","","","","","1998","1998/07/26 00:00:00+00","207","","Human","Missing data/not specified/undetermined","","","","","0.1","A","36.52305555","-119.295","MISSING/NOT SPECIFIED","CA","","",""
"-119.41193185","36.348883856","1090244","1328945","CDF_1998_56_2234_11161       ","NONFED","ST-CACDF","ST/C&L","USCATUU","Tulare Unit","CATUU","Tulare Unit","","11161       ","","OZIATT                   ","","","","","","1998","1998/07/26 00:00:00+00","207","","Human","Missing data/not specified/undetermined","","","","","0.5","B","36.34888888","-119.41194444","MISSING/NOT SPECIFIED","CA","","",""
"-119.438876268","36.52499496","1090245","1328946","CDF_1998_56_2234_11156       ","NONFED","ST-CACDF","ST/C&L","USCATUU","Tulare Unit","CATUU","Tulare Unit","","11156       ","","VAN DER HOEK             ","","","","","","1998","1998/07/26 00:00:00+00","207","","Human","Arson/incendiarism","","","","","0.2","A","36.525","-119.43888888","MISSING/NOT SPECIFIED","CA","","",""
"-119.204987467","36.116939425","1090246","1328947","CDF_1998_56_2234_11162       ","NONFED","ST-CACDF","ST/C&L","USCATUU","Tulare Unit","CATUU","Tulare Unit","","11162       ","","BERTORELLI               ","","","","","","1998","1998/07/26 00:00:00+00","207","","Human","Arson/incendiarism","","","","","0.5","B","36.11694444","-119.205","MISSING/NOT SPECIFIED","CA","","",""
"-118.989987527","35.869994996","1090247","1328948","CDF_1998_56_2234_115         ","NONFED","ST-CACDF","ST/C&L","USCATUU","Tulare Unit","CATUU","Tulare Unit","","115         ","","PUREWAL                  ","","","","","","1998","1998/07/26 00:00:00+00","207","","Human","Equipment and vehicle use","","","","","15","C","35.87","-118.99","MISSING/NOT SPECIFIED","CA","","",""
"-119.41193185","36.348883856","1090248","1328949","CDF_1998_56_2234_11176       ","NONFED","ST-CACDF","ST/C&L","USCATUU","Tulare Unit","CATUU","Tulare Unit","","11176       ","","GOSHEN                   ","","","","","","1998","1998/07/27 00:00:00+00","208","","Human","Missing data/not specified/undetermined","","","","","100","D","36.34888888","-119.41194444","MISSING/NOT SPECIFIED","CA","","",""
"-118.804987523","36.216106059","1090249","1328950","CDF_1998_56_2234_118         ","NONFED","ST-CACDF","ST/C&L","USCATUU","Tulare Unit","CATUU","Tulare Unit","","118         ","","HARRIS                   ","","","","","","1998","1998/07/27 00:00:00+00","208","","Human","Missing data/not specified/undetermined","","","","","1","B","36.21611111","-118.805","MISSING/NOT SPECIFIED","CA","","",""
"-119.483042957","36.261939429","1090250","1328951","CDF_1998_56_2234_11223       ","NONFED","ST-CACDF","ST/C&L","USCATUU","Tulare Unit","CATUU","Tulare Unit","","11223       ","","BOSWELL                  ","","","","","","1998","1998/08/01 00:00:00+00","213","","Human","Arson/incendiarism","","","","","100","D","36.26194444","-119.48305555","MISSING/NOT SPECIFIED","CA","","",""
"-119.124987457","36.348050507","1090251","1328952","CDF_1998_56_2234_11227       ","NONFED","ST-CACDF","ST/C&L","USCATUU","Tulare Unit","CATUU","Tulare Unit","","11227       ","","STATE OF CA. #16         ","","","","","","1998","1998/08/01 00:00:00+00","213","","Human","Equipment and vehicle use","","","","","0.1","A","36.34805555","-119.125","MISSING/NOT SPECIFIED","CA","","",""
"-118.786931966","36.216106058","1090252","1328953","CDF_1998_56_2234_126         ","NONFED","ST-CACDF","ST/C&L","USCATUU","Tulare Unit","CATUU","Tulare Unit","","126         ","","CAMPBELL                 ","","","","","","1998","1998/08/01 00:00:00+00","213","","Human","Equipment and vehicle use","","","","","2","B","36.21611111","-118.78694444","MISSING/NOT SPECIFIED","CA","","",""
"-119.526931876","35.898883908","1090253","1328954","CDF_1998_56_2234_11244       ","NONFED","ST-CACDF","ST/C&L","USCATUU","Tulare Unit","CATUU","Tulare Unit","","11244       ","","ORISIO                   ","","","","","","1998","1998/08/03 00:00:00+00","215","","Human","Missing data/not specified/undetermined","","","","","2","B","35.89888888","-119.52694444","MISSING/NOT SPECIFIED","CA","","",""
"-119.313042958","36.523883832","1090254","1328955","CDF_1998_56_2234_11245       ","NONFED","ST-CACDF","ST/C&L","USCATUU","Tulare Unit","CATUU","Tulare Unit","","11245       ","","CO #62                   ","","","","","","1998","1998/08/03 00:00:00+00","215","","Human","Missing data/not specified/undetermined","","","","","0.1","A","36.52388888","-119.31305555","MISSING/NOT SPECIFIED","CA","","",""
"-119.499987382","36.481106078","1090255","1328956","CDF_1998_56_2234_11248       ","NONFED","ST-CACDF","ST/C&L","USCATUU","Tulare Unit","CATUU","Tulare Unit","","11248       ","","STATE OF CALIF 19        ","","","","","","1998","1998/08/04 00:00:00+00","216","","Human","Equipment and vehicle use","","","","","0.2","A","36.48111111","-119.5","MISSING/NOT SPECIFIED","CA","","",""
"-119.41193185","36.348883856","1090256","1328957","CDF_1998_56_2234_11043       ","NONFED","ST-CACDF","ST/C&L","USCATUU","Tulare Unit","CATUU","Tulare Unit","","11043       ","","SPRR#8                   ","","","","","","1998","1998/07/10 00:00:00+00","191","","Human","Arson/incendiarism","","","","","2","B","36.34888888","-119.41194444","MISSING/NOT SPECIFIED","CA","","",""
