"ï»¿X","Y","OBJECTID","FOD_ID","FPA_ID","SOURCE_SYSTEM_TYPE","SOURCE_SYSTEM","NWCG_REPORTING_AGENCY","NWCG_REPORTING_UNIT_ID","NWCG_REPORTING_UNIT_NAME","SOURCE_REPORTING_UNIT","SOURCE_REPORTING_UNIT_NAME","LOCAL_FIRE_REPORT_ID","LOCAL_INCIDENT_ID","FIRE_CODE","FIRE_NAME","ICS_209_PLUS_INCIDENT_JOIN_ID","ICS_209_PLUS_COMPLEX_JOIN_ID","MTBS_ID","MTBS_FIRE_NAME","COMPLEX_NAME","FIRE_YEAR","DISCOVERY_DATE","DISCOVERY_DOY","DISCOVERY_TIME","NWCG_CAUSE_CLASSIFICATION","NWCG_GENERAL_CAUSE","NWCG_CAUSE_AGE_CATEGORY","CONT_DATE","CONT_DOY","CONT_TIME","FIRE_SIZE","FIRE_SIZE_CLASS","LATITUDE","LONGITUDE","OWNER_DESCR","STATE","COUNTY","FIPS_CODE","FIPS_NAME"
"-118.400543207","35.631939423","1640001","201765854","FS-1514635","FED","FS-FIRESTAT","FS","USCASQF","Sequoia National Forest","0513","Sequoia National Forest","009","008","EK14","BRUSH","","","","","","2013","2013/07/22 00:00:00+00","203","1315","Natural","Natural","","2013/07/23 00:00:00+00","204","1500","0.1","A","35.63194444","-118.40055556","USFS","CA","107","06107","Tulare County"
"-116.916376921","34.161106167","1640002","201765855","FS-1516922","FED","FS-FIRESTAT","FS","USCABDF","San Bernardino National Forest","0512","San Bernardino National Forest","027","6","EK13","RADFORD","","","","","","2013","2013/05/11 00:00:00+00","131","1014","Natural","Natural","","2013/05/11 00:00:00+00","131","1251","0.1","A","34.16111111","-116.91638889","USFS","CA","071","06071","San Bernardino County"
"-118.80331978","44.004160925","1640003","201765856","FS-1518081","FED","FS-FIRESTAT","FS","USORMAF","Malheur National Forest","0604","Malheur National Forest","127","22","EK2D","HILL","","","","","","2013","2013/09/05 00:00:00+00","248","1044","Natural","Natural","","2013/09/05 00:00:00+00","248","1300","0.1","A","44.00416667","-118.80333333","USFS","OR","025","41025","Harney County"
"-115.551931158","45.726660476","1640004","201765857","FS-1518420","FED","FS-FIRESTAT","FS","USIDNCF","Nez Perce - Clearwater National Forests","0117","Nezperce National Forest","026","1708-11","EKT5","FIVE MILE","","","","","","2013","2013/07/21 00:00:00+00","202","1530","Natural","Natural","","2013/07/23 00:00:00+00","204","0910","0.25","A","45.72666667","-115.55194444","USFS","ID","049","16049","Idaho County"
"-120.869431187","39.964161427","1640005","201765858","FS-1511928","FED","FS-FIRESTAT","FS","USCAPNF","Plumas National Forest","0511","Plumas National Forest","009","004","EK12","JOHNSON HILL","","","","","","2013","2013/05/05 00:00:00+00","125","1552","Natural","Natural","","2013/05/05 00:00:00+00","125","1839","0.1","A","39.96416667","-120.86944444","USFS","CA","063","06063","Plumas County"
"-108.042489612","35.833605435","1640006","201765859","FS-1512749","FED","FS-FIRESTAT","FS","USNMCIF","Cibola National Forest","0303","Cibola National Forest","044","15","EKV2","QUARTZ","","","","","","2013","2013/06/17 00:00:00+00","168","1100","Natural","Natural","","2013/06/18 00:00:00+00","169","1115","0.25","A","35.83361111","-108.0425","USFS","NM","006","35006","Cibola County"
"-106.826100927","36.484994159","1640007","201765861","FS-1512943","FED","FS-FIRESTAT","FS","USNMSNF","Santa Fe National Forest","0310","Santa Fe National Forest","031","3","EKV9","RATTLE SNAKE","","","","","","2013","2013/06/29 00:00:00+00","180","0945","Natural","Natural","","2013/06/30 00:00:00+00","181","1316","0.1","A","36.485","-106.82611111","USFS","NM","039","35039","Rio Arriba County"
"-123.53554163","41.791939289","1640008","201765862","FS-1516381","FED","FS-FIRESTAT","FS","USCAKNF","Klamath National Forest","0505","Klamath National Forest","126","39","EK1W","TENMILE","","","","","","2013","2013/08/23 00:00:00+00","235","1430","Natural","Natural","","2013/08/26 00:00:00+00","238","1000","0.1","A","41.79194444","-123.53555556","USFS","CA","093","06093","Siskiyou County"
"-121.689707936","45.315827777","1640009","201765863","FS-1516429","FED","FS-FIRESTAT","FS","USORMHF","Mt. Hood National Forest","0606","Mt. Hood National Forest","031","HR-603","EK2F","525","","","","","","2013","2013/08/11 00:00:00+00","223","1245","Natural","Natural","","2013/08/12 00:00:00+00","224","1309","0.1","A","45.31583333","-121.68972222","USFS","OR","027","41027","Hood River County"
"-106.477767446","38.74332715","1640010","201765864","FS-1516793","FED","FS-FIRESTAT","FS","USCOGMF","Grand Mesa, Uncompahgre and Gunnison National Forests","0204","Gr Mesa, Unc & Gunn Nat For","266","266","HY3Y","TIN CUP","","","","","","2013","2013/09/08 00:00:00+00","251","1430","Human","Recreation and ceremony","","2013/09/08 00:00:00+00","251","1500","0.1","A","38.74333333","-106.47777778","USFS","CO","051","08051","Gunnison County"
"-112.094154141","45.431660171","1640011","201765865","FS-1514404","FED","FS-FIRESTAT","FS","USMTBDF","Beaverhead-Deerlodge National Forest","0102","Beaverhead-Deerlodge NF","029","6-4","EKS3","RAM HORN","","","","","","2013","2013/08/09 00:00:00+00","221","1016","Natural","Natural","","2013/08/10 00:00:00+00","222","1358","0.1","A","45.43166667","-112.09416667","USFS","MT","057","30057","Madison County"
"-120.750264268","41.858883487","1640012","201765866","FS-1514165","FED","FS-FIRESTAT","FS","USCAMDF","Modoc National Forest","0509","Modoc National Forest","021","293","HNQ2","MDF DG WILLOW","","","","","","2013","2013/07/04 00:00:00+00","185","0841","Human","Debris and open burning","","2013/07/04 00:00:00+00","185","1553","0.1","A","41.85888889","-120.75027778","USFS","CA","049","06049","Modoc County"
"-120.081374239","48.155549666","1640013","201765867","FS-1514291","FED","FS-FIRESTAT","FS","USWAOWF","Okanogan-Wenatchee National Forest","0617","Wenatchee National Forest","011","402","EK2Q","MCFARLAND","","","","","","2013","2013/06/29 00:00:00+00","180","0915","Natural","Natural","","2013/06/29 00:00:00+00","180","1300","0.01","A","48.15555556","-120.08138889","USFS","WA","047","53047","Okanogan County"
"-118.583041085","48.526382809","1640014","201765868","FS-1513490","FED","FS-FIRESTAT","FS","USWACOF","Colville National Forest","0621","Colville National Forest","001","466","EK2S","FOR YOU GRANITE","","","","","","2013","2013/07/17 00:00:00+00","198","1356","Natural","Natural","","2013/07/18 00:00:00+00","199","0700","0.01","A","48.52638889","-118.58305556","USFS","WA","019","53019","Ferry County"
"-121.944707578","46.793049946","1640015","201765869","FS-1516874","FED","FS-FIRESTAT","FS","USWAGPF","Gifford Pinchot National Forest","0603","Gifford Pinchot National Frst","012","COV-501","EK2C","405","","","","","","2013","2013/08/10 00:00:00+00","222","1100","Natural","Natural","","2013/08/10 00:00:00+00","222","1500","0.1","A","46.79305556","-121.94472222","USFS","WA","041","53041","Lewis County"
"-116.791097699","45.193882859","1640016","201765870","FS-1513362","FED","FS-FIRESTAT","FS","USORWWF","Wallowa-Whitman National Forest","0616","Wallowa-Whitman National For","027","486","EK2N","CRAZY MAN","","","","","","2013","2013/07/17 00:00:00+00","198","0844","Natural","Natural","","2013/07/17 00:00:00+00","198","1937","0.1","A","45.19388889","-116.79111111","USFS","OR","063","41063","Wallowa County"
"-109.714988064","44.980548887","1640017","201765871","FS-1518527","FED","FS-FIRESTAT","FS","USWYSHF","Shoshone National Forest","0214","Shoshone National Forest","026","WY-SHF-382","EKU8","LOST LAKE","2013_WY-SHF-382_LOST LAKE","","","","","2013","2013/08/16 00:00:00+00","228","1612","Natural","Natural","","2013/08/17 00:00:00+00","229","1200","123","D","44.98055556","-109.715","USFS","WY","029","56029","Park County"
"-112.144709481","46.452493412","1640018","201765872","FS-1518786","FED","FS-FIRESTAT","FS","USMTHLF","Helena - Lewis and Clark National Forest","0112","Helena National Forest","042","301","EKT0","LITTLE CORRAL","","","","","","2013","2013/11/06 00:00:00+00","310","0845","Human","Missing data/not specified/undetermined","","2013/11/06 00:00:00+00","310","0855","0.1","A","46.4525","-112.14472222","USFS","MT","043","30043","Jefferson County"
"-113.979986465","48.341937879","1640019","201765873","FS-1514153","FED","FS-FIRESTAT","FS","USMTFNF","Flathead National Forest","0110","Flathead National Forest","021","WCAD 197","HS2Q","ABBOT BAY","","","","","","2013","2013/07/28 00:00:00+00","209","1916","Human","Recreation and ceremony","","2013/07/28 00:00:00+00","209","2025","0.1","A","48.34194444","-113.98","USFS","MT","029","30029","Flathead County"
"-121.063597901","39.406939258","1640020","201765874","FS-1519194","FED","FS-FIRESTAT","FS","USCATNF","Tahoe National Forest","0517","Tahoe National Forest","081","26","H0EL","CELESTIAL","","","","","","2013","2013/10/20 00:00:00+00","293","1837","Human","Equipment and vehicle use","","2013/10/20 00:00:00+00","293","2050","0.2","A","39.40694444","-121.06361111","STATE OR PRIVATE","CA","115","06115","Yuba County"
"-113.366375631","47.691937867","1640021","201765875","FS-1514146","FED","FS-FIRESTAT","FS","USMTFNF","Flathead National Forest","0110","Flathead National Forest","018","WCAD 180","HQ5V","INDEPENDENCE PARK","","","","","","2013","2013/07/22 00:00:00+00","203","1822","Human","Recreation and ceremony","","2013/07/25 00:00:00+00","206","1410","1.1","B","47.69194444","-113.36638889","USFS","MT","029","30029","Flathead County"
"-110.528877102","43.052771381","1640022","201765876","FS-1518395","FED","FS-FIRESTAT","FS","USWYBTF","Bridger-Teton National Forest","0403","Bridger-Teton N.F.","054","","H0HC","JAMB CREEK","","","","","","2013","2013/10/24 00:00:00+00","297","1325","Human","Recreation and ceremony","","2013/10/24 00:00:00+00","297","1400","0.1","A","43.05277778","-110.52888889","USFS","WY","035","56035","Sublette County"
"-121.240263832","43.953883381","1640023","201765877","FS-1518846","FED","FS-FIRESTAT","FS","USORDEF","Deschutes National Forest","0601","Deschutes National Forest","187","1-121","HYM0","0769","","","","","","2013","2013/09/04 00:00:00+00","247","1818","Human","Debris and open burning","","2013/09/04 00:00:00+00","247","1840","0.1","A","43.95388889","-121.24027778","USFS","OR","017","41017","Deschutes County"
"-111.278044558","35.193605713","1640024","201765878","FS-1512687","FED","FS-FIRESTAT","FS","USAZCOF","Coconino National Forest","0304","Coconino National Forest","051","33","G9AY","ANGELL","","","","","","2013","2013/06/09 00:00:00+00","160","0608","Human","Railroad operations and maintenance","","2013/06/09 00:00:00+00","160","0845","0.1","A","35.19361111","-111.27805556","USFS","AZ","005","04005","Coconino County"
"-118.431098835","34.717217302","1640025","201765879","FS-1511484","FED","FS-FIRESTAT","FS","USCAANF","Angeles National Forest","0501","Angeles National Forest","018","15","EN0A","FAIRMONT","","","","","","2013","2013/03/10 00:00:00+00","69","1728","Human","Arson/incendiarism","","2013/03/10 00:00:00+00","69","1820","2","B","34.71722222","-118.43111111","MISSING/NOT SPECIFIED","CA","037","06037","Los Angeles County"
"-117.852765645","34.221383993","1640026","201765880","FS-1515854","FED","FS-FIRESTAT","FS","USCAANF","Angeles National Forest","0501","Angeles National Forest","130","19","EK1S","HONEYBEE","","","","","","2013","2013/08/27 00:00:00+00","239","2150","Human","Missing data/not specified/undetermined","","2013/08/27 00:00:00+00","239","2245","1","B","34.22138889","-117.85277778","USFS","CA","037","06037","Los Angeles County"
"-117.417208582","45.750549548","1640027","201765881","FS-1514478","FED","FS-FIRESTAT","FS","USORWWF","Wallowa-Whitman National Forest","0616","Wallowa-Whitman National For","069","793","EK2N","WASHBOARD","","","","","","2013","2013/08/11 00:00:00+00","223","1916","Natural","Natural","","2013/08/11 00:00:00+00","223","2300","0.1","A","45.75055556","-117.41722222","USFS","OR","063","41063","Wallowa County"
"-116.614152783","47.6008271","1640028","201765882","FS-1517825","FED","FS-FIRESTAT","FS","USIDIPF","Idaho Panhandle National Forest","0104","Idaho Panhandle Natl Forests","086","1027","EKS5","ELK MOUNTAIN","","","","","","2013","2013/09/03 00:00:00+00","246","1330","Natural","Natural","","2013/09/05 00:00:00+00","248","0803","0.1","A","47.60083333","-116.61416667","USFS","ID","055","16055","Kootenai County"
"-121.111931126","40.129439203","1640029","201765883","FS-1512463","FED","FS-FIRESTAT","FS","USCAPNF","Plumas National Forest","0511","Plumas National Forest","019","007","EK12","MINE","","","","","","2013","2013/06/10 00:00:00+00","161","1413","Natural","Natural","","2013/06/10 00:00:00+00","161","1801","0.1","A","40.12944444","-121.11194444","USFS","CA","063","06063","Plumas County"
"-116.483875033","47.579160428","1640030","201765884","FS-1517894","FED","FS-FIRESTAT","FS","USIDIPF","Idaho Panhandle National Forest","0104","Idaho Panhandle Natl Forests","096","1-031","EKS5","DOYLE","","","","","","2013","2013/09/11 00:00:00+00","254","0926","Natural","Natural","","2013/09/12 00:00:00+00","255","1605","0.1","A","47.57916667","-116.48388889","USFS","ID","055","16055","Kootenai County"
"-123.391097388","40.56471714","1640031","201765885","FS-1514823","FED","FS-FIRESTAT","FS","USCASHF","Shasta-Trinity National Forest","0514","Shasta-Trinity National Forest","086","16","EK15","OAK","","","","","","2013","2013/08/09 00:00:00+00","221","1757","Natural","Natural","","2013/08/09 00:00:00+00","221","2030","0.01","A","40.56472222","-123.39111111","USFS","CA","105","06105","Trinity County"
"-122.039152457","44.680827851","1640032","201765886","FS-1516111","FED","FS-FIRESTAT","FS","USORWIF","Willamette National Forest","0618","Willamette National Forest","076","DE-17","EK2R","INCIDENT 180","","","","","","2013","2013/08/12 00:00:00+00","224","1415","Natural","Natural","","2013/08/15 00:00:00+00","227","1230","0.3","B","44.68083333","-122.03916667","USFS","OR","043","41043","Linn County"
"-112.118877576","36.756661123","1640033","201765887","FS-1513746","FED","FS-FIRESTAT","FS","USAZKNF","Kaibab National Forest","0307","Kaibab National Forest","042","13","EKV6","TRAIL","","","","","","2013","2013/07/06 00:00:00+00","187","1228","Natural","Natural","","2013/07/07 00:00:00+00","188","1036","0.1","A","36.75666667","-112.11888889","USFS","AZ","005","04005","Coconino County"
"-108.462211888","34.076661274","1640034","201765888","FS-1519464","FED","FS-FIRESTAT","FS","USNMGNF","Gila National Forest","0306","Gila National Forest","114","38","EKV5","HORSE","","","","","","2013","2013/08/05 00:00:00+00","217","1014","Natural","Natural","","2013/08/05 00:00:00+00","217","1600","0.1","A","34.07666667","-108.46222222","USFS","NM","003","35003","Catron County"
"-85.849716806","43.779991726","1640035","201765889","FS-1511946","FED","FS-FIRESTAT","FS","USMIHMF","Huron-Manistee National Forest","0904","Huron-Manistee National Forest","044","130044","EK3D","SISSY","","","","","","2013","2013/04/29 00:00:00+00","119","1525","Human","Debris and open burning","","2013/04/29 00:00:00+00","119","1745","1","B","43.78","-85.84972222","STATE OR PRIVATE","MI","123","26123","Newaygo County"
"-111.649711257","33.81499481","1640036","201765890","FS-1512675","FED","FS-FIRESTAT","FS","USAZTNF","Tonto National Forest","0312","Tonto National Forest","057","08","EKW0","SMALL","","","","","","2013","2013/06/22 00:00:00+00","173","0800","Human","Recreation and ceremony","","2013/06/22 00:00:00+00","173","1445","0.1","A","33.815","-111.64972222","USFS","AZ","013","04013","Maricopa County"
"-83.653884074","44.516658152","1640037","201765891","FS-1512375","FED","FS-FIRESTAT","FS","USMIHMF","Huron-Manistee National Forest","0904","Huron-Manistee National Forest","050","130050","EK3D","QUICK ROAD","2013_MI-HMF-130050_QUICK ROAD","","","","","2013","2013/05/02 00:00:00+00","122","1424","Human","Debris and open burning","","2013/05/03 00:00:00+00","123","2011","54","C","44.51666667","-83.65388889","STATE OR PRIVATE","MI","001","26001","Alcona County"
"-118.399708611","44.703049723","1640038","201765892","FS-1516057","FED","FS-FIRESTAT","FS","USORWWF","Wallowa-Whitman National Forest","0616","Wallowa-Whitman National For","119","1128","EK2N","WINTERVILLE","","","","","","2013","2013/09/06 00:00:00+00","249","0948","Natural","Natural","","2013/09/06 00:00:00+00","249","1546","0.1","A","44.70305556","-118.39972222","USFS","OR","001","41001","Baker County"
"-92.662215858","31.138605534","1640039","201765893","FS-1511730","FED","FS-FIRESTAT","FS","USLAKIF","Kisatchie National Forest","0806","Kisatchie National Forest","007","D2/03","HCR3","007  TOMMY MELDER","","","","","","2013","2013/03/04 00:00:00+00","63","1930","Human","Power generation/transmission/distribution","","2013/03/04 00:00:00+00","63","1950","0.6","B","31.13861111","-92.66222222","USFS","LA","079","22079","Rapides Parish"
"-110.648322527","34.324439126","1640040","201765894","FS-1513720","FED","FS-FIRESTAT","FS","USAZASF","Apache-Sitgreaves National Forest","0301","Apache-Sitgreaves Natl Forests","052","020","EKV0","OVERGAARD","","","","","","2013","2013/07/06 00:00:00+00","187","1444","Natural","Natural","","2013/07/08 00:00:00+00","189","1430","0.1","A","34.32444444","-110.64833333","USFS","AZ","017","04017","Navajo County"
"-111.429710684","39.95193846","1640041","201765895","FS-1516976","FED","FS-FIRESTAT","FS","USUTMLF","Manti-Lasal National Forest","0410","Manti-LaSal National Forest","035","UTMLF-3296","EKW6","COAL HOLLOW","","","","","","2013","2013/08/11 00:00:00+00","223","1720","Natural","Natural","","2013/08/12 00:00:00+00","224","1435","1","B","39.95194444","-111.42972222","USFS","UT","049","49049","Utah County"
"-106.434156021","41.416937904","1640042","201765896","FS-1517272","FED","FS-FIRESTAT","FS","USWYMRF","Medicine Bow-Routt National Forests, Thunder Basin National Grassland","0206","Medicine Bow National Forest","210","210","EKU1","NORTH BRUSH","","","","","","2013","2013/09/21 00:00:00+00","264","1000","Natural","Natural","","2013/09/21 00:00:00+00","264","1325","0.1","A","41.41694444","-106.43416667","USFS","WY","007","56007","Carbon County"
"-118.696376584","34.574439553","1640043","201765897","FS-1511297","FED","FS-FIRESTAT","FS","USCAANF","Angeles National Forest","0501","Angeles National Forest","004","04","HB1J","CRUISER","","","","","","2013","2013/01/13 00:00:00+00","13","1007","Human","Equipment and vehicle use","","2013/01/13 00:00:00+00","13","1025","0.1","A","34.57444444","-118.69638889","USFS","CA","037","06037","Los Angeles County"
"-121.672208454","42.521939071","1640044","201765898","FS-1519998","FED","FS-FIRESTAT","FS","USORFWF","Fremont-Winema National Forest","0602","Fremont-Winema National Forest","131","335","EK2B","WALKSALOT","","","","","","2013","2013/09/18 00:00:00+00","261","1516","Natural","Natural","","2013/09/18 00:00:00+00","261","1914","0.1","A","42.52194444","-121.67222222","USFS","OR","035","41035","Klamath County"
"-120.119987027","38.736383692","1640045","201765899","FS-1516346","FED","FS-FIRESTAT","FS","USCAENF","Eldorado National Forest","0503","Eldorado National Forest","048","17","EK1U","CODY","","","","","","2013","2013/08/24 00:00:00+00","236","1249","Natural","Natural","","2013/08/25 00:00:00+00","237","1139","0.1","A","38.73638889","-120.12","USFS","CA","017","06017","El Dorado County"
"-116.776653461","44.125549615","1640046","201765900","FS-1512840","FED","FS-FIRESTAT","FS","USIDBOF","Boise National Forest","0402","Boise National Forest","014","263","HKU3","RA 1 PAYETTE COUNTY","","","","","","2013","2013/06/14 00:00:00+00","165","1738","Human","Missing data/not specified/undetermined","","2013/06/14 00:00:00+00","165","2300","0.1","A","44.12555556","-116.77666667","MISSING/NOT SPECIFIED","ID","075","16075","Payette County"
"-115.912208307","48.293604756","1640047","201765901","FS-1514708","FED","FS-FIRESTAT","FS","USMTKNF","Kootenai National Forest","0114","Kootenai National Forest","048","03","EKT1","THICKET","","","","","","2013","2013/08/01 00:00:00+00","213","1240","Natural","Natural","","2013/08/01 00:00:00+00","213","2000","0.1","A","48.29361111","-115.91222222","USFS","MT","053","30053","Lincoln County"
"-109.302766873","38.366660731","1640048","201765902","FS-1514599","FED","FS-FIRESTAT","FS","USUTMLF","Manti-Lasal National Forest","0410","Manti-LaSal National Forest","004","UTMLF-3082","HKM7","LACKEY FAN","2013_UT-MLF-3082_LACKEY FAN","","","","","2013","2013/06/13 00:00:00+00","164","1823","Natural","Natural","","2013/06/23 00:00:00+00","174","2000","904","E","38.36666667","-109.30277778","USFS","UT","037","49037","San Juan County"
"-108.670822991","33.579716908","1640049","201765903","FS-1513398","FED","FS-FIRESTAT","FS","USNMGNF","Gila National Forest","0306","Gila National Forest","059","17","EKV5","BULL BASIN","","","","","","2013","2013/07/03 00:00:00+00","184","1503","Natural","Natural","","2013/07/05 00:00:00+00","186","1254","1.5","B","33.57972222","-108.67083333","USFS","NM","003","35003","Catron County"
"-119.630542839","37.258328232","1640050","201765904","FS-1517711","FED","FS-FIRESTAT","FS","USCASNF","Sierra National Forest","0515","Sierra National Forest","080","16","EK16","GOAT","","","","","","2013","2013/09/22 00:00:00+00","265","1143","Natural","Natural","","2013/09/22 00:00:00+00","265","1330","0.1","A","37.25833333","-119.63055556","USFS","CA","039","06039","Madera County"
"-120.023875922","38.826105897","1640051","201765905","FS-1514054","FED","FS-FIRESTAT","FS","USCATMU","Lake Tahoe Basin Management Unit","0519","Lake Tahoe Basin Mgmt Unit","017","016609","HP85","UPPER TRUCKEE","","","","","","2013","2013/07/12 00:00:00+00","193","0812","Human","Arson/incendiarism","","2013/07/12 00:00:00+00","193","1240","0.1","A","38.82611111","-120.02388889","USFS","CA","017","06017","El Dorado County"
"-120.674986854","39.394161458","1640052","201765906","FS-1512517","FED","FS-FIRESTAT","FS","USCATNF","Tahoe National Forest","0517","Tahoe National Forest","006","003","HE89","CARR","","","","","","2013","2013/05/01 00:00:00+00","121","1600","Human","Power generation/transmission/distribution","","2013/05/01 00:00:00+00","121","2000","0.9","B","39.39416667","-120.675","USFS","CA","057","06057","Nevada County"
"-114.752764493","46.519715882","1640053","201765907","FS-1518742","FED","FS-FIRESTAT","FS","USIDNCF","Nez Perce - Clearwater National Forests","0105","Clearwater National Forest","048","0506-18","EKS6","PAPOOSE","","","","","","2013","2013/08/12 00:00:00+00","224","0813","Natural","Natural","","2013/08/14 00:00:00+00","226","1031","0.5","B","46.51972222","-114.75277778","USFS","ID","049","16049","Idaho County"
"-111.961655424","36.38277227","1640054","201765908","FS-1513756","FED","FS-FIRESTAT","FS","USAZKNF","Kaibab National Forest","0307","Kaibab National Forest","043","14","EKV6","SADDLE","","","","","","2013","2013/07/06 00:00:00+00","187","1304","Natural","Natural","","2013/07/07 00:00:00+00","188","1400","0.1","A","36.38277778","-111.96166667","USFS","AZ","005","04005","Coconino County"
"-113.963319805","48.31110455","1640055","201765909","FS-1517634","FED","FS-FIRESTAT","FS","USMTFNF","Flathead National Forest","0110","Flathead National Forest","042","327","HW0T","LOST JOHNNY","","","","","","2013","2013/08/21 00:00:00+00","233","1200","Human","Missing data/not specified/undetermined","","2013/08/21 00:00:00+00","233","1415","0.1","A","48.31111111","-113.96333333","USFS","MT","029","30029","Flathead County"
"-115.859986688","45.580549408","1640056","201765910","FS-1517819","FED","FS-FIRESTAT","FS","USIDNCF","Nez Perce - Clearwater National Forests","0117","Nezperce National Forest","158","","EKT5","ANCHOR","","","","","","2013","2013/09/02 00:00:00+00","245","1227","Natural","Natural","","2013/09/03 00:00:00+00","246","1300","0.1","A","45.58055556","-115.86","USFS","ID","049","16049","Idaho County"
"-119.121653048","44.098049838","1640057","201765911","FS-1516621","FED","FS-FIRESTAT","FS","USORMAF","Malheur National Forest","0604","Malheur National Forest","090","BM-065","EK2D","13447","","","","","","2013","2013/09/06 00:00:00+00","249","1342","Natural","Natural","","2013/09/06 00:00:00+00","249","1905","0.1","A","44.09805556","-119.12166667","USFS","OR","023","41023","Grant County"
"-83.424995266","44.416102597","1640058","201765912","FS-1517253","FED","FS-FIRESTAT","FS","USMIHMF","Huron-Manistee National Forest","0904","Huron-Manistee National Forest","154","130154","HXC0","FOOTE SITE","","","","","","2013","2013/08/23 00:00:00+00","235","2014","Human","Recreation and ceremony","","2013/08/23 00:00:00+00","235","2130","2.7","B","44.41611111","-83.425","USFS","MI","069","26069","Iosco County"
"-114.843875449","47.153326951","1640059","201765913","FS-1512575","FED","FS-FIRESTAT","FS","USMTLNF","Lolo National Forest","0116","Lolo National Forest","011","01","HF8K","DIAMOND ROAD #1","","","","","","2013","2013/05/10 00:00:00+00","130","1500","Human","Debris and open burning","","2013/05/10 00:00:00+00","130","1915","1.25","B","47.15333333","-114.84388889","STATE OR PRIVATE","MT","061","30061","Mineral County"
"-83.78527293","44.45221372","1640060","201765914","FS-1511638","FED","FS-FIRESTAT","FS","USMIHMF","Huron-Manistee National Forest","0904","Huron-Manistee National Forest","015","130015","EK3D","WICKERT","","","","","","2013","2013/04/04 00:00:00+00","94","2102","Human","Recreation and ceremony","","2013/04/04 00:00:00+00","94","2144","0.1","A","44.45222222","-83.78527778","STATE OR PRIVATE","MI","069","26069","Iosco County"
"-115.445542215","46.143882651","1640061","201765915","FS-1517300","FED","FS-FIRESTAT","FS","USIDNCF","Nez Perce - Clearwater National Forests","0117","Nezperce National Forest","068","NPF-676","EKT5","COOLWATER","","","","","","2013","2013/08/13 00:00:00+00","225","0633","Natural","Natural","","2013/08/13 00:00:00+00","225","1928","0.1","A","46.14388889","-115.44555556","USFS","ID","049","16049","Idaho County"
"-105.653323631","33.749716728","1640062","201765916","FS-1513708","FED","FS-FIRESTAT","FS","USNMLNF","Lincoln National Forest","0308","Lincoln National Forest","011","011","EKV7","PATOS 2","","","","","","2013","2013/06/30 00:00:00+00","181","1632","Natural","Natural","","2013/07/01 00:00:00+00","182","1055","1","B","33.74972222","-105.65333333","USFS","NM","027","35027","Lincoln County"
"-117.944710058","34.353050654","1640063","201765917","FS-1512001","FED","FS-FIRESTAT","FS","USCAANF","Angeles National Forest","0501","Angeles National Forest","028","3","EK1S","PANORAMA","","","","","","2013","2013/03/27 00:00:00+00","86","2141","Human","Recreation and ceremony","","2013/03/28 00:00:00+00","87","0646","0.1","A","34.35305556","-117.94472222","USFS","CA","037","06037","Los Angeles County"
"-83.439440441","35.048326584","1640064","201765918","FS-1511459","FED","FS-FIRESTAT","FS","USNCNCF","National Forests in North Carolina","0811","National Forests In N C","001","1","HB30","BALL CREEK","","","","","","2013","2013/01/24 00:00:00+00","24","1415","Human","Equipment and vehicle use","","2013/01/24 00:00:00+00","24","2000","55","C","35.04833333","-83.43944444","USFS","NC","113","37113","Macon County"
"-81.464163349","33.172493588","1640065","201765919","FS-1517507","FED","FS-FIRESTAT","FS","USSCSRF","Savannah River Forest","0836","Savannah River","002","013017","XFPR","PATTERSON BRANCH","","","","","","2013","2013/01/22 00:00:00+00","22","1434","Human","Debris and open burning","","2013/01/22 00:00:00+00","22","1500","15.4","C","33.1725","-81.46416667","OTHER FEDERAL","SC","011","45011","Barnwell County"
"-106.031656335","39.641104777","1640066","201765920","FS-1515751","FED","FS-FIRESTAT","FS","USCOWRF","White River National Forest","0215","White River National Forest","013","263","EKU9","FREY GULCH","","","","","","2013","2013/07/14 00:00:00+00","195","1119","Natural","Natural","","2013/07/14 00:00:00+00","195","1240","0.1","A","39.64111111","-106.03166667","USFS","CO","117","08117","Summit County"
"-113.193320531","45.653326914","1640067","201765921","FS-1514771","FED","FS-FIRESTAT","FS","USMTBDF","Beaverhead-Deerlodge National Forest","0102","Beaverhead-Deerlodge NF","040","2-7","HVR7","KELLY","2013_MT-BDF-000193_KELLY","","","","","2013","2013/08/15 00:00:00+00","227","1421","Natural","Natural","","2013/09/20 00:00:00+00","263","1800","45","C","45.65333333","-113.19333333","USFS","MT","001","30001","Beaverhead County"
"-123.327764037","40.77332823","1640068","201765922","FS-1512501","FED","FS-FIRESTAT","FS","USCASHF","Shasta-Trinity National Forest","0514","Shasta-Trinity National Forest","024","4","HKR1","DEL","","","","","","2013","2013/06/14 00:00:00+00","165","1050","Human","Recreation and ceremony","","2013/06/14 00:00:00+00","165","1116","0.01","A","40.77333333","-123.32777778","USFS","CA","105","06105","Trinity County"
"-121.680819732","41.466105818","1640069","201765923","FS-1513922","FED","FS-FIRESTAT","FS","USCASHF","Shasta-Trinity National Forest","0514","Shasta-Trinity National Forest","058","10","EK15","BOARDER","","","","","","2013","2013/07/24 00:00:00+00","205","1945","Natural","Natural","","2013/07/24 00:00:00+00","205","2001","0.2","A","41.46611111","-121.68083333","USFS","CA","093","06093","Siskiyou County"
"-117.03498696","42.871105295","1640070","201765924","FS-1516127","FED","FS-FIRESTAT","FS","USORWWF","Wallowa-Whitman National Forest","0616","Wallowa-Whitman National For","120","1152","EK2N","EAST FORK 2","","","","","","2013","2013/09/08 00:00:00+00","251","1507","Natural","Natural","","2013/09/08 00:00:00+00","251","1958","0.25","A","42.87111111","-117.035","USFS","OR","063","41063","Wallowa County"
"-77.088886802","34.777215307","1640071","201765925","FS-1512783","FED","FS-FIRESTAT","FS","USNCNCF","National Forests in North Carolina","0811","National Forests In N C","038","09","HH4Q","OLD CHURCH ROAD","","","","","","2013","2013/05/27 00:00:00+00","147","1845","Human","Arson/incendiarism","","2013/05/27 00:00:00+00","147","2359","48","C","34.77722222","-77.08888889","USFS","NC","031","37031","Carteret County"
"-93.76527111","31.479994395","1640072","201765926","FS-1515395","FED","FS-FIRESTAT","FS","USTXTXF","National Forests And Grasslands In Texas","0813","National Forests In Texas","038","04","EK28","ADMIRAL LANE","","","","","","2013","2013/08/15 00:00:00+00","227","1315","Human","Power generation/transmission/distribution","","2013/08/15 00:00:00+00","227","1700","0.2","A","31.48","-93.76527778","STATE OR PRIVATE","TX","403","48403","Sabine County"
"-123.133041665","41.944717022","1640073","201765927","FS-1519948","FED","FS-FIRESTAT","FS","USORRSF","Rogue River-Siskiyou National Forest","0610","Rogue River Siskiyou National Forest","073","073","EK2J","NABOB","","","","","","2013","2013/08/22 00:00:00+00","234","0800","Natural","Natural","","2013/08/25 00:00:00+00","237","1500","3.1","B","41.94472222","-123.13305556","USFS","CA","093","06093","Siskiyou County"
"-123.374986078","41.888328158","1640074","201765928","FS-1514543","FED","FS-FIRESTAT","FS","USCAKNF","Klamath National Forest","0505","Klamath National Forest","080","20","EK1W","JACKSON","","","","","","2013","2013/08/10 00:00:00+00","222","1230","Natural","Natural","","2013/08/10 00:00:00+00","222","1627","0.1","A","41.88833333","-123.375","USFS","CA","093","06093","Siskiyou County"
"-83.927217923","37.51971499","1640075","201765929","FS-1511725","FED","FS-FIRESTAT","FS","USKYDBF","Daniel Boone National Forest","0802","Daniel Boone National Forest","017","130036","HD23","WIND CAVE","2013_KY-DBF-130036_WIND CAVE","","KY3751908392720130403","WIND CAVE","","2013","2013/04/03 00:00:00+00","93","1603","Human","Arson/incendiarism","","2013/04/13 00:00:00+00","103","0800","715","E","37.51972222","-83.92722222","USFS","KY","109","21109","Jackson County"
"-121.536930191","45.262772215","1640076","201765930","FS-1515402","FED","FS-FIRESTAT","FS","USORMHF","Mt. Hood National Forest","0606","Mt. Hood National Forest","041","BAR-108","EK2F","566","","","","","","2013","2013/08/15 00:00:00+00","227","0930","Natural","Natural","","2013/08/15 00:00:00+00","227","1628","0.1","A","45.26277778","-121.53694444","USFS","OR","027","41027","Hood River County"
"-121.646374805","44.338050065","1640077","201765931","FS-1518798","FED","FS-FIRESTAT","FS","USORDEF","Deschutes National Forest","0601","Deschutes National Forest","050","5-018","HQM6","0297","","","","","","2013","2013/07/13 00:00:00+00","194","1738","Human","Smoking","","2013/07/13 00:00:00+00","194","2042","0.2","A","44.33805556","-121.64638889","USFS","OR","017","41017","Deschutes County"
"-115.698598184","43.662216215","1640078","201765932","FS-1516950","FED","FS-FIRESTAT","FS","USIDBOF","Boise National Forest","0402","Boise National Forest","154","1411","EKW2","TWIN SPRINGS","","","","","","2013","2013/09/13 00:00:00+00","256","1649","Natural","Natural","","2013/09/13 00:00:00+00","256","1930","6","B","43.66222222","-115.69861111","USFS","ID","039","16039","Elmore County"
"-76.78971976","42.490269291","1640079","201765933","FS-1520218","FED","FS-FIRESTAT","FS","USVTGMF","Green Mountain National Forest","0920","Green Mountain National Forest","005","VT-GMF-005","EK3Q","POTOMAC","","","","","","2013","2013/11/17 00:00:00+00","321","1000","Human","Recreation and ceremony","","2013/11/17 00:00:00+00","321","1040","2","B","42.49027778","-76.78972222","USFS","NY","097","36097","Schuyler County"
"-119.614431584","38.44916146","1640080","201765934","FS-1515185","FED","FS-FIRESTAT","FS","USNVHTF","Humboldt-Toiyabe National Forest","0417","Humboldt - Toiyabe National Forest","073","HTF-30544","EK1P","BULL","","","","","","2013","2013/08/22 00:00:00+00","234","0950","Natural","Natural","","2013/08/24 00:00:00+00","236","1000","0.25","A","38.44916667","-119.61444444","USFS","CA","003","06003","Alpine County"
"-120.220542122","41.934161214","1640081","201765935","FS-1517770","FED","FS-FIRESTAT","FS","USCAMDF","Modoc National Forest","0509","Modoc National Forest","116","887","EK10","MDF WM VIDA","","","","","","2013","2013/09/18 00:00:00+00","261","1013","Natural","Natural","","2013/09/20 00:00:00+00","263","0900","0.1","A","41.93416667","-120.22055556","USFS","CA","049","06049","Modoc County"
"-113.907208996","47.023882426","1640082","201765936","FS-1516150","FED","FS-FIRESTAT","FS","USMTLNF","Lolo National Forest","0116","Lolo National Forest","168","43","EKT4","CARTER LAKE","","","","","","2013","2013/09/02 00:00:00+00","245","1231","Natural","Natural","","2013/09/03 00:00:00+00","246","1000","0.2","A","47.02388889","-113.90722222","USFS","MT","039","30039","Granite County"
"-118.450264179","44.616383065","1640083","201765937","FS-1516568","FED","FS-FIRESTAT","FS","USORMAF","Malheur National Forest","0604","Malheur National Forest","075","BM-051","EK2D","13403","","","","","","2013","2013/09/04 00:00:00+00","247","1825","Natural","Natural","","2013/09/05 00:00:00+00","248","1443","0.1","A","44.61638889","-118.45027778","USFS","OR","023","41023","Grant County"
"-121.178318668","47.426105378","1640084","201765938","FS-1519295","FED","FS-FIRESTAT","FS","USWAOWF","Okanogan-Wenatchee National Forest","0617","Wenatchee National Forest","024","308","HP3P","COOPER LAKE","","","","","","2013","2013/07/09 00:00:00+00","190","1730","Natural","Natural","","2013/07/10 00:00:00+00","191","1800","0.1","A","47.42611111","-121.17833333","USFS","WA","037","53037","Kittitas County"
"-106.383600878","37.983605029","1640085","201765939","FS-1513441","FED","FS-FIRESTAT","FS","USCORGF","Rio Grande National Forest","0209","Rio Grande National Forest","014","CO-RGF-566","EKU4","MANN CREEK","","","","","","2013","2013/06/30 00:00:00+00","181","1802","Natural","Natural","","2013/06/30 00:00:00+00","181","2130","0.5","B","37.98361111","-106.38361111","USFS","CO","109","08109","Saguache County"
"-121.141653378","39.940828111","1640086","201765940","FS-1515703","FED","FS-FIRESTAT","FS","USCAPNF","Plumas National Forest","0511","Plumas National Forest","085","42","HX4W","WILD","","","","","","2013","2013/08/29 00:00:00+00","241","1532","Human","Recreation and ceremony","","2013/08/29 00:00:00+00","241","1855","0.1","A","39.94083333","-121.14166667","USFS","CA","063","06063","Plumas County"
"-108.189433878","37.343605234","1640087","201765941","FS-1516605","FED","FS-FIRESTAT","FS","USCOSJF","San Juan National Forest","0213","San Juan National Forest","083","P2EKU7","EKU7","TARGET TREE","","","","","","2013","2013/08/06 00:00:00+00","218","0900","Natural","Natural","","2013/08/06 00:00:00+00","218","0945","0.1","A","37.34361111","-108.18944444","USFS","CO","067","08067","La Plata County"
"-111.828600015","35.0094391","1640088","201765942","FS-1512891","FED","FS-FIRESTAT","FS","USAZCOF","Coconino National Forest","0304","Coconino National Forest","057","37","EKV3","BUZZARD","","","","","","2013","2013/06/15 00:00:00+00","166","1339","Natural","Natural","","2013/06/16 00:00:00+00","167","1400","0.1","A","35.00944444","-111.82861111","USFS","AZ","005","04005","Coconino County"
"-117.478876808","34.348883957","1640089","201765943","FS-1520046","FED","FS-FIRESTAT","FS","USCABDF","San Bernardino National Forest","0512","San Bernardino National Forest","117","12392","HZB9","SWITCH","","","","","","2013","2013/09/14 00:00:00+00","257","1618","Human","Equipment and vehicle use","","2013/09/14 00:00:00+00","257","1634","0.1","A","34.34888889","-117.47888889","USFS","CA","071","06071","San Bernardino County"
"-116.022486915","44.218327306","1640090","201765944","FS-1516946","FED","FS-FIRESTAT","FS","USIDBOF","Boise National Forest","0402","Boise National Forest","150","865","HRU3","SCRIVER (SITPA)","","","","","","2013","2013/07/20 00:00:00+00","201","1446","Natural","Natural","","2013/07/22 00:00:00+00","203","1100","0.5","B","44.21833333","-116.0225","USFS","ID","085","16085","Valley County"
"-111.449988173","42.046382676","1640091","201765945","FS-1516896","FED","FS-FIRESTAT","FS","USIDCTF","Caribou-Targhee National Forest","0415","Caribou-Targhee National Forest","053","013053","EK1N","FISH HAVEN #19","","","","","","2013","2013/08/04 00:00:00+00","216","1000","Human","Recreation and ceremony","","2013/08/04 00:00:00+00","216","1300","0.1","A","42.04638889","-111.45","USFS","ID","007","16007","Bear Lake County"
"-105.300267757","38.32110491","1640092","201765946","FS-1518753","FED","FS-FIRESTAT","FS","USCOPSF","Pike and San Isabel National Forest","0212","Pike & San Isabel N.F.","083","919","EKU6","CURLEY PEAK","","","","","","2013","2013/08/21 00:00:00+00","233","2123","Natural","Natural","","2013/08/22 00:00:00+00","234","1200","0.1","A","38.32111111","-105.30027778","USFS","CO","043","08043","Fremont County"
"-120.827764511","40.13110585","1640093","201765947","FS-1516860","FED","FS-FIRESTAT","FS","USCAPNF","Plumas National Forest","0511","Plumas National Forest","080","39","HV99","CEMETERY","2013_CA-PNF-1324_HOUGH COMPLEX","2013_CA-PNF-1324_HOUGH COMPLEX","","","HOUGH COMPLEX","2013","2013/08/21 00:00:00+00","233","1107","Natural","Natural","","2013/08/21 00:00:00+00","233","1200","0.1","A","40.13111111","-120.82777778","USFS","CA","063","06063","Plumas County"
"-71.300276992","44.264157652","1640094","201765948","FS-1511905","FED","FS-FIRESTAT","FS","USNHWMF","White Mountain National Forest","0922","White Mountain National Forest","002","002","HF5E","TUCKERMAN LIP","","","","","","2013","2013/05/07 00:00:00+00","127","1500","Human","Fireworks","","2013/05/07 00:00:00+00","127","1530","0.1","A","44.26416667","-71.30027778","USFS","NH","007","33007","Coos County"
"-111.539711142","35.474161252","1640095","201765949","FS-1517714","FED","FS-FIRESTAT","FS","USAZCOF","Coconino National Forest","0304","Coconino National Forest","198","134","EKV3","POINT","","","","","","2013","2013/08/18 00:00:00+00","230","1650","Natural","Natural","","2013/08/22 00:00:00+00","234","1125","0.1","A","35.47416667","-111.53972222","USFS","AZ","005","04005","Coconino County"
"-123.156375005","41.85999481","1640096","201765950","FS-1511524","FED","FS-FIRESTAT","FS","USCAKNF","Klamath National Forest","0505","Klamath National Forest","002","","HC18","SEIAD","","","","","","2013","2013/03/11 00:00:00+00","70","1738","Human","Arson/incendiarism","","2013/03/12 00:00:00+00","71","1009","0.1","A","41.86","-123.15638889","STATE OR PRIVATE","CA","093","06093","Siskiyou County"
"-120.789707347","48.556383052","1640097","201765951","FS-1514292","FED","FS-FIRESTAT","FS","USWAOWF","Okanogan-Wenatchee National Forest","0617","Wenatchee National Forest","039","405","EK2Q","SWAMP CREEK","","","","","","2013","2013/07/28 00:00:00+00","209","1915","Natural","Natural","","2013/07/30 00:00:00+00","211","2100","0.25","A","48.55638889","-120.78972222","USFS","WA","057","53057","Skagit County"
"-119.86220843","44.327494332","1640098","201765952","FS-1519035","FED","FS-FIRESTAT","FS","USOROCF","Ochoco National Forest","0607","Ochoco National Forest","055","2-023","EK2G","0785","","","","","","2013","2013/09/06 00:00:00+00","249","1310","Natural","Natural","","2013/09/06 00:00:00+00","249","1730","0.1","A","44.3275","-119.86222222","USFS","OR","069","41069","Wheeler County"
"-118.841375372","43.791383165","1640099","201765953","FS-1518100","FED","FS-FIRESTAT","FS","USORMAF","Malheur National Forest","0604","Malheur National Forest","107","2","HG4W","#3023","","","","","","2013","2013/05/16 00:00:00+00","136","0837","Human","Recreation and ceremony","","2013/05/16 00:00:00+00","136","1120","0.1","A","43.79138889","-118.84138889","USFS","OR","025","41025","Harney County"
"-112.386932882","38.544716474","1640100","201765954","FS-1512736","FED","FS-FIRESTAT","FS","USUTFIF","Fishlake National Forest","0408","Fishlake National Forest","006","RIF 001","HKJ5","MILL CREEK","","","","","","2013","2013/06/13 00:00:00+00","164","1335","Human","Power generation/transmission/distribution","","2013/06/13 00:00:00+00","164","1730","0.5","B","38.54472222","-112.38694444","USFS","UT","041","49041","Sevier County"
"-111.783044451","35.278605732","1640101","201765955","FS-1519709","FED","FS-FIRESTAT","FS","USAZCOF","Coconino National Forest","0304","Coconino National Forest","213","145","EKV3","MUSHROOM","","","","","","2013","2013/08/30 00:00:00+00","242","1551","Natural","Natural","","2013/09/01 00:00:00+00","244","1340","0.1","A","35.27861111","-111.78305556","USFS","AZ","005","04005","Coconino County"
"-114.21332014","46.568326935","1640102","201765956","FS-1519401","FED","FS-FIRESTAT","FS","USMTBRF","Bitterroot National Forest","0103","Bitterroot National Forest","047","8","EKS4","BROOKS POINT","2013_MT-BRF-013110_BROOKS POINT","","","","","2013","2013/08/15 00:00:00+00","227","2128","Natural","Natural","","2013/09/20 00:00:00+00","263","1800","3","B","46.56833333","-114.21333333","USFS","MT","081","30081","Ravalli County"
"-106.05526728","40.937493497","1640103","201765957","FS-1512393","FED","FS-FIRESTAT","FS","USCOARF","Arapaho and Roosevelt National Forests and Pawnee National Grassland","0210","Arapaho & Roosevelt Natl For","009","186","HJJ6","HOHNHOLZ","","","","","","2013","2013/06/02 00:00:00+00","153","1130","Human","Arson/incendiarism","Minor","2013/06/03 00:00:00+00","154","2000","29.3","C","40.9375","-106.05527778","USFS","CO","069","08069","Larimer County"
"-111.609155599","35.233605727","1640104","201765958","FS-1519542","FED","FS-FIRESTAT","FS","USAZCOF","Coconino National Forest","0304","Coconino National Forest","158","104","EKV3","DEVIL","","","","","","2013","2013/07/25 00:00:00+00","206","1649","Natural","Natural","","2013/07/26 00:00:00+00","207","1300","0.1","A","35.23361111","-111.60916667","USFS","AZ","005","04005","Coconino County"
"-119.890820362","38.993883652","1640105","201765959","FS-1513506","FED","FS-FIRESTAT","FS","USCATMU","Lake Tahoe Basin Management Unit","0519","Lake Tahoe Basin Mgmt Unit","015","016173","HP62","GENOA","","","","","","2013","2013/07/07 00:00:00+00","188","1447","Human","Recreation and ceremony","","2013/07/07 00:00:00+00","188","1530","0.1","A","38.99388889","-119.89083333","USFS","NV","005","32005","Douglas County"
"-120.895819697","42.462772344","1640106","201765960","FS-1515872","FED","FS-FIRESTAT","FS","USORFWF","Fremont-Winema National Forest","0602","Fremont-Winema National Forest","085","789","EK2B","GEARHART","","","","","","2013","2013/08/22 00:00:00+00","234","1433","Natural","Natural","","2013/08/23 00:00:00+00","235","2000","0.1","A","42.46277778","-120.89583333","USFS","OR","035","41035","Klamath County"
"-109.668322035","40.921382662","1640107","201765961","FS-1517842","FED","FS-FIRESTAT","FS","USUTASF","Ashley National Forest","0401","Ashley National Forest","022","UT-ASF-333","EKW1","SHEEP CREEK 2","","","","","","2013","2013/08/23 00:00:00+00","235","1730","Natural","Natural","","2013/08/24 00:00:00+00","236","1000","0.3","B","40.92138889","-109.66833333","USFS","UT","009","49009","Daggett County"
"-115.869986938","44.24888285","1640108","201765962","FS-1515415","FED","FS-FIRESTAT","FS","USIDBOF","Boise National Forest","0402","Boise National Forest","090","1185","EKW2","DOG","","","","","","2013","2013/08/22 00:00:00+00","234","1929","Natural","Natural","","2013/08/24 00:00:00+00","236","0800","0.4","B","44.24888889","-115.87","USFS","ID","015","16015","Boise County"
"-82.582773812","38.548603618","1640109","201765963","FS-1519841","FED","FS-FIRESTAT","FS","USOHWAF","Wayne National Forest","0914","Wayne National Forest","026","026","EK3M","FALSE ALARM 11/11/13","","","","","","2013","2013/11/11 00:00:00+00","315","1140","Human","Equipment and vehicle use","","2013/11/11 00:00:00+00","315","1200","0.25","A","38.54861111","-82.58277778","STATE OR PRIVATE","OH","087","39087","Lawrence County"
"-114.202486782","46.712771372","1640110","201765964","FS-1516152","FED","FS-FIRESTAT","FS","USMTLNF","Lolo National Forest","0116","Lolo National Forest","163","40","EKT4","CARLTON RIDGE","","","","","","2013","2013/08/31 00:00:00+00","243","0833","Natural","Natural","","2013/08/31 00:00:00+00","243","1700","0.1","A","46.71277778","-114.2025","USFS","MT","063","30063","Missoula County"
"-110.913878025","34.429994686","1640111","201765965","FS-1513541","FED","FS-FIRESTAT","FS","USAZASF","Apache-Sitgreaves National Forest","0301","Apache-Sitgreaves Natl Forests","014","007","HG88","WOLFE","","","","","","2013","2013/05/20 00:00:00+00","140","1255","Human","Recreation and ceremony","","2013/05/23 00:00:00+00","143","1630","5.5","B","34.43","-110.91388889","USFS","AZ","005","04005","Coconino County"
"-110.823600257","34.51166134","1640112","201765966","FS-1513554","FED","FS-FIRESTAT","FS","USAZASF","Apache-Sitgreaves National Forest","0301","Apache-Sitgreaves Natl Forests","015","008","HHY6","WEIMER","","","","","","2013","2013/05/25 00:00:00+00","145","1335","Human","Recreation and ceremony","","2013/05/26 00:00:00+00","146","1236","2.4","B","34.51166667","-110.82361111","USFS","AZ","005","04005","Coconino County"
"-122.955262744","47.784438883","1640113","201765967","FS-1518680","FED","FS-FIRESTAT","FS","USWAOLF","Olympic National Forest","0609","Olympic National Forest","001","201","EK2H","BIG QUILCENE","","","","","","2013","2013/07/17 00:00:00+00","198","1315","Natural","Natural","","2013/07/18 00:00:00+00","199","1250","0.1","A","47.78444444","-122.95527778","USFS","WA","031","53031","Jefferson County"
"-116.916376911","34.273328374","1640114","201765968","FS-1518571","FED","FS-FIRESTAT","FS","USCABDF","San Bernardino National Forest","0512","San Bernardino National Forest","095","28","EK13","QUARRY","","","","","","2013","2013/08/19 00:00:00+00","231","0926","Natural","Natural","","2013/08/19 00:00:00+00","231","1100","0.01","A","34.27333333","-116.91638889","USFS","CA","071","06071","San Bernardino County"
"-121.513874886","44.019716733","1640115","201765969","FS-1518746","FED","FS-FIRESTAT","FS","USORDEF","Deschutes National Forest","0601","Deschutes National Forest","211","1-135","H0MA","0868","","","","","","2013","2013/11/01 00:00:00+00","305","1500","Human","Recreation and ceremony","","2013/11/01 00:00:00+00","305","1800","0.1","A","44.01972222","-121.51388889","USFS","OR","017","41017","Deschutes County"
"-122.470819361","42.985272452","1640116","201765970","FS-1517022","FED","FS-FIRESTAT","FS","USORRSF","Rogue River-Siskiyou National Forest","0610","Rogue River Siskiyou National Forest","033","130504","EK2J","ROGUE","","","","","","2013","2013/08/07 00:00:00+00","219","1230","Natural","Natural","","2013/08/08 00:00:00+00","220","1430","0.1","A","42.98527778","-122.47083333","USFS","OR","029","41029","Jackson County"
"-103.5727674","44.218326218","1640117","201765971","FS-1513721","FED","FS-FIRESTAT","FS","USSDBKF","Black Hills National Forest","0203","Black Hills National Forest","041","2","EKT9","BENCHMARK","","","","","","2013","2013/07/24 00:00:00+00","205","1127","Natural","Natural","","2013/07/24 00:00:00+00","205","1600","0.01","A","44.21833333","-103.57277778","USFS","SD","081","46081","Lawrence County"
"-111.843322265","34.621939152","1640118","201765972","FS-1519552","FED","FS-FIRESTAT","FS","USAZCOF","Coconino National Forest","0304","Coconino National Forest","161","22","G9AY","MP 291 #4","","","","","","2013","2013/07/27 00:00:00+00","208","1013","Human","Missing data/not specified/undetermined","","2013/07/27 00:00:00+00","208","1045","0.1","A","34.62194444","-111.84333333","USFS","AZ","025","04025","Yavapai County"
"-115.591932527","36.166383636","1640119","201765973","FS-1515175","FED","FS-FIRESTAT","FS","USNVHTF","Humboldt-Toiyabe National Forest","0417","Humboldt - Toiyabe National Forest","050","P4HJM0","HJM0","SUMMIT","","","","","","2013","2013/06/02 00:00:00+00","153","1930","Human","Recreation and ceremony","","2013/06/03 00:00:00+00","154","1700","40","C","36.16638889","-115.59194444","USFS","NV","003","32003","Clark County"
"-114.44998716","44.533327133","1640120","201765974","FS-1514437","FED","FS-FIRESTAT","FS","USIDSCF","Salmon-Challis National Forest","0413","Salmon-Challis National Forest","015","0204","HRT7","LODGEPOLE","2013_ID-SCF-13165_LODGEPOLE","","ID4452811445820130720","LODGEPOLE","","2013","2013/07/20 00:00:00+00","201","1214","Natural","Natural","","2013/09/26 00:00:00+00","269","0959","22825","G","44.53333333","-114.45","USFS","ID","037","16037","Custer County"
"-84.340828958","36.836381814","1640121","201765975","FS-1511511","FED","FS-FIRESTAT","FS","USKYDBF","Daniel Boone National Forest","0802","Daniel Boone National Forest","004","130021","EK2U","FALLS","","","","","","2013","2013/03/15 00:00:00+00","74","1805","Human","Recreation and ceremony","","2013/03/15 00:00:00+00","74","1839","0.1","A","36.83638889","-84.34083333","STATE OR PRIVATE","KY","235","21235","Whitley County"
"-111.536654917","41.411660532","1640122","201765976","FS-1514592","FED","FS-FIRESTAT","FS","USUTUWF","Uinta-Wasatch-Cache National Forest","0419","Uinta-Wasatch-Cache National Forest","049","626","HU9T","DRY BREAD POND 6","","","","","","2013","2013/08/11 00:00:00+00","223","1210","Human","Recreation and ceremony","","2013/08/11 00:00:00+00","223","1225","0.01","A","41.41166667","-111.53666667","USFS","UT","057","49057","Weber County"
"-123.040541813","41.083050413","1640123","201765977","FS-1512059","FED","FS-FIRESTAT","FS","USCAKNF","Klamath National Forest","0505","Klamath National Forest","015","02","EK1W","CARIBOU","","","","","","2013","2013/05/17 00:00:00+00","137","1500","Natural","Natural","","2013/05/18 00:00:00+00","138","1400","0.01","A","41.08305556","-123.04055556","USFS","CA","093","06093","Siskiyou County"
"-111.236098916","44.586937943","1640124","201765978","FS-1517197","FED","FS-FIRESTAT","FS","USMTCGF","Custer Gallatin National Forest","0111","Gallatin National Forest","023","05","EKS9","MT TWO TOP","","","","","","2013","2013/08/30 00:00:00+00","242","1249","Natural","Natural","","2013/09/19 00:00:00+00","262","1800","148","D","44.58694444","-111.23611111","USFS","ID","043","16043","Fremont County"
"-119.216376094","38.496105866","1640125","201765979","FS-1516835","FED","FS-FIRESTAT","FS","USNVHTF","Humboldt-Toiyabe National Forest","0417","Humboldt - Toiyabe National Forest","102","502","EK1P","LONG DOCTOR","","","","","","2013","2013/08/17 00:00:00+00","229","1801","Natural","Natural","","2013/08/18 00:00:00+00","230","0700","0.1","A","38.49611111","-119.21638889","USFS","NV","019","32019","Lyon County"
"-115.737209195","44.179438393","1640126","201765980","FS-1516951","FED","FS-FIRESTAT","FS","USIDBOF","Boise National Forest","0402","Boise National Forest","155","1413","EKW2","GAGE","","","","","","2013","2013/09/13 00:00:00+00","256","1702","Natural","Natural","","2013/09/14 00:00:00+00","257","1430","0.1","A","44.17944444","-115.73722222","USFS","ID","015","16015","Boise County"
"-118.38332108","34.52582843","1640127","201765981","FS-1511326","FED","FS-FIRESTAT","FS","USCAANF","Angeles National Forest","0501","Angeles National Forest","003","03","EK1S","RING","","","","","","2013","2013/01/08 00:00:00+00","8","0939","Human","Recreation and ceremony","","2013/01/08 00:00:00+00","8","1030","0.1","A","34.52583333","-118.38333333","USFS","CA","037","06037","Los Angeles County"
"-115.778875799","44.49999393","1640128","201765982","FS-1515426","FED","FS-FIRESTAT","FS","USIDBOF","Boise National Forest","0402","Boise National Forest","101","1206","EKW2","RAILROAD","","","","","","2013","2013/08/23 00:00:00+00","235","1231","Natural","Natural","","2013/08/24 00:00:00+00","236","1332","0.1","A","44.5","-115.77888889","USFS","ID","085","16085","Valley County"
"-81.907218933","29.274161166","1640129","201765983","FS-1512143","FED","FS-FIRESTAT","FS","USFLFNF","National Forests in Florida","0805","National Forests In Florida","027","7","G9CF","PARAMORE 7","","","","","","2013","2013/03/10 00:00:00+00","69","1504","Human","Missing data/not specified/undetermined","","2013/03/11 00:00:00+00","70","1532","0.1","A","29.27416667","-81.90722222","STATE OR PRIVATE","FL","083","12083","Marion County"
"-121.903319262","44.02999455","1640130","201765984","FS-1514321","FED","FS-FIRESTAT","FS","USORWIF","Willamette National Forest","0618","Willamette National Forest","026","102","EK2R","WHISTLE","","","","","","2013","2013/08/02 00:00:00+00","214","1800","Natural","Natural","","2013/08/03 00:00:00+00","215","1200","0.1","A","44.03","-121.90333333","USFS","OR","039","41039","Lane County"
"-115.323597435","47.773604732","1640131","201765985","FS-1517463","FED","FS-FIRESTAT","FS","USMTKNF","Kootenai National Forest","0114","Kootenai National Forest","098","15","EKT1","VERMILION PEAK","","","","","","2013","2013/09/16 00:00:00+00","259","1840","Natural","Natural","","2013/10/29 00:00:00+00","302","1300","0.25","A","47.77361111","-115.32361111","USFS","MT","089","30089","Sanders County"
"-117.416654655","33.648050704","1640132","201765986","FS-1511464","FED","FS-FIRESTAT","FS","USCACNF","Cleveland National Forest","0502","Cleveland National Forest","008","2","EN0B","ORTEGA","","","","","","2013","2013/02/28 00:00:00+00","59","2216","Human","Other causes","","2013/02/28 00:00:00+00","59","2300","0.1","A","33.64805556","-117.41666667","STATE OR PRIVATE","CA","065","06065","Riverside County"
"-120.185542434","39.836939152","1640133","201765987","FS-1513022","FED","FS-FIRESTAT","FS","USCAPNF","Plumas National Forest","0511","Plumas National Forest","030","019","EK12","DOTTA","","","","","","2013","2013/07/03 00:00:00+00","184","0633","Natural","Natural","","2013/07/03 00:00:00+00","184","1130","0.1","A","39.83694444","-120.18555556","USFS","CA","063","06063","Plumas County"
"-120.992208925","40.128050313","1640134","201765988","FS-1515654","FED","FS-FIRESTAT","FS","USCAPNF","Plumas National Forest","0511","Plumas National Forest","059","28","HV99","PEERLESS","2013_CA-PNF-1324_HOUGH COMPLEX","2013_CA-PNF-1324_HOUGH COMPLEX","","","HOUGH COMPLEX","2013","2013/08/19 00:00:00+00","231","1756","Natural","Natural","","2013/08/20 00:00:00+00","232","1345","0.25","A","40.12805556","-120.99222222","USFS","CA","063","06063","Plumas County"
"-93.058882431","30.963883364","1640135","201765989","FS-1511767","FED","FS-FIRESTAT","FS","USLAKIF","Kisatchie National Forest","0806","Kisatchie National Forest","028","D2/13","EK21","028 STATE 3/13","","","","","","2013","2013/03/13 00:00:00+00","72","1915","Human","Debris and open burning","","2013/03/13 00:00:00+00","72","2100","10.7","C","30.96388889","-93.05888889","STATE OR PRIVATE","LA","115","22115","Vernon Parish"
"-111.189433498","34.704716884","1640136","201765990","FS-1519569","FED","FS-FIRESTAT","FS","USAZCOF","Coconino National Forest","0304","Coconino National Forest","178","40","EKV3","AFRICA","","","","","","2013","2013/08/09 00:00:00+00","221","1155","Natural","Natural","","2013/08/09 00:00:00+00","221","1430","0.1","A","34.70472222","-111.18944444","USFS","AZ","005","04005","Coconino County"
"-117.34304193","45.779160648","1640137","201765991","FS-1513364","FED","FS-FIRESTAT","FS","USORWWF","Wallowa-Whitman National Forest","0616","Wallowa-Whitman National For","029","492","EK2N","KUHN","","","","","","2013","2013/07/17 00:00:00+00","198","1352","Natural","Natural","","2013/07/17 00:00:00+00","198","1639","0.1","A","45.77916667","-117.34305556","USFS","OR","063","41063","Wallowa County"
"-94.662491448","47.589436188","1640138","201765992","FS-1512725","FED","FS-FIRESTAT","FS","USMNCPF","Chippewa National Forest","0903","Chippewa National Forest","007","BD 02","HGG6","THREE CULVERTS","","","","","","2013","2013/05/12 00:00:00+00","132","1545","Human","Debris and open burning","","2013/05/12 00:00:00+00","132","1750","3","B","47.58944444","-94.6625","STATE OR PRIVATE","MN","007","27007","Beltrami County"
"-122.816097274","41.870828109","1640139","201765993","FS-1519248","FED","FS-FIRESTAT","FS","USCAKNF","Klamath National Forest","0505","Klamath National Forest","153","","H0AA","BEAVER 2","","","","","","2013","2013/10/10 00:00:00+00","283","1400","Human","Arson/incendiarism","","2013/10/10 00:00:00+00","283","1500","0.25","A","41.87083333","-122.81611111","USFS","CA","093","06093","Siskiyou County"
"-121.190819781","41.644716872","1640140","201765994","FS-1515627","FED","FS-FIRESTAT","FS","USCAMDF","Modoc National Forest","0509","Modoc National Forest","089","731","EK10","MDF DH POTTERS","","","","","","2013","2013/08/22 00:00:00+00","234","1656","Natural","Natural","","2013/08/24 00:00:00+00","236","1253","0.1","A","41.64472222","-121.19083333","USFS","CA","049","06049","Modoc County"
"-109.810545045","32.73471709","1640141","201765995","FS-1512444","FED","FS-FIRESTAT","FS","USAZCNF","Coronado National Forest","0305","Coronado National Forest","004","04/01","HC0Z","GAGING","","","","","","2013","2013/03/10 00:00:00+00","69","1539","Human","Equipment and vehicle use","","2013/03/11 00:00:00+00","70","1630","2.3","B","32.73472222","-109.81055556","USFS","AZ","009","04009","Graham County"
"-116.632763886","47.616382661","1640142","201765996","FS-1517902","FED","FS-FIRESTAT","FS","USIDIPF","Idaho Panhandle National Forest","0104","Idaho Panhandle Natl Forests","073","1-024","EKS5","WOLF LODGE BAY","","","","","","2013","2013/08/26 00:00:00+00","238","0833","Natural","Natural","","2013/08/26 00:00:00+00","238","1722","0.1","A","47.61638889","-116.63277778","STATE OR PRIVATE","ID","055","16055","Kootenai County"
"-121.572485187","47.78666096","1640143","201765997","FS-1518483","FED","FS-FIRESTAT","FS","USWAMSF","Mt. Baker-Snoqualmie National Forest","0605","Mt. Baker-Snoqualmie N.F.","053","WAMSF062","HYJ5","LAKE SERENE","","","","","","2013","2013/09/04 00:00:00+00","247","0800","Human","Recreation and ceremony","","2013/09/08 00:00:00+00","251","1600","0.1","A","47.78666667","-121.5725","USFS","WA","061","53061","Snohomish County"
"-123.534708366","41.303328211","1640144","201765998","FS-1512271","FED","FS-FIRESTAT","FS","USCASRF","Six Rivers National Forest","0510","Six Rivers National Forest","011","52 04","HG9F","CLIFF","","","","","","2013","2013/05/21 00:00:00+00","141","0115","Human","Arson/incendiarism","","2013/05/21 00:00:00+00","141","0312","0.3","B","41.30333333","-123.53472222","USFS","CA","023","06023","Humboldt County"
"-91.811103355","47.849713719","1640145","201765999","FS-1512838","FED","FS-FIRESTAT","FS","USMNSUF","Superior National Forest","0909","Superior National Forest","017","KAW 04","EK3H","BEARGREASE","","","","","","2013","2013/06/26 00:00:00+00","177","1845","Natural","Natural","","2013/06/26 00:00:00+00","177","1948","0.1","A","47.84972222","-91.81111111","STATE OR PRIVATE","MN","075","27075","Lake County"
"-119.944985418","47.969994102","1640146","201766000","FS-1519300","FED","FS-FIRESTAT","FS","USWAOWF","Okanogan-Wenatchee National Forest","0617","Wenatchee National Forest","127","216","EK2Q","ALTA BREAKS","","","","","","2013","2013/09/04 00:00:00+00","247","1005","Natural","Natural","","2013/09/04 00:00:00+00","247","1430","0.75","B","47.97","-119.945","USFS","WA","007","53007","Chelan County"
"-116.862210268","34.067772844","1640147","201766001","FS-1520048","FED","FS-FIRESTAT","FS","USCABDF","San Bernardino National Forest","0512","San Bernardino National Forest","118","12440","EK13","HALFWAY","","","","","","2013","2013/09/16 00:00:00+00","259","1041","Natural","Natural","","2013/09/16 00:00:00+00","259","1945","0.1","A","34.06777778","-116.86222222","USFS","CA","071","06071","San Bernardino County"
"-121.458597354","42.662772381","1640148","201766002","FS-1519995","FED","FS-FIRESTAT","FS","USORFWF","Fremont-Winema National Forest","0602","Fremont-Winema National Forest","127","330","EK2B","CANDY CRUSH","","","","","","2013","2013/09/18 00:00:00+00","261","0923","Natural","Natural","","2013/09/18 00:00:00+00","261","1144","0.1","A","42.66277778","-121.45861111","USFS","OR","035","41035","Klamath County"
"-111.761931723","46.741937789","1640149","201766003","FS-1512745","FED","FS-FIRESTAT","FS","USMTHLF","Helena - Lewis and Clark National Forest","0112","Helena National Forest","005","043","HG2C","KELLY GULCH","2013_MT-HNF-00014_SWEATS COMPLEX","2013_MT-HNF-00014_SWEATS COMPLEX","","","SWEATS COMPLEX","2013","2013/05/15 00:00:00+00","135","1208","Human","Arson/incendiarism","","2013/05/15 00:00:00+00","135","2003","4","B","46.74194444","-111.76194444","USFS","MT","049","30049","Lewis and Clark County"
"-118.662209922","34.544161785","1640150","201766004","FS-1513201","FED","FS-FIRESTAT","FS","USCAANF","Angeles National Forest","0501","Angeles National Forest","101","70","EN0A","MARPLE","","","","","","2013","2013/07/11 00:00:00+00","192","1553","Human","Equipment and vehicle use","","2013/07/11 00:00:00+00","192","1615","0.25","A","34.54416667","-118.66222222","MISSING/NOT SPECIFIED","CA","037","06037","Los Angeles County"
"-105.250823319","38.317493798","1640151","201766005","FS-1518698","FED","FS-FIRESTAT","FS","USCOPSF","Pike and San Isabel National Forest","0212","Pike & San Isabel N.F.","073","705","EKU6","CURLY","","","","","","2013","2013/07/19 00:00:00+00","200","1921","Natural","Natural","","2013/07/20 00:00:00+00","201","1146","1","B","38.3175","-105.25083333","USFS","CO","043","08043","Fremont County"
"-122.244708558","41.312494768","1640152","201766006","FS-1512681","FED","FS-FIRESTAT","FS","USCASHF","Shasta-Trinity National Forest","0514","Shasta-Trinity National Forest","028","7","HLZ8","BEAR","","","","","","2013","2013/06/23 00:00:00+00","174","1949","Human","Debris and open burning","","2013/06/23 00:00:00+00","174","1957","0.01","A","41.3125","-122.24472222","USFS","CA","093","06093","Siskiyou County"
"-119.36970944","38.15193924","1640153","201766008","FS-1512930","FED","FS-FIRESTAT","FS","USNVHTF","Humboldt-Toiyabe National Forest","0417","Humboldt - Toiyabe National Forest","020","502","EK1P","BLACKSMITH","","","","","","2013","2013/06/03 00:00:00+00","154","1800","Natural","Natural","","2013/06/22 00:00:00+00","173","1800","0.25","A","38.15194444","-119.36972222","USFS","CA","051","06051","Mono County"
"-111.083878005","34.25221694","1640154","201766009","FS-1513131","FED","FS-FIRESTAT","FS","USAZTNF","Tonto National Forest","0312","Tonto National Forest","074","19","EKW0","MESCAL","","","","","","2013","2013/07/08 00:00:00+00","189","1605","Natural","Natural","","2013/07/11 00:00:00+00","192","1600","0.1","A","34.25222222","-111.08388889","USFS","AZ","007","04007","Gila County"
"-81.634996799","29.061661209","1640155","201766010","FS-1511606","FED","FS-FIRESTAT","FS","USFLFNF","National Forests in Florida","0805","National Forests In Florida","032","14","G9CF","COOK 14","","","","","","2013","2013/03/17 00:00:00+00","76","1457","Human","Missing data/not specified/undetermined","","2013/03/20 00:00:00+00","79","1050","1.6","B","29.06166667","-81.635","STATE OR PRIVATE","FL","069","12069","Lake County"
"-121.864708196","43.821939","1640156","201766011","FS-1519833","FED","FS-FIRESTAT","FS","USORDEF","Deschutes National Forest","0601","Deschutes National Forest","164","1-103","EK2A","0664","","","","","","2013","2013/08/23 00:00:00+00","235","1620","Natural","Natural","","2013/08/23 00:00:00+00","235","2042","0.1","A","43.82194444","-121.86472222","USFS","OR","017","41017","Deschutes County"
"-84.311661639","44.617491502","1640157","201766012","FS-1517196","FED","FS-FIRESTAT","FS","USMIHMF","Huron-Manistee National Forest","0904","Huron-Manistee National Forest","149","130149","HV6L","ROADSIDE # 2","","","","","","2013","2013/08/18 00:00:00+00","230","1600","Human","Missing data/not specified/undetermined","","2013/08/18 00:00:00+00","230","1755","0.1","A","44.6175","-84.31166667","USFS","MI","135","26135","Oscoda County"
"-120.322208331","44.442216589","1640158","201766013","FS-1519875","FED","FS-FIRESTAT","FS","USOROCF","Ochoco National Forest","0607","Ochoco National Forest","015","1-009","EK2G","0357","","","","","","2013","2013/07/27 00:00:00+00","208","1524","Human","Recreation and ceremony","","2013/07/27 00:00:00+00","208","1803","0.1","A","44.44222222","-120.32222222","USFS","OR","013","41013","Crook County"
"-123.633041519","42.383050379","1640159","201766014","FS-1519251","FED","FS-FIRESTAT","FS","USORRSF","Rogue River-Siskiyou National Forest","0610","Rogue River Siskiyou National Forest","080","649","EK2J","RAMSEY CREEK","","","","","","2013","2013/08/22 00:00:00+00","234","0830","Natural","Natural","","2013/08/22 00:00:00+00","234","1215","0.1","A","42.38305556","-123.63305556","USFS","OR","033","41033","Josephine County"
"-111.728876157","46.851660006","1640160","201766015","FS-1512748","FED","FS-FIRESTAT","FS","USMTHLF","Helena - Lewis and Clark National Forest","0112","Helena National Forest","007","007","HG2D","COTTONTAIL","2013_MT-HNF-00014_SWEATS COMPLEX","2013_MT-HNF-00014_SWEATS COMPLEX","","","SWEATS COMPLEX","2013","2013/05/15 00:00:00+00","135","1238","Human","Arson/incendiarism","","2013/05/18 00:00:00+00","138","2000","1.4","B","46.85166667","-111.72888889","USFS","MT","049","30049","Lewis and Clark County"
"-119.818598198","38.635550349","1640161","201766016","FS-1513777","FED","FS-FIRESTAT","FS","USNVHTF","Humboldt-Toiyabe National Forest","0417","Humboldt - Toiyabe National Forest","031","HTF-30349","EK1P","RAYMOND","","","","","","2013","2013/07/25 00:00:00+00","206","1855","Natural","Natural","","2013/07/27 00:00:00+00","208","1830","0.2","A","38.63555556","-119.81861111","USFS","CA","003","06003","Alpine County"
"-121.451097348","42.706383487","1640162","201766017","FS-1519990","FED","FS-FIRESTAT","FS","USORFWF","Fremont-Winema National Forest","0602","Fremont-Winema National Forest","123","323","EK2B","LOST","","","","","","2013","2013/09/17 00:00:00+00","260","1233","Natural","Natural","","2013/09/17 00:00:00+00","260","1608","0.1","A","42.70638889","-121.45111111","USFS","OR","035","41035","Klamath County"
"-117.19054224","44.316938518","1640163","201766018","FS-1512607","FED","FS-FIRESTAT","FS","USIDPAF","Payette National Forest","0412","Payette National Forest","008","32","HH1L","STECK FIRE","","","","","","2013","2013/05/26 00:00:00+00","146","1715","Human","Recreation and ceremony","","2013/05/26 00:00:00+00","146","1740","2.1","B","44.31694444","-117.19055556","STATE OR PRIVATE","ID","087","16087","Washington County"
"-112.097210657","39.08027195","1640164","201766019","FS-1515025","FED","FS-FIRESTAT","FS","USUTFIF","Fishlake National Forest","0408","Fishlake National Forest","027","FIL-006","EKW5","CEDAR","","","","","","2013","2013/08/11 00:00:00+00","223","1733","Natural","Natural","","2013/08/11 00:00:00+00","223","2000","0.1","A","39.08027778","-112.09722222","USFS","UT","027","49027","Millard County"
"-115.290821178","38.864994428","1640165","201766020","FS-1516681","FED","FS-FIRESTAT","FS","USNVHTF","Humboldt-Toiyabe National Forest","0417","Humboldt - Toiyabe National Forest","088","40103","EK1P","RED MOUNTAIN","","","","","","2013","2013/07/16 00:00:00+00","197","1213","Natural","Natural","","2013/07/16 00:00:00+00","197","1600","0.1","A","38.865","-115.29083333","USFS","NV","033","32033","White Pine County"
"-113.844986938","46.30832692","1640166","201766021","FS-1515924","FED","FS-FIRESTAT","FS","USMTBRF","Bitterroot National Forest","0103","Bitterroot National Forest","062","13","EKS4","BURNT LAKE","","","","","","2013","2013/08/28 00:00:00+00","240","0843","Natural","Natural","","2013/08/28 00:00:00+00","240","1930","0.1","A","46.30833333","-113.845","USFS","MT","081","30081","Ravalli County"
"-121.811097285","42.741383518","1640167","201766022","FS-1519997","FED","FS-FIRESTAT","FS","USORFWF","Fremont-Winema National Forest","0602","Fremont-Winema National Forest","130","334","EK2B","SAL","","","","","","2013","2013/09/18 00:00:00+00","261","1436","Natural","Natural","","2013/09/20 00:00:00+00","263","0910","0.1","A","42.74138889","-121.81111111","USFS","OR","035","41035","Klamath County"
"-106.792767358","38.905827149","1640168","201766023","FS-1513837","FED","FS-FIRESTAT","FS","USCOGMF","Grand Mesa, Uncompahgre and Gunnison National Forests","0204","Gr Mesa, Unc & Gunn Nat For","165","165","EKU0","CEMENT","","","","","","2013","2013/07/18 00:00:00+00","199","1442","Natural","Natural","","2013/07/18 00:00:00+00","199","2118","0.1","A","38.90583333","-106.79277778","USFS","CO","051","08051","Gunnison County"
"-112.326655546","34.171661469","1640169","201766025","FS-1516291","FED","FS-FIRESTAT","FS","USAZPNF","Prescott National Forest","0309","Prescott National Forest","035","19","EKV8","WHISKEY","","","","","","2013","2013/08/15 00:00:00+00","227","2141","Natural","Natural","","2013/08/16 00:00:00+00","228","1132","0.1","A","34.17166667","-112.32666667","USFS","AZ","025","04025","Yavapai County"
"-116.796375488","45.138882864","1640170","201766026","FS-1513363","FED","FS-FIRESTAT","FS","USORWWF","Wallowa-Whitman National Forest","0616","Wallowa-Whitman National For","028","795","EK2N","KIRBY","","","","","","2013","2013/08/11 00:00:00+00","223","2034","Natural","Natural","","2013/08/13 00:00:00+00","225","0900","0.1","A","45.13888889","-116.79638889","USFS","OR","063","41063","Wallowa County"
"-115.009430565","48.880826838","1640171","201766027","FS-1511887","FED","FS-FIRESTAT","FS","USMTKNF","Kootenai National Forest","0114","Kootenai National Forest","019","12","HE13","SINCLAIR CREEK","","","","","","2013","2013/04/26 00:00:00+00","116","1700","Human","Debris and open burning","","2013/04/26 00:00:00+00","116","1725","0.1","A","48.88083333","-115.00944444","STATE OR PRIVATE","MT","053","30053","Lincoln County"
"-121.589708446","42.644161284","1640172","201766028","FS-1511986","FED","FS-FIRESTAT","FS","USORFWF","Fremont-Winema National Forest","0602","Fremont-Winema National Forest","011","041","EK2B","CALIMUS","","","","","","2013","2013/05/10 00:00:00+00","130","1004","Natural","Natural","","2013/05/10 00:00:00+00","130","1513","0.1","A","42.64416667","-121.58972222","USFS","OR","035","41035","Klamath County"
"-111.801653956","46.684160028","1640173","201766029","FS-1513844","FED","FS-FIRESTAT","FS","USMTHLF","Helena - Lewis and Clark National Forest","0112","Helena National Forest","019","153","EKT0","CENTENNIAL GULCH","","","","","","2013","2013/07/29 00:00:00+00","210","0732","Natural","Natural","","2013/07/29 00:00:00+00","210","1215","0.1","A","46.68416667","-111.80166667","USFS","MT","049","30049","Lewis and Clark County"
"-79.207219272","38.606381247","1640174","201766030","FS-1511398","FED","FS-FIRESTAT","FS","USVAVAF","George Washington & Jefferson National Forests","0808","George Washington and Jefferson National Forest","002","VAF130008","EK23","BRANDYWINE","","","","","","2013","2013/02/12 00:00:00+00","43","1700","Human","Debris and open burning","","2013/02/12 00:00:00+00","43","1930","4","B","38.60638889","-79.20722222","MISSING/NOT SPECIFIED","WV","071","54071","Pendleton County"
"-119.763041667","44.948883168","1640175","201766031","FS-1512830","FED","FS-FIRESTAT","FS","USORUMF","Umatilla National Forest","0614","Umatilla National Forest","004","13078","EK2L","KAHLER","","","","","","2013","2013/06/30 00:00:00+00","181","1842","Human","Recreation and ceremony","","2013/07/02 00:00:00+00","183","1346","5.3","B","44.94888889","-119.76305556","USFS","OR","069","41069","Wheeler County"
"-113.901653744","45.567771439","1640176","201766032","FS-1518542","FED","FS-FIRESTAT","FS","USIDSCF","Salmon-Challis National Forest","0413","Salmon-Challis National Forest","056","0717","EKW8","SMITHY","","","","","","2013","2013/09/02 00:00:00+00","245","1515","Natural","Natural","","2013/09/03 00:00:00+00","246","0723","0.1","A","45.56777778","-113.90166667","USFS","ID","059","16059","Lemhi County"
"-118.365265551","34.310828453","1640177","201766033","FS-1519427","FED","FS-FIRESTAT","FS","USCAANF","Angeles National Forest","0501","Angeles National Forest","181","36","H0W0","SHOOTER","","","","","","2013","2013/11/26 00:00:00+00","330","1147","Human","Missing data/not specified/undetermined","","2013/11/26 00:00:00+00","330","1203","0.25","A","34.31083333","-118.36527778","STATE OR PRIVATE","CA","037","06037","Los Angeles County"
"-122.005541057","46.119716651","1640178","201766034","FS-1516068","FED","FS-FIRESTAT","FS","USWAGPF","Gifford Pinchot National Forest","0603","Gifford Pinchot National Frst","011","MSH-105","EK2C","SWITCHBACK 39","","","","","","2013","2013/08/09 00:00:00+00","221","2300","Natural","Natural","","2013/08/10 00:00:00+00","222","0830","0.1","A","46.11972222","-122.00555556","USFS","WA","059","53059","Skamania County"
"-106.161378674","38.303604969","1640179","201766035","FS-1513108","FED","FS-FIRESTAT","FS","USCORGF","Rio Grande National Forest","0209","Rio Grande National Forest","003","CO-RGF-277","EKU4","SQUIRREL","","","","","","2013","2013/06/06 00:00:00+00","157","1438","Natural","Natural","","2013/06/08 00:00:00+00","159","1238","2","B","38.30361111","-106.16138889","USFS","CO","109","08109","Saguache County"
"-110.66943363","34.361105792","1640180","201766036","FS-1519503","FED","FS-FIRESTAT","FS","USAZASF","Apache-Sitgreaves National Forest","0301","Apache-Sitgreaves Natl Forests","075","031","EKV0","HOYLE","","","","","","2013","2013/07/14 00:00:00+00","195","1620","Natural","Natural","","2013/07/15 00:00:00+00","196","1116","0.1","A","34.36111111","-110.66944444","USFS","AZ","017","04017","Navajo County"
"-120.769430856","42.288605676","1640181","201766037","FS-1518188","FED","FS-FIRESTAT","FS","USORFWF","Fremont-Winema National Forest","0602","Fremont-Winema National Forest","143","828","H0FD","VISTA","","","","","","2013","2013/10/21 00:00:00+00","294","1430","Human","Missing data/not specified/undetermined","","2013/10/21 00:00:00+00","294","1657","0.1","A","42.28861111","-120.76944444","USFS","OR","037","41037","Lake County"
"-118.420543312","34.432772892","1640182","201766038","FS-1511483","FED","FS-FIRESTAT","FS","USCAANF","Angeles National Forest","0501","Angeles National Forest","013","12","EN0A","SILVER","","","","","","2013","2013/02/17 00:00:00+00","48","1321","Human","Missing data/not specified/undetermined","","2013/02/17 00:00:00+00","48","1330","0.25","A","34.43277778","-118.42055556","MISSING/NOT SPECIFIED","CA","037","06037","Los Angeles County"
"-118.200265446","35.790550514","1640183","201766039","FS-1516015","FED","FS-FIRESTAT","FS","USCASQF","Sequoia National Forest","0513","Sequoia National Forest","021","016","EK14","CANE","","","","","","2013","2013/07/23 00:00:00+00","204","1538","Natural","Natural","","2013/07/23 00:00:00+00","204","1616","20","C","35.79055556","-118.20027778","USFS","CA","107","06107","Tulare County"
"-115.117486771","45.88388264","1640184","201766040","FS-1518822","FED","FS-FIRESTAT","FS","USIDNCF","Nez Perce - Clearwater National Forests","0117","Nezperce National Forest","165","1708-78","EKT5","LAMPREY","","","","","","2013","2013/09/06 00:00:00+00","249","1700","Natural","Natural","","2013/09/08 00:00:00+00","251","1300","0.3","B","45.88388889","-115.1175","USFS","ID","049","16049","Idaho County"
"-106.436101016","36.447216361","1640185","201766041","FS-1513352","FED","FS-FIRESTAT","FS","USNMCAF","Carson National Forest","0302","Carson National Forest","065","02","EKV1","PLACITA GARCIA","","","","","","2013","2013/07/12 00:00:00+00","193","1705","Natural","Natural","","2013/07/13 00:00:00+00","194","1755","0.25","A","36.44722222","-106.43611111","USFS","NM","039","35039","Rio Arriba County"
"-114.782208767","47.264438046","1640186","201766042","FS-1516312","FED","FS-FIRESTAT","FS","USMTLNF","Lolo National Forest","0116","Lolo National Forest","156","20","EKT4","FAIR","","","","","","2013","2013/08/30 00:00:00+00","242","1254","Natural","Natural","","2013/08/30 00:00:00+00","242","1730","0.1","A","47.26444444","-114.78222222","USFS","MT","089","30089","Sanders County"
"-122.851653173","39.517772731","1640187","201766043","FS-1512548","FED","FS-FIRESTAT","FS","USCAMNF","Mendocino National Forest","0508","Mendocino National Forest","007","4","EK1Z","LITTLE ROUND","","","","","","2013","2013/06/10 00:00:00+00","161","0900","Natural","Natural","","2013/06/10 00:00:00+00","161","1500","0.2","A","39.51777778","-122.85166667","USFS","CA","033","06033","Lake County"
"-116.023598018","44.255271753","1640188","201766044","FS-1515437","FED","FS-FIRESTAT","FS","USIDBOF","Boise National Forest","0402","Boise National Forest","112","1410","1TPA","MURRAY #2","","","","","","2013","2013/08/26 00:00:00+00","238","1040","Natural","Natural","","2013/08/27 00:00:00+00","239","1030","0.1","A","44.25527778","-116.02361111","USFS","ID","085","16085","Valley County"
"-106.928878624","37.123049635","1640189","201766045","FS-1518162","FED","FS-FIRESTAT","FS","USCOSJF","San Juan National Forest","0213","San Juan National Forest","101","983","EKU7","VALLE SECO","","","","","","2013","2013/08/22 00:00:00+00","234","1830","Natural","Natural","","2013/08/23 00:00:00+00","235","1200","0.25","A","37.12305556","-106.92888889","USFS","CO","007","08007","Archuleta County"
"-114.316931214","46.641660279","1640190","201766047","FS-1513245","FED","FS-FIRESTAT","FS","USMTLNF","Lolo National Forest","0116","Lolo National Forest","048","9","EKT4","BORDER 2","","","","","","2013","2013/07/10 00:00:00+00","191","1600","Natural","Natural","","2013/07/11 00:00:00+00","192","1800","0.25","A","46.64166667","-114.31694444","USFS","MT","081","30081","Ravalli County"
"-115.639708826","46.198604886","1640191","201766048","FS-1518442","FED","FS-FIRESTAT","FS","USIDNCF","Nez Perce - Clearwater National Forests","0105","Clearwater National Forest","080","Lochsa-32","EKS6","CHITWOOD","","","","","","2013","2013/08/23 00:00:00+00","235","1511","Natural","Natural","","2013/08/24 00:00:00+00","236","1534","0.1","A","46.19861111","-115.63972222","USFS","ID","049","16049","Idaho County"
"-111.561377956","33.659439267","1640192","201766049","FS-1513181","FED","FS-FIRESTAT","FS","USAZTNF","Tonto National Forest","0312","Tonto National Forest","055","025","HKW3","WHEELER","","","","","","2013","2013/06/15 00:00:00+00","166","0955","Human","Equipment and vehicle use","","2013/06/15 00:00:00+00","166","1120","0.1","A","33.65944444","-111.56138889","USFS","AZ","013","04013","Maricopa County"
"-117.674430703","46.004438435","1640193","201766050","FS-1513433","FED","FS-FIRESTAT","FS","USORUMF","Umatilla National Forest","0614","Umatilla National Forest","021","500","EK2L","ANT FLAT","","","","","","2013","2013/07/17 00:00:00+00","198","1630","Natural","Natural","","2013/07/17 00:00:00+00","198","2200","0.1","A","46.00444444","-117.67444444","USFS","WA","023","53023","Garfield County"
"-111.507211164","35.296661273","1640194","201766051","FS-1512276","FED","FS-FIRESTAT","FS","USAZCOF","Coconino National Forest","0304","Coconino National Forest","010","08","G9AY","LANDFILL","","","","","","2013","2013/04/13 00:00:00+00","103","1606","Human","Recreation and ceremony","","2013/04/15 00:00:00+00","105","0945","0.25","A","35.29666667","-111.50722222","USFS","AZ","005","04005","Coconino County"
"-106.046934105","39.608882562","1640195","201766052","FS-1519568","FED","FS-FIRESTAT","FS","USCOWRF","White River National Forest","0215","White River National Forest","041","517","EKU9","WINDY POINT","","","","","","2013","2013/09/30 00:00:00+00","273","1240","Natural","Natural","","2013/09/30 00:00:00+00","273","1700","0.1","A","39.60888889","-106.04694444","USFS","CO","117","08117","Summit County"
"-119.687486134","44.879994276","1640196","201766053","FS-1515329","FED","FS-FIRESTAT","FS","USORUMF","Umatilla National Forest","0614","Umatilla National Forest","041","13252","EK2L","HAYSTACK CREEK","","","","","","2013","2013/08/11 00:00:00+00","223","1710","Natural","Natural","","2013/08/12 00:00:00+00","224","1646","0.25","A","44.88","-119.6875","USFS","OR","069","41069","Wheeler County"
"-112.176377755","34.671105834","1640197","201766054","FS-1514247","FED","FS-FIRESTAT","FS","USAZPNF","Prescott National Forest","0309","Prescott National Forest","019","08","EKV3","MINGUS","","","","","","2013","2013/06/28 00:00:00+00","179","1451","Natural","Natural","","2013/07/02 00:00:00+00","183","1236","0.1","A","34.67111111","-112.17638889","USFS","AZ","025","04025","Yavapai County"
"-115.638042602","43.908327298","1640198","201766055","FS-1516949","FED","FS-FIRESTAT","FS","USIDBOF","Boise National Forest","0402","Boise National Forest","153","1403","EKW2","STEEP CREEK","","","","","","2013","2013/09/12 00:00:00+00","255","2000","Natural","Natural","","2013/09/13 00:00:00+00","256","1740","0.2","A","43.90833333","-115.63805556","USFS","ID","015","16015","Boise County"
"-85.060551122","34.504715651","1640199","201766056","FS-1511443","FED","FS-FIRESTAT","FS","USGACHF","Chattahoochee-Oconee National Forest","0803","Chattahoochee-Oconee N.F.","003","01","EK2V","HIDDEN CREEK","","","","","","2013","2013/02/16 00:00:00+00","47","1400","Human","Recreation and ceremony","","2013/02/16 00:00:00+00","47","1752","6.8","B","34.50472222","-85.06055556","USFS","GA","129","13129","Gordon County"
"-114.658320048","46.586104757","1640200","201766057","FS-1518744","FED","FS-FIRESTAT","FS","USIDNCF","Nez Perce - Clearwater National Forests","0105","Clearwater National Forest","089","0105-28","EKS6","ROCKY POINT","","","","","","2013","2013/08/25 00:00:00+00","237","1712","Natural","Natural","","2013/08/26 00:00:00+00","238","1208","0.1","A","46.58611111","-114.65833333","USFS","ID","049","16049","Idaho County"
"-118.478319715","44.662216394","1640201","201766058","FS-1516001","FED","FS-FIRESTAT","FS","USORWWF","Wallowa-Whitman National Forest","0616","Wallowa-Whitman National For","110","1082","EK2N","ZEUS","","","","","","2013","2013/09/04 00:00:00+00","247","1754","Natural","Natural","","2013/09/05 00:00:00+00","248","1200","0.1","A","44.66222222","-118.47833333","USFS","OR","001","41001","Baker County"
"-114.399987194","44.39999381","1640202","201766059","FS-1514383","FED","FS-FIRESTAT","FS","USIDSCF","Salmon-Challis National Forest","0413","Salmon-Challis National Forest","019","0206","EKW8","BAYHORSE","","","","","","2013","2013/07/28 00:00:00+00","209","1709","Natural","Natural","","2013/07/29 00:00:00+00","210","1100","0.25","A","44.4","-114.4","USFS","ID","037","16037","Custer County"
"-108.478045262","33.583328008","1640203","201766060","FS-1513166","FED","FS-FIRESTAT","FS","USNMGNF","Gila National Forest","0306","Gila National Forest","055","338","EKV5","TURKEY SPRING","","","","","","2013","2013/07/03 00:00:00+00","184","0929","Natural","Natural","","2013/07/04 00:00:00+00","185","1400","0.1","A","33.58333333","-108.47805556","USFS","NM","003","35003","Catron County"
"-81.56999664","33.339437994","1640204","201766061","FS-1519925","FED","FS-FIRESTAT","FS","USSCSRF","Savannah River Forest","0836","Savannah River","011","013132","XFFP","ATTA MEGA 1219","","","","","","2013","2013/12/19 00:00:00+00","353","1606","Human","Equipment and vehicle use","","2013/12/19 00:00:00+00","353","1621","10.9","C","33.33944444","-81.57","OTHER FEDERAL","SC","011","45011","Barnwell County"
"-115.604153171","46.728327061","1640205","201766062","FS-1514713","FED","FS-FIRESTAT","FS","USIDNCF","Nez Perce - Clearwater National Forests","0105","Clearwater National Forest","047","D3-15","EKS6","DEAD MULE","","","","","","2013","2013/08/11 00:00:00+00","223","1620","Natural","Natural","","2013/08/12 00:00:00+00","224","1417","0.1","A","46.72833333","-115.60416667","USFS","ID","035","16035","Clearwater County"
"-79.86805261","35.229993083","1640206","201766063","FS-1511489","FED","FS-FIRESTAT","FS","USNCNCF","National Forests in North Carolina","0811","National Forests In N C","007","01","HCV8","POWER LINE","","","","","","2013","2013/03/06 00:00:00+00","65","1300","Human","Power generation/transmission/distribution","","2013/03/06 00:00:00+00","65","1430","0.25","A","35.23","-79.86805556","USFS","NC","123","37123","Montgomery County"
"-118.870264025","45.032216405","1640207","201766064","FS-1518284","FED","FS-FIRESTAT","FS","USORUMF","Umatilla National Forest","0614","Umatilla National Forest","103","1355","H0KY","BASIN SPRINGS","","","","","","2013","2013/10/24 00:00:00+00","297","1522","Human","Recreation and ceremony","","2013/10/25 00:00:00+00","298","1123","3.5","B","45.03222222","-118.87027778","USFS","OR","059","41059","Umatilla County"
"-120.267487001","38.754439252","1640208","201766065","FS-1516867","FED","FS-FIRESTAT","FS","USCAENF","Eldorado National Forest","0503","Eldorado National Forest","049","18","HX7D","CHINA","","","","","","2013","2013/08/31 00:00:00+00","243","1311","Human","Recreation and ceremony","","2013/08/31 00:00:00+00","243","1345","0.1","A","38.75444444","-120.2675","USFS","CA","017","06017","El Dorado County"
"-120.602486413","42.474994537","1640209","201766066","FS-1513106","FED","FS-FIRESTAT","FS","USORFWF","Fremont-Winema National Forest","0602","Fremont-Winema National Forest","026","665","EK2B","BUCK","","","","","","2013","2013/07/03 00:00:00+00","184","2020","Natural","Natural","","2013/07/04 00:00:00+00","185","1524","0.01","A","42.475","-120.6025","USFS","OR","037","41037","Lake County"
"-110.540821601","42.658326974","1640210","201766067","FS-1513198","FED","FS-FIRESTAT","FS","USWYBTF","Bridger-Teton National Forest","0403","Bridger-Teton N.F.","006","0000006","EKW3","SCHIDLER","","","","","","2013","2013/06/29 00:00:00+00","180","1630","Natural","Natural","","2013/07/02 00:00:00+00","183","1230","0.25","A","42.65833333","-110.54083333","USFS","WY","035","56035","Sublette County"
"-117.73554345","34.152217324","1640211","201766068","FS-1511468","FED","FS-FIRESTAT","FS","USCAANF","Angeles National Forest","0501","Angeles National Forest","017","1","EN0A","STEPHENS","","","","","","2013","2013/03/05 00:00:00+00","64","1649","Human","Missing data/not specified/undetermined","","2013/03/05 00:00:00+00","64","1720","0.1","A","34.15222222","-117.73555556","MISSING/NOT SPECIFIED","CA","037","06037","Los Angeles County"
"-107.4949899","33.731105715","1640212","201766069","FS-1513978","FED","FS-FIRESTAT","FS","USNMCIF","Cibola National Forest","0303","Cibola National Forest","059","08","EKV2","WEST RED","","","","","","2013","2013/07/16 00:00:00+00","197","1400","Natural","Natural","","2013/07/17 00:00:00+00","198","1700","0.1","A","33.73111111","-107.495","USFS","NM","053","35053","Socorro County"
"-84.941662483","29.986661088","1640213","201766071","FS-1512175","FED","FS-FIRESTAT","FS","USFLFNF","National Forests in Florida","0805","National Forests In Florida","037","007","HDV1","GOOD FRIDAY","2013_FL-FNF-013024_GOOD FRIDAY","","","","","2013","2013/03/29 00:00:00+00","88","1655","Human","Missing data/not specified/undetermined","","2013/03/30 00:00:00+00","89","1515","294","D","29.98666667","-84.94166667","USFS","FL","037","12037","Franklin County"
"-106.415823395","34.63832774","1640214","201766073","FS-1512455","FED","FS-FIRESTAT","FS","USNMCIF","Cibola National Forest","0303","Cibola National Forest","025","3","EKV2","WEST MANZANO","","","","","","2013","2013/06/02 00:00:00+00","153","1637","Natural","Natural","","2013/06/02 00:00:00+00","153","2013","0.1","A","34.63833333","-106.41583333","USFS","NM","057","35057","Torrance County"
"-115.652210286","36.269161409","1640215","201766074","FS-1514751","FED","FS-FIRESTAT","FS","USNVHTF","Humboldt-Toiyabe National Forest","0417","Humboldt - Toiyabe National Forest","043","P4HG0F","HG0F","TRAIL","","","","","","2013","2013/05/14 00:00:00+00","134","1515","Human","Recreation and ceremony","","2013/05/14 00:00:00+00","134","1600","0.01","A","36.26916667","-115.65222222","USFS","NV","003","32003","Clark County"
"-117.741097501","45.312494053","1640216","201766075","FS-1515124","FED","FS-FIRESTAT","FS","USORWWF","Wallowa-Whitman National Forest","0616","Wallowa-Whitman National For","093","945","EK2N","FANNY","","","","","","2013","2013/08/22 00:00:00+00","234","1832","Natural","Natural","","2013/08/27 00:00:00+00","239","1530","0.3","B","45.3125","-117.74111111","USFS","OR","061","41061","Union County"
"-115.04887537","47.329438068","1640217","201766076","FS-1513059","FED","FS-FIRESTAT","FS","USMTLNF","Lolo National Forest","0116","Lolo National Forest","028","10","HM15","TOOLE #1","","","","","","2013","2013/07/01 00:00:00+00","182","1530","Human","Railroad operations and maintenance","","2013/07/01 00:00:00+00","182","1816","0.1","A","47.32944444","-115.04888889","STATE OR PRIVATE","MT","061","30061","Mineral County"
"-111.670544472","35.288883504","1640218","201766077","FS-1519635","FED","FS-FIRESTAT","FS","USAZCOF","Coconino National Forest","0304","Coconino National Forest","066","044","HLT7","FREIDLAND","","","","","","2013","2013/06/22 00:00:00+00","173","1734","Human","Smoking","","2013/06/24 00:00:00+00","175","1020","1.25","B","35.28888889","-111.67055556","USFS","AZ","005","04005","Coconino County"
"-120.807764256","41.87860571","1640219","201766078","FS-1515611","FED","FS-FIRESTAT","FS","USCAMDF","Modoc National Forest","0509","Modoc National Forest","075","709","EK10","MDF DG HUFFMAN","","","","","","2013","2013/08/22 00:00:00+00","234","1043","Natural","Natural","","2013/08/23 00:00:00+00","235","1234","0.1","A","41.87861111","-120.80777778","USFS","CA","049","06049","Modoc County"
"-109.586100534","34.196939086","1640220","201766079","FS-1520161","FED","FS-FIRESTAT","FS","USAZASF","Apache-Sitgreaves National Forest","0301","Apache-Sitgreaves Natl Forests","102","017","H0KM","WHITING","","","","","","2013","2013/10/28 00:00:00+00","301","1922","Natural","Natural","","2013/10/30 00:00:00+00","303","1730","106","D","34.19694444","-109.58611111","USFS","AZ","001","04001","Apache County"
"-79.297219229","38.854992311","1640221","201766080","FS-1519190","FED","FS-FIRESTAT","FS","USWVMOF","Monongahela National Forest","0921","Monongahela National Forest","010","WVMOF13010","H0QN","SMOKE HOLE FIRE","2013_WV-MOF-130010_SMOKE HOLE FIRE","","WV3888307928320131110","SMOKE HOLE FIRE","","2013","2013/11/10 00:00:00+00","314","1215","Human","Missing data/not specified/undetermined","","2013/11/29 00:00:00+00","333","1800","1611","F","38.855","-79.29722222","STATE OR PRIVATE","WV","071","54071","Pendleton County"
"-120.859431175","40.066661417","1640222","201766081","FS-1516855","FED","FS-FIRESTAT","FS","USCAPNF","Plumas National Forest","0511","Plumas National Forest","047","20","HV99","JOHNSON","2013_CA-PNF-1324_HOUGH COMPLEX","2013_CA-PNF-1324_HOUGH COMPLEX","","","HOUGH COMPLEX","2013","2013/08/19 00:00:00+00","231","0314","Natural","Natural","","2013/11/04 00:00:00+00","308","1200","150","D","40.06666667","-120.85944444","STATE OR PRIVATE","CA","063","06063","Plumas County"
"-102.543045163","45.881381491","1640223","201766082","FS-1517170","FED","FS-FIRESTAT","FS","USNDDPF","Dakota Prairie National Grasslands","0118","Dakota Prairie Grasslands","001","130601","HD25","PAUTRE","2013_ND-DPF-130601_PAUTRE","","ND4588110254820130403","PAUTRE","","2013","2013/04/03 00:00:00+00","93","1352","Human","Debris and open burning","","2013/04/07 00:00:00+00","97","1930","10679.7","G","45.88138889","-102.54305556","USFS","SD","105","46105","Perkins County"
"-111.852211159","34.548328052","1640224","201766083","FS-1519592","FED","FS-FIRESTAT","FS","USAZCOF","Coconino National Forest","0304","Coconino National Forest","016","4","HE7Z","RIVER","","","","","","2013","2013/04/30 00:00:00+00","120","2015","Human","Misuse of fire by a minor","Minor","2013/05/01 00:00:00+00","121","1000","0.1","A","34.54833333","-111.85222222","USFS","AZ","025","04025","Yavapai County"
"-118.727208576","44.586938644","1640225","201766085","FS-1516587","FED","FS-FIRESTAT","FS","USORMAF","Malheur National Forest","0604","Malheur National Forest","077","BM-053","EK2D","13411","","","","","","2013","2013/09/05 00:00:00+00","248","1026","Natural","Natural","","2013/09/05 00:00:00+00","248","1400","0.1","A","44.58694444","-118.72722222","USFS","OR","023","41023","Grant County"
"-123.16193063","41.378328173","1640226","201766086","FS-1514516","FED","FS-FIRESTAT","FS","USCAKNF","Klamath National Forest","0505","Klamath National Forest","051","11","EK1W","HAND","","","","","","2013","2013/08/09 00:00:00+00","221","1100","Natural","Natural","","2013/08/09 00:00:00+00","221","1400","0.1","A","41.37833333","-123.16194444","USFS","CA","093","06093","Siskiyou County"
"-112.234988809","35.193050219","1640227","201766087","FS-1514037","FED","FS-FIRESTAT","FS","USAZKNF","Kaibab National Forest","0307","Kaibab National Forest","060","25","EKV6","MOUNTAIN","","","","","","2013","2013/07/18 00:00:00+00","199","1419","Natural","Natural","","2013/07/21 00:00:00+00","202","1317","0.1","A","35.19305556","-112.235","USFS","AZ","005","04005","Coconino County"
"-114.279708698","48.018604605","1640228","201766088","FS-1517630","FED","FS-FIRESTAT","FS","USMTFNF","Flathead National Forest","0110","Flathead National Forest","039","WCAD-305","HV7K","STONER CREEK","2013_MT-FNF-000039_STONER CREEK","","","","","2013","2013/08/18 00:00:00+00","230","1720","Human","Arson/incendiarism","","2013/08/21 00:00:00+00","233","2000","105","D","48.01861111","-114.27972222","STATE OR PRIVATE","MT","029","30029","Flathead County"
"-111.143878184","31.52416178","1640229","201766089","FS-1512410","FED","FS-FIRESTAT","FS","USAZCNF","Coronado National Forest","0305","Coronado National Forest","023","","HJ39","PECK FIRE","","","","","","2013","2013/06/01 00:00:00+00","152","1446","Human","Missing data/not specified/undetermined","","2013/06/05 00:00:00+00","156","1200","200","D","31.52416667","-111.14388889","USFS","AZ","023","04023","Santa Cruz County"
"-106.928878687","36.45277195","1640230","201766090","FS-1514541","FED","FS-FIRESTAT","FS","USNMSNF","Santa Fe National Forest","0310","Santa Fe National Forest","058","12","EKV9","DRIFT","","","","","","2013","2013/07/29 00:00:00+00","210","1100","Natural","Natural","","2013/07/29 00:00:00+00","210","1350","0.1","A","36.45277778","-106.92888889","USFS","NM","039","35039","Rio Arriba County"
"-121.100541005","47.019994283","1640231","201766091","FS-1519581","FED","FS-FIRESTAT","FS","USWAOWF","Okanogan-Wenatchee National Forest","0617","Wenatchee National Forest","046","809","HS44","QUARTZ CREEK","","","","","","2013","2013/07/29 00:00:00+00","210","1315","Human","Missing data/not specified/undetermined","","2013/07/30 00:00:00+00","211","1056","0.1","A","47.02","-121.10055556","USFS","WA","037","53037","Kittitas County"
"-97.772769976","33.329438643","1640232","201766092","FS-1511456","FED","FS-FIRESTAT","FS","USTXTXF","National Forests And Grasslands In Texas","0813","National Forests In Texas","007","01","EK28","LBJ UNIT 6","","","","","","2013","2013/02/03 00:00:00+00","34","0952","Human","Arson/incendiarism","","2013/02/03 00:00:00+00","34","1600","1","B","33.32944444","-97.77277778","USFS","TX","497","48497","Wise County"
"-120.401929633","48.561383008","1640233","201766093","FS-1515170","FED","FS-FIRESTAT","FS","USWAOWF","Okanogan-Wenatchee National Forest","0617","Wenatchee National Forest","058","411","KE2Q","LUCKY JIM","","","","","","2013","2013/08/04 00:00:00+00","216","1900","Natural","Natural","","2013/08/05 00:00:00+00","217","1600","0.1","A","48.56138889","-120.40194444","USFS","WA","047","53047","Okanogan County"
"-111.633322267","35.079994639","1640234","201766094","FS-1517651","FED","FS-FIRESTAT","FS","USAZCOF","Coconino National Forest","0304","Coconino National Forest","129","82","EKV3","HERCULES","","","","","","2013","2013/07/19 00:00:00+00","200","1725","Natural","Natural","","2013/07/23 00:00:00+00","204","1150","0.1","A","35.08","-111.63333333","USFS","AZ","005","04005","Coconino County"
"-118.614709935","34.479439559","1640235","201766095","FS-1519280","FED","FS-FIRESTAT","FS","USCAANF","Angeles National Forest","0501","Angeles National Forest","177","112","EN0A","DRYWALL","","","","","","2013","2013/11/24 00:00:00+00","328","1435","Human","Missing data/not specified/undetermined","","2013/11/24 00:00:00+00","328","1450","0.1","A","34.47944444","-118.61472222","MISSING/NOT SPECIFIED","CA","037","06037","Los Angeles County"
"-120.942764515","39.972216982","1640236","201766096","FS-1519763","FED","FS-FIRESTAT","FS","USCAPNF","Plumas National Forest","0511","Plumas National Forest","108","2083","H03J","HELIPORT BUILDING","","","","","","2013","2013/12/23 00:00:00+00","357","0739","Human","Other causes","","2013/12/23 00:00:00+00","357","1134","0.5","B","39.97222222","-120.94277778","MISSING/NOT SPECIFIED","CA","063","06063","Plumas County"
"-85.772216817","43.899436142","1640237","201766097","FS-1512368","FED","FS-FIRESTAT","FS","USMIHMF","Huron-Manistee National Forest","0904","Huron-Manistee National Forest","089","130089","EK3D","LYNDEN","","","","","","2013","2013/05/18 00:00:00+00","138","1540","Human","Debris and open burning","","2013/05/18 00:00:00+00","138","1557","1","B","43.89944444","-85.77222222","STATE OR PRIVATE","MI","085","26085","Lake County"
"-111.534989079","33.55693928","1640238","201766098","FS-1512052","FED","FS-FIRESTAT","FS","USAZTNF","Tonto National Forest","0312","Tonto National Forest","023","010","HF5D","TRIO","","","","","","2013","2013/05/08 00:00:00+00","128","1910","Human","Missing data/not specified/undetermined","","2013/05/08 00:00:00+00","128","2045","0.1","A","33.55694444","-111.535","USFS","AZ","013","04013","Maricopa County"
"-120.299709291","38.13360598","1640239","201766099","FS-1511889","FED","FS-FIRESTAT","FS","USCASTF","Stanislaus National Forest","0516","Stanislaus National Forest","001","001","HC6Y","GRUB","","","","","","2013","2013/03/17 00:00:00+00","76","1740","Human","Recreation and ceremony","","2013/03/19 00:00:00+00","78","1744","12","C","38.13361111","-120.29972222","STATE OR PRIVATE","CA","109","06109","Tuolumne County"
"-111.589154837","41.892771594","1640240","201766100","FS-1517787","FED","FS-FIRESTAT","FS","USUTUWF","Uinta-Wasatch-Cache National Forest","0419","Uinta-Wasatch-Cache National Forest","090","000881","EL6S","TONY GROVE","","","","","","2013","2013/10/07 00:00:00+00","280","1650","Human","Missing data/not specified/undetermined","","2013/10/08 00:00:00+00","281","1425","0.3","B","41.89277778","-111.58916667","USFS","UT","005","49005","Cache County"
