"ï»¿X","Y","OBJECTID","FOD_ID","FPA_ID","SOURCE_SYSTEM_TYPE","SOURCE_SYSTEM","NWCG_REPORTING_AGENCY","NWCG_REPORTING_UNIT_ID","NWCG_REPORTING_UNIT_NAME","SOURCE_REPORTING_UNIT","SOURCE_REPORTING_UNIT_NAME","LOCAL_FIRE_REPORT_ID","LOCAL_INCIDENT_ID","FIRE_CODE","FIRE_NAME","ICS_209_PLUS_INCIDENT_JOIN_ID","ICS_209_PLUS_COMPLEX_JOIN_ID","MTBS_ID","MTBS_FIRE_NAME","COMPLEX_NAME","FIRE_YEAR","DISCOVERY_DATE","DISCOVERY_DOY","DISCOVERY_TIME","NWCG_CAUSE_CLASSIFICATION","NWCG_GENERAL_CAUSE","NWCG_CAUSE_AGE_CATEGORY","CONT_DATE","CONT_DOY","CONT_TIME","FIRE_SIZE","FIRE_SIZE_CLASS","LATITUDE","LONGITUDE","OWNER_DESCR","STATE","COUNTY","FIPS_CODE","FIPS_NAME"
"-96.723792534","32.09779439","2280001","400624457","SFO-2020TXPRI789540","NONFED","ST-NASF","ST/C&L","USTXTXS","Texas A & M Forest Service","TXPRI","Texas Forest Service","","789540","","GRASS FIRE","","","","","","2020","2020/08/10 00:00:00+00","223","","Missing data/not specified/undetermined","Missing data/not specified/undetermined","","","","","64","C","32.0978","-96.7238","MISSING/NOT SPECIFIED","TX","Navarro","48349","Navarro County"
"-97.568392434","29.923394846","2280002","400624458","SFO-2020TXPRI795018","NONFED","ST-NASF","ST/C&L","USTXTXS","Texas A & M Forest Service","TXPRI","Texas Forest Service","","795018","","FIRE","","","","","","2020","2020/02/25 00:00:00+00","56","","Human","Debris and open burning","","","","","50","C","29.9234","-97.5684","MISSING/NOT SPECIFIED","TX","Caldwell","48055","Caldwell County"
"-96.776192604","30.509294702","2280003","400624460","SFO-2020TXPRI790109","NONFED","ST-NASF","ST/C&L","USTXTXS","Texas A & M Forest Service","TXPRI","Texas Forest Service","","790109","","GRASS FIRE","","","","","","2020","2020/07/11 00:00:00+00","193","","Missing data/not specified/undetermined","Missing data/not specified/undetermined","","","","","5","B","30.5093","-96.7762","MISSING/NOT SPECIFIED","TX","Burleson","48051","Burleson County"
"-94.816892969","33.03289413","2280004","400624461","SFO-2020TXPRI796948","NONFED","ST-NASF","ST/C&L","USTXTXS","Texas A & M Forest Service","TXPRI","Texas Forest Service","","796948","","472020","","","","","","2020","2020/10/15 00:00:00+00","289","","Missing data/not specified/undetermined","Missing data/not specified/undetermined","","","","","0.5","B","33.0329","-94.8169","MISSING/NOT SPECIFIED","TX","Titus","48449","Titus County"
"-97.871692206","32.766594312","2280005","400624463","SFO-2020TXPRI798141","NONFED","ST-NASF","ST/C&L","USTXTXS","Texas A & M Forest Service","TXPRI","Texas Forest Service","","798141","","4007 MINERAL WELLS HIGHWAY","","","","","","2020","2020/10/02 00:00:00+00","276","","Missing data/not specified/undetermined","Missing data/not specified/undetermined","","","","","0.5","B","32.7666","-97.8717","MISSING/NOT SPECIFIED","TX","Parker","48367","Parker County"
"-76.228770808","41.249476722","2280006","400624464","SFO-2020PAPAS11(20)1-076","NONFED","ST-NASF","ST/C&L","USPAPAS","Pennsylvania Division of Forest Fire Protection","PAPAS","Pennsylvania Division of Forest Fire Protection","","11(20)1-076","","HARVEY ROAD","","","","","","2020","2020/03/27 00:00:00+00","87","1408","Human","Debris and open burning","","2020/03/27 00:00:00+00","87","1445","0.25","A","41.249485","-76.228773","MISSING/NOT SPECIFIED","PA","Luzerne","42079","Luzerne County"
"-76.734297618","41.663861663","2280007","400624465","SFO-2020PAPAS20(20)1-008","NONFED","ST-NASF","ST/C&L","USPAPAS","Pennsylvania Division of Forest Fire Protection","PAPAS","Pennsylvania Division of Forest Fire Protection","","20(20)1-008","","SOUTHSIDE","","","","","","2020","2020/03/18 00:00:00+00","78","1917","Human","Debris and open burning","","2020/03/18 00:00:00+00","78","1937","1","B","41.66387","-76.7343","MISSING/NOT SPECIFIED","PA","Bradford","42015","Bradford County"
"-78.701390643","41.018980206","2280008","400624466","SFO-2020PAPAS09(20)2-027","NONFED","ST-NASF","ST/C&L","USPAPAS","Pennsylvania Division of Forest Fire Protection","PAPAS","Pennsylvania Division of Forest Fire Protection","","09(20)2-027","","SHUCKERS","","","","","","2020","2020/11/20 00:00:00+00","325","1412","Human","Debris and open burning","","2020/11/20 00:00:00+00","325","1457","8","B","41.01898834","-78.7013936","MISSING/NOT SPECIFIED","PA","Clearfield","42033","Clearfield County"
"-77.692597354","41.098691809","2280009","400624467","SFO-2020PAPAS10(20)2-006","NONFED","ST-NASF","ST/C&L","USPAPAS","Pennsylvania Division of Forest Fire Protection","PAPAS","Pennsylvania Division of Forest Fire Protection","","10(20)2-006","","WHITEHALL MTN","","","","","","2020","2020/11/05 00:00:00+00","310","0949","Human","Debris and open burning","","2020/11/05 00:00:00+00","310","1115","1.23","B","41.0987","-77.6926","MISSING/NOT SPECIFIED","PA","Centre","42027","Centre County"
"-75.661196991","41.208826708","2280010","400624468","SFO-2020PAPAS11(20)1-003","NONFED","ST-NASF","ST/C&L","USPAPAS","Pennsylvania Division of Forest Fire Protection","PAPAS","Pennsylvania Division of Forest Fire Protection","","11(20)1-003","","NASH LANE","","","","","","2020","2020/02/22 00:00:00+00","53","1155","Human","Debris and open burning","","2020/02/22 00:00:00+00","53","1220","0.5","B","41.208835","-75.661199","MISSING/NOT SPECIFIED","PA","Luzerne","42079","Luzerne County"
"-80.862289854","39.511088237","2280011","400624469","SFO-2020WVDOF2020-38107","NONFED","ST-NASF","ST/C&L","USWVWVS","West Virginia Division of Forestry","WVDOF","West Virginia Division of Forestry","","2020-38107","","STATE RIDGE ROAD","","","","","","2020","2020/03/29 00:00:00+00","89","1756","Human","Equipment and vehicle use","","2020/03/29 00:00:00+00","89","1934","4","B","39.51109599","-80.86229337","PRIVATE","WV","Tyler","54095","Tyler County"
"-81.558590041","38.390511076","2280012","400624470","SFO-2020WVDOF2020-38249","NONFED","ST-NASF","ST/C&L","USWVWVS","West Virginia Division of Forestry","WVDOF","West Virginia Division of Forestry","","2020-38249","","MEADOWBROOK RD.","","","","","","2020","2020/04/21 00:00:00+00","112","1530","Human","Fireworks","","2020/04/21 00:00:00+00","112","1630","0.1","A","38.39051858","-81.55859369","PRIVATE","WV","Kanawha","54039","Kanawha County"
"-97.02399246","32.05769441","2280013","400624471","SFO-2020TXPRI789164","NONFED","ST-NASF","ST/C&L","USTXTXS","Texas A & M Forest Service","TXPRI","Texas Forest Service","","789164","","HCR 4353 GRASS FIRE","","","","","","2020","2020/07/04 00:00:00+00","186","","Missing data/not specified/undetermined","Missing data/not specified/undetermined","","","","","5","B","32.0577","-97.024","MISSING/NOT SPECIFIED","TX","Hill","48217","Hill County"
"-97.059792479","31.566994506","2280014","400624472","SFO-2020TXPRI790731","NONFED","ST-NASF","ST/C&L","USTXTXS","Texas A & M Forest Service","TXPRI","Texas Forest Service","","790731","","2280052","","","","","","2020","2020/08/15 00:00:00+00","228","","Human","Debris and open burning","","","","","1","B","31.567","-97.0598","MISSING/NOT SPECIFIED","TX","McLennan","48309","McLennan County"
"-97.783992516","26.35989558","2280015","400624473","SFO-2020TXPRI795534","NONFED","ST-NASF","ST/C&L","USTXTXS","Texas A & M Forest Service","TXPRI","Texas Forest Service","","795534","","I69 GRASS FIRE","","","","","","2020","2020/07/15 00:00:00+00","197","","Missing data/not specified/undetermined","Missing data/not specified/undetermined","","","","","0.08","A","26.3599","-97.784","MISSING/NOT SPECIFIED","TX","Willacy","48489","Willacy County"
"-95.594592848","31.624394437","2280016","400624475","SFO-2020TXTXS009139","NONFED","ST-NASF","ST/C&L","USTXTXS","Texas A & M Forest Service","TXTXS","Texas Forest Service","","009139","","ANDERSON 15:50","","","","","","2020","2020/08/16 00:00:00+00","229","1550","Human","Missing data/not specified/undetermined","","2020/08/16 00:00:00+00","229","2014","1","B","31.6244","-95.5946","MISSING/NOT SPECIFIED","TX","Anderson","48001","Anderson County"
"-78.263500193","40.84946088","2280017","400624476","SFO-2020PAPAS09(20)1-015","NONFED","ST-NASF","ST/C&L","USPAPAS","Pennsylvania Division of Forest Fire Protection","PAPAS","Pennsylvania Division of Forest Fire Protection","","09(20)1-015","","STATE STREET","","","","","","2020","2020/03/09 00:00:00+00","69","1637","Human","Debris and open burning","","2020/03/09 00:00:00+00","69","1650","0.1","A","40.849469","-78.263503","MISSING/NOT SPECIFIED","PA","Clearfield","42033","Clearfield County"
"-78.181497184","41.329891785","2280018","400624477","SFO-2020PAPAS13(20)1-002","NONFED","ST-NASF","ST/C&L","USPAPAS","Pennsylvania Division of Forest Fire Protection","PAPAS","Pennsylvania Division of Forest Fire Protection","","13(20)1-002","","MOSER","","","","","","2020","2020/03/09 00:00:00+00","69","1300","Human","Debris and open burning","","2020/03/09 00:00:00+00","69","1315","3","B","41.3299","-78.1815","MISSING/NOT SPECIFIED","PA","Cameron","42023","Cameron County"
"-75.424398708","40.257497484","2280019","400624478","SFO-2020PAPAS17(20)1-007","NONFED","ST-NASF","ST/C&L","USPAPAS","Pennsylvania Division of Forest Fire Protection","PAPAS","Pennsylvania Division of Forest Fire Protection","","17(20)1-007","","BERGEYS MILL","","","","","","2020","2020/02/20 00:00:00+00","51","1826","Human","Power generation/transmission/distribution","","2020/02/20 00:00:00+00","51","1843","0.1","A","40.2575056","-75.42440058","MISSING/NOT SPECIFIED","PA","Montgomery","42091","Montgomery County"
"-79.444278848","40.521915992","2280020","400624479","SFO-2020PAPAS06(20)2-011","NONFED","ST-NASF","ST/C&L","USPAPAS","Pennsylvania Division of Forest Fire Protection","PAPAS","Pennsylvania Division of Forest Fire Protection","","06(20)2-011","","FOSTER RD SKYLINE DRIVE","","","","","","2020","2020/07/27 00:00:00+00","209","1902","Human","Equipment and vehicle use","","2020/07/27 00:00:00+00","209","2035","8","B","40.521924","-79.444282","MISSING/NOT SPECIFIED","PA","Indiana","42063","Indiana County"
"-81.852671067","38.18084638","2280021","400624480","SFO-2020WVDOF2020-38501","NONFED","ST-NASF","ST/C&L","USWVWVS","West Virginia Division of Forestry","WVDOF","West Virginia Division of Forestry","","2020-38501","","PINNACLE ROCK","","","","","","2020","2020/11/21 00:00:00+00","326","0745","Human","Recreation and ceremony","","2020/11/22 00:00:00+00","327","1230","50","C","38.18085383","-81.85267479","STATE","WV","Lincoln","54043","Lincoln County"
"-79.243409239","38.7950531","2280022","400624481","SFO-2020WVDOF2020-38392","NONFED","ST-NASF","ST/C&L","USWVWVS","West Virginia Division of Forestry","WVDOF","West Virginia Division of Forestry","","2020-38392","","RIDGE ROAD","","","","","","2020","2020/09/22 00:00:00+00","266","1600","Human","Equipment and vehicle use","","2020/09/22 00:00:00+00","266","1800","1","B","38.79506078","-79.24341221","PRIVATE","WV","Pendleton","54071","Pendleton County"
"-81.6317144","39.09575062","2280023","400624482","SFO-2020WVDOF2020-38445","NONFED","ST-NASF","ST/C&L","USWVWVS","West Virginia Division of Forestry","WVDOF","West Virginia Division of Forestry","","2020-38445","","8164 LEE CREEK ROAD","","","","","","2020","2020/11/09 00:00:00+00","314","1234","Human","Debris and open burning","","2020/11/09 00:00:00+00","314","1315","0.1","A","39.09575826","-81.63171812","PRIVATE","WV","Wood","54107","Wood County"
"-95.652892925","29.752794814","2280024","400624483","SFO-2020TXPRI793220","NONFED","ST-NASF","ST/C&L","USTXTXS","Texas A & M Forest Service","TXPRI","Texas Forest Service","","793220","","D078 DRO014 E075","","","","","","2020","2020/06/17 00:00:00+00","169","","Human","Missing data/not specified/undetermined","","","","","2","B","29.7528","-95.6529","MISSING/NOT SPECIFIED","TX","Harris","48201","Harris County"
"-95.936092697","32.749994232","2280025","400624484","SFO-2020TXPRI789182","NONFED","ST-NASF","ST/C&L","USTXTXS","Texas A & M Forest Service","TXPRI","Texas Forest Service","","789182","","5275 VZ 3502","","","","","","2020","2020/08/10 00:00:00+00","223","","Human","Debris and open burning","","","","","3","B","32.75","-95.9361","MISSING/NOT SPECIFIED","TX","Van Zandt","48467","Van Zandt County"
"-97.079192635","28.028695213","2280026","400624485","SFO-2020TXPRI788135","NONFED","ST-NASF","ST/C&L","USTXTXS","Texas A & M Forest Service","TXPRI","Texas Forest Service","","788135","","332","","","","","","2020","2020/07/06 00:00:00+00","188","","Missing data/not specified/undetermined","Missing data/not specified/undetermined","","","","","0.5","B","28.0287","-97.0792","MISSING/NOT SPECIFIED","TX","Aransas","48007","Aransas County"
"-97.300892352","32.715694297","2280027","400624486","SFO-2020TXPRI788871","NONFED","ST-NASF","ST/C&L","USTXTXS","Texas A & M Forest Service","TXPRI","Texas Forest Service","","788871","","E ROBERT","","","","","","2020","2020/07/04 00:00:00+00","186","","Missing data/not specified/undetermined","Missing data/not specified/undetermined","","","","","0.1","A","32.7157","-97.3009","MISSING/NOT SPECIFIED","TX","Tarrant","48439","Tarrant County"
"-97.350792337","32.751994292","2280028","400624487","SFO-2020TXPRI789752","NONFED","ST-NASF","ST/C&L","USTXTXS","Texas A & M Forest Service","TXPRI","Texas Forest Service","","789752","","STAYTON","","","","","","2020","2020/08/08 00:00:00+00","221","","Missing data/not specified/undetermined","Missing data/not specified/undetermined","","","","","0.01","A","32.752","-97.3508","MISSING/NOT SPECIFIED","TX","Tarrant","48439","Tarrant County"
"-94.344793105","32.807794154","2280029","400624488","SFO-2020TXPRI796992","NONFED","ST-NASF","ST/C&L","USTXTXS","Texas A & M Forest Service","TXPRI","Texas Forest Service","","796992","","JERRY BEST","","","","","","2020","2020/10/14 00:00:00+00","288","","Human","Equipment and vehicle use","","","","","1","B","32.8078","-94.3448","MISSING/NOT SPECIFIED","TX","Marion","48315","Marion County"
"-102.09679102","35.037394116","2280030","400624489","SFO-2020TXPRI791570","NONFED","ST-NASF","ST/C&L","USTXTXS","Texas A & M Forest Service","TXPRI","Texas Forest Service","","791570","","965","","","","","","2020","2020/08/06 00:00:00+00","219","","Natural","Natural","","","","","0.01","A","35.0374","-102.0968","MISSING/NOT SPECIFIED","TX","Randall","48381","Randall County"
"-95.017092935","32.719694199","2280031","400624490","SFO-2020TXPRI791338","NONFED","ST-NASF","ST/C&L","USTXTXS","Texas A & M Forest Service","TXPRI","Texas Forest Service","","791338","","200292","","","","","","2020","2020/08/27 00:00:00+00","240","","Human","Debris and open burning","","","","","1","B","32.7197","-95.0171","MISSING/NOT SPECIFIED","TX","Upshur","48459","Upshur County"
"-77.358447478","40.843441844","2280032","400624491","SFO-2020PAPAS07(20)1-007","NONFED","ST-NASF","ST/C&L","USPAPAS","Pennsylvania Division of Forest Fire Protection","PAPAS","Pennsylvania Division of Forest Fire Protection","","07(20)1-007","","BLUE ROCK","","","","","","2020","2020/02/23 00:00:00+00","54","1419","Human","Recreation and ceremony","","2020/02/23 00:00:00+00","54","1734","2.6","B","40.84345","-77.35845","MISSING/NOT SPECIFIED","PA","Mifflin","42087","Mifflin County"
"-75.736067372","40.839660672","2280033","400624492","SFO-2020PAPAS18(20)1-015","NONFED","ST-NASF","ST/C&L","USPAPAS","Pennsylvania Division of Forest Fire Protection","PAPAS","Pennsylvania Division of Forest Fire Protection","","18(20)1-015","","162 YANKEE ROAD","","","","","","2020","2020/02/22 00:00:00+00","53","1257","Human","Debris and open burning","","2020/02/22 00:00:00+00","53","1325","0.25","A","40.83966889","-75.73606938","MISSING/NOT SPECIFIED","PA","Carbon","42025","Carbon County"
"-75.585297965","41.955591563","2280034","400624493","SFO-2020PAPAS11(20)2-039","NONFED","ST-NASF","ST/C&L","USPAPAS","Pennsylvania Division of Forest Fire Protection","PAPAS","Pennsylvania Division of Forest Fire Protection","","11(20)2-039","","72 MAIN ST","","","","","","2020","2020/09/22 00:00:00+00","266","1825","Human","Debris and open burning","","2020/09/22 00:00:00+00","266","1842","0.1","A","41.9556","-75.5853","MISSING/NOT SPECIFIED","PA","Susquehanna","42115","Susquehanna County"
"-81.094333436","37.862226872","2280035","400624494","SFO-2020WVDOF2020-38283","NONFED","ST-NASF","ST/C&L","USWVWVS","West Virginia Division of Forestry","WVDOF","West Virginia Division of Forestry","","2020-38283","","TERRY","","","","","","2020","2020/03/29 00:00:00+00","89","1440","Human","Other causes","","2020/03/29 00:00:00+00","89","1559","0.1","A","37.86223429","-81.09433691","PRIVATE","WV","Raleigh","54081","Raleigh County"
"-98.757091937","33.532977541","2280036","400624495","SFO-2020TXTXS009148","NONFED","ST-NASF","ST/C&L","USTXTXS","Texas A & M Forest Service","TXTXS","Texas Forest Service","","009148","","GLOVER ","","","","","","2020","2020/08/17 00:00:00+00","230","1838","Natural","Natural","","2020/08/17 00:00:00+00","230","2300","225","D","33.53298333","-98.7571","MISSING/NOT SPECIFIED","TX","Archer","48009","Archer County"
"-97.949492209","32.391794385","2280037","400624498","SFO-2020TXPRI795455","NONFED","ST-NASF","ST/C&L","USTXTXS","Texas A & M Forest Service","TXPRI","Texas Forest Service","","795455","","ASBURY","","","","","","2020","2020/09/23 00:00:00+00","267","","Human","Power generation/transmission/distribution","","","","","0.1","A","32.3918","-97.9495","MISSING/NOT SPECIFIED","TX","Hood","48221","Hood County"
"-98.514991962","34.052794106","2280038","400624499","SFO-2020TXPRI791610","NONFED","ST-NASF","ST/C&L","USTXTXS","Texas A & M Forest Service","TXPRI","Texas Forest Service","","791610","","MUD FIRE","","","","","","2020","2020/09/03 00:00:00+00","247","","Human","Power generation/transmission/distribution","","","","","3","B","34.0528","-98.515","MISSING/NOT SPECIFIED","TX","Wichita","48485","Wichita County"
"-96.284992612","32.68129426","2280039","400624500","SFO-2020TXPRI790234","NONFED","ST-NASF","ST/C&L","USTXTXS","Texas A & M Forest Service","TXPRI","Texas Forest Service","","790234","","TANGER","","","","","","2020","2020/08/21 00:00:00+00","234","","Human","Debris and open burning","","","","","18","C","32.6813","-96.285","MISSING/NOT SPECIFIED","TX","Kaufman","48257","Kaufman County"
"-78.857257023","40.630651946","2280040","400624502","SFO-2020PAPAS06(20)1-020","NONFED","ST-NASF","ST/C&L","USPAPAS","Pennsylvania Division of Forest Fire Protection","PAPAS","Pennsylvania Division of Forest Fire Protection","","06(20)1-020","","ALVERDA LOCUST","","","","","","2020","2020/04/02 00:00:00+00","93","1725","Human","Debris and open burning","","2020/04/02 00:00:00+00","93","1740","0.1","A","40.63066","-78.85726","MISSING/NOT SPECIFIED","PA","Indiana","42063","Indiana County"
"-76.919689626","40.702246854","2280041","400624503","SFO-2020PAPAS07(20)1-025","NONFED","ST-NASF","ST/C&L","USPAPAS","Pennsylvania Division of Forest Fire Protection","PAPAS","Pennsylvania Division of Forest Fire Protection","","07(20)1-025","","STAHL HILL ROAD","","","","","","2020","2020/04/16 00:00:00+00","107","2054","Human","Debris and open burning","","2020/04/16 00:00:00+00","107","2201","3","B","40.702255","-76.919692","MISSING/NOT SPECIFIED","PA","Snyder","42109","Snyder County"
"-77.513617431","40.809111857","2280042","400624504","SFO-2020PAPAS07(20)1-026","NONFED","ST-NASF","ST/C&L","USPAPAS","Pennsylvania Division of Forest Fire Protection","PAPAS","Pennsylvania Division of Forest Fire Protection","","07(20)1-026","","R AND R GUN CLUB","","","","","","2020","2020/04/19 00:00:00+00","110","1343","Human","Debris and open burning","","2020/04/19 00:00:00+00","110","1440","0.5","B","40.80912","-77.51362","MISSING/NOT SPECIFIED","PA","Centre","42027","Centre County"
"-77.452312428","40.850831596","2280043","400624505","SFO-2020PAPAS07(20)2-003","NONFED","ST-NASF","ST/C&L","USPAPAS","Pennsylvania Division of Forest Fire Protection","PAPAS","Pennsylvania Division of Forest Fire Protection","","07(20)2-003","","400 TUNNEL ROAD COBURN","","","","","","2020","2020/08/17 00:00:00+00","230","1610","Human","Recreation and ceremony","","2020/08/23 00:00:00+00","236","1330","0.75","B","40.85083975","-77.45231498","MISSING/NOT SPECIFIED","PA","Centre","42027","Centre County"
"-75.789531826","40.819392318","2280044","400624506","SFO-2020PAPAS18(20)1-142","NONFED","ST-NASF","ST/C&L","USPAPAS","Pennsylvania Division of Forest Fire Protection","PAPAS","Pennsylvania Division of Forest Fire Protection","","18(20)1-142","","BREEZEWOOD DRIVE","","","","","","2020","2020/04/28 00:00:00+00","119","1354","Human","Debris and open burning","","2020/04/28 00:00:00+00","119","1500","0.58","B","40.81940053","-75.78953385","MISSING/NOT SPECIFIED","PA","Carbon","42025","Carbon County"
"-75.698897944","41.72689161","2280045","400624507","SFO-2020PAPAS11(20)2-052","NONFED","ST-NASF","ST/C&L","USPAPAS","Pennsylvania Division of Forest Fire Protection","PAPAS","Pennsylvania Division of Forest Fire Protection","","11(20)2-052","","BARTHOLOMEW ROAD","","","","","","2020","2020/11/09 00:00:00+00","314","1736","Human","Debris and open burning","","2020/11/09 00:00:00+00","314","1835","0.5","B","41.7269","-75.6989","MISSING/NOT SPECIFIED","PA","Susquehanna","42115","Susquehanna County"
"-80.276798686","39.617864231","2280046","400624508","SFO-2020WVDOF2020-38538","NONFED","ST-NASF","ST/C&L","USWVWVS","West Virginia Division of Forestry","WVDOF","West Virginia Division of Forestry","","2020-38538","","HARVEY RUN FIRE","","","","","","2020","2020/11/16 00:00:00+00","321","1240","Human","Equipment and vehicle use","","2020/11/16 00:00:00+00","321","1419","2","B","39.61787203","-80.27680203","PRIVATE","WV","Monongalia","54061","Monongalia County"
"-99.014191995","31.529594591","2280047","400624509","SFO-2020TXPRI789453","NONFED","ST-NASF","ST/C&L","USTXTXS","Texas A & M Forest Service","TXPRI","Texas Forest Service","","789453","","FIRE","","","","","","2020","2020/07/29 00:00:00+00","211","","Human","Equipment and vehicle use","","","","","2","B","31.5296","-99.0142","MISSING/NOT SPECIFIED","TX","Brown","48049","Brown County"
"-98.403892189","30.698894725","2280048","400624510","SFO-2020TXPRI788523","NONFED","ST-NASF","ST/C&L","USTXTXS","Texas A & M Forest Service","TXPRI","Texas Forest Service","","788523","","HVVFD FIRE","","","","","","2020","2020/08/05 00:00:00+00","218","","Human","Missing data/not specified/undetermined","","","","","0.01","A","30.6989","-98.4039","MISSING/NOT SPECIFIED","TX","Burnet","48053","Burnet County"
"-95.059893057","30.194894703","2280049","400624511","SFO-2020TXPRI798548","NONFED","ST-NASF","ST/C&L","USTXTXS","Texas A & M Forest Service","TXPRI","Texas Forest Service","","798548","","BRUSH GRASS FIRE","","","","","","2020","2020/10/13 00:00:00+00","287","","Human","Debris and open burning","","","","","0.3","B","30.1949","-95.0599","MISSING/NOT SPECIFIED","TX","Liberty","48291","Liberty County"
"-99.00399199","31.667194565","2280050","400624513","SFO-2020TXPRI789936","NONFED","ST-NASF","ST/C&L","USTXTXS","Texas A & M Forest Service","TXPRI","Texas Forest Service","","789936","","S 377","","","","","","2020","2020/08/12 00:00:00+00","225","","Missing data/not specified/undetermined","Missing data/not specified/undetermined","","","","","40","C","31.6672","-99.004","MISSING/NOT SPECIFIED","TX","Brown","48049","Brown County"
"-96.861892596","30.239594758","2280051","400624514","SFO-2020TXPRI796544","NONFED","ST-NASF","ST/C&L","USTXTXS","Texas A & M Forest Service","TXPRI","Texas Forest Service","","796544","","GRIMM","","","","","","2020","2020/10/13 00:00:00+00","287","","Human","Debris and open burning","","","","","2","B","30.2396","-96.8619","MISSING/NOT SPECIFIED","TX","Lee","48287","Lee County"
"-95.029693065","30.179294706","2280052","400624515","SFO-2020TXPRI796803","NONFED","ST-NASF","ST/C&L","USTXTXS","Texas A & M Forest Service","TXPRI","Texas Forest Service","","796803","","GRASS & WOODS","","","","","","2020","2020/06/11 00:00:00+00","163","","Human","Debris and open burning","","","","","2","B","30.1793","-95.0297","MISSING/NOT SPECIFIED","TX","Liberty","48291","Liberty County"
"-102.323390915","35.683694023","2280053","400624516","SFO-2020TXPRI792737","NONFED","ST-NASF","ST/C&L","USTXTXS","Texas A & M Forest Service","TXPRI","Texas Forest Service","","792737","","711 E 7TH","","","","","","2020","2020/06/11 00:00:00+00","163","","Human","Power generation/transmission/distribution","","","","","77.25","C","35.6837","-102.3234","MISSING/NOT SPECIFIED","TX","Hartley","48205","Hartley County"
"-95.496092958","29.912494776","2280054","400624517","SFO-2020TXPRI793211","NONFED","ST-NASF","ST/C&L","USTXTXS","Texas A & M Forest Service","TXPRI","Texas Forest Service","","793211","","E004","","","","","","2020","2020/06/14 00:00:00+00","166","","Human","Missing data/not specified/undetermined","","","","","0.02","A","29.9125","-95.4961","MISSING/NOT SPECIFIED","TX","Harris","48201","Harris County"
"-97.352192341","32.684894305","2280055","400624518","SFO-2020TXPRI789739","NONFED","ST-NASF","ST/C&L","USTXTXS","Texas A & M Forest Service","TXPRI","Texas Forest Service","","789739","","W 13TH","","","","","","2020","2020/08/06 00:00:00+00","219","","Missing data/not specified/undetermined","Missing data/not specified/undetermined","","","","","0.1","A","32.6849","-97.3522","MISSING/NOT SPECIFIED","TX","Tarrant","48439","Tarrant County"
"-77.106101253","40.907602022","2280056","400624520","SFO-2020PAPAS07(20)2-006","NONFED","ST-NASF","ST/C&L","USPAPAS","Pennsylvania Division of Forest Fire Protection","PAPAS","Pennsylvania Division of Forest Fire Protection","","07(20)2-006","","KAISER RUN AT OLD TURNPIKE","","","","","","2020","2020/08/22 00:00:00+00","235","1200","Human","Equipment and vehicle use","","2020/08/22 00:00:00+00","235","1219","0.1","A","40.9076102","-77.1061037","MISSING/NOT SPECIFIED","PA","Union","42119","Union County"
"-78.465797116","41.033891853","2280057","400624521","SFO-2020PAPAS09(20)1-033","NONFED","ST-NASF","ST/C&L","USPAPAS","Pennsylvania Division of Forest Fire Protection","PAPAS","Pennsylvania Division of Forest Fire Protection","","09(20)1-033","","MARTIN","","","","","","2020","2020/04/15 00:00:00+00","106","1900","Human","Arson/incendiarism","","2020/04/15 00:00:00+00","106","1930","0.1","A","41.0339","-78.4658","MISSING/NOT SPECIFIED","PA","Clearfield","42033","Clearfield County"
"-75.438598068","41.119691717","2280058","400624522","SFO-2020PAPAS19(20)1-033","NONFED","ST-NASF","ST/C&L","USPAPAS","Pennsylvania Division of Forest Fire Protection","PAPAS","Pennsylvania Division of Forest Fire Protection","","19(20)1-033","","ROWAN","","","","","","2020","2020/04/20 00:00:00+00","111","1429","Human","Missing data/not specified/undetermined","","2020/04/20 00:00:00+00","111","1455","0.1","A","41.1197","-75.4386","MISSING/NOT SPECIFIED","PA","Monroe","42089","Monroe County"
"-75.942022893","41.327915696","2280059","400624523","SFO-2020PAPAS11(20)1-214","NONFED","ST-NASF","ST/C&L","USPAPAS","Pennsylvania Division of Forest Fire Protection","PAPAS","Pennsylvania Division of Forest Fire Protection","","11(20)1-214","","LUMS","","","","","","2020","2020/06/13 00:00:00+00","165","1439","Human","Recreation and ceremony","","2020/06/13 00:00:00+00","165","1455","0.1","A","41.327924","-75.942025","MISSING/NOT SPECIFIED","PA","Luzerne","42079","Luzerne County"
"-76.020724881","41.145272734","2280060","400624524","SFO-2020PAPAS11(20)1-218","NONFED","ST-NASF","ST/C&L","USPAPAS","Pennsylvania Division of Forest Fire Protection","PAPAS","Pennsylvania Division of Forest Fire Protection","","11(20)1-218","","SLOCUM ROAD","","","","","","2020","2020/06/17 00:00:00+00","169","1740","Human","Debris and open burning","","2020/06/17 00:00:00+00","169","1800","0.5","B","41.145281","-76.020727","MISSING/NOT SPECIFIED","PA","Luzerne","42079","Luzerne County"
"-76.828305431","41.195041226","2280061","400624525","SFO-2020PAPAS12(20)1-016","NONFED","ST-NASF","ST/C&L","USPAPAS","Pennsylvania Division of Forest Fire Protection","PAPAS","Pennsylvania Division of Forest Fire Protection","","12(20)1-016","","CLINTON TOWNSHIP 1","","","","","","2020","2020/03/09 00:00:00+00","69","1711","Human","Debris and open burning","","2020/03/09 00:00:00+00","69","1720","0.1","A","41.19504947","-76.82830781","MISSING/NOT SPECIFIED","PA","Lycoming","42081","Lycoming County"
"-77.160492513","41.226485763","2280062","400624526","SFO-2020PAPAS12(20)1-018","NONFED","ST-NASF","ST/C&L","USPAPAS","Pennsylvania Division of Forest Fire Protection","PAPAS","Pennsylvania Division of Forest Fire Protection","","12(20)1-018","","WOODWARD TOWNSHIP 4","","","","","","2020","2020/03/13 00:00:00+00","73","1426","Human","Debris and open burning","","2020/03/13 00:00:00+00","73","1441","0.25","A","41.226494","-77.160495","MISSING/NOT SPECIFIED","PA","Lycoming","42081","Lycoming County"
"-80.208496567","41.108191914","2280063","400624527","SFO-2020PAPAS08(20)1-001","NONFED","ST-NASF","ST/C&L","USPAPAS","Pennsylvania Division of Forest Fire Protection","PAPAS","Pennsylvania Division of Forest Fire Protection","","08(20)1-001","","COOPERTOWN ROAD","","","","","","2020","2020/02/23 00:00:00+00","54","1405","Human","Debris and open burning","","2020/02/23 00:00:00+00","54","1444","8.4","B","41.1082","-80.2085","MISSING/NOT SPECIFIED","PA","Lawrence","42073","Lawrence County"
"-79.934014742","39.462752677","2280064","400624528","SFO-2020WVDOF2020-38326","NONFED","ST-NASF","ST/C&L","USWVWVS","West Virginia Division of Forestry","WVDOF","West Virginia Division of Forestry","","2020-38326","","GRAFTON ROAD/SLEEPY HOLLOW","","","","","","2020","2020/03/29 00:00:00+00","89","1527","Human","Equipment and vehicle use","","2020/03/29 00:00:00+00","89","1558","0.2","A","39.46276046","-79.93401797","PRIVATE","WV","Monongalia","54061","Monongalia County"
"-80.070494388","39.342895196","2280065","400624529","SFO-2020WVDOF2020-38335","NONFED","ST-NASF","ST/C&L","USWVWVS","West Virginia Division of Forestry","WVDOF","West Virginia Division of Forestry","","2020-38335","","WOODSDALE CEMETERY RD.","","","","","","2020","2020/03/30 00:00:00+00","90","1313","Human","Power generation/transmission/distribution","","2020/03/30 00:00:00+00","90","1402","0.1","A","39.34290295","-80.07049765","PRIVATE","WV","Taylor","54091","Taylor County"
"-96.497792683","30.346394724","2280066","400624530","SFO-2020TXPRI788781","NONFED","ST-NASF","ST/C&L","USTXTXS","Texas A & M Forest Service","TXPRI","Texas Forest Service","","788781","","1831 CO RD 462 RODGERS","","","","","","2020","2020/07/15 00:00:00+00","197","","Human","Equipment and vehicle use","","","","","2","B","30.3464","-96.4978","MISSING/NOT SPECIFIED","TX","Burleson","48051","Burleson County"
"-100.946158299","30.165828251","2280067","400624532","SFO-2020TXTXS009197","NONFED","ST-NASF","ST/C&L","USTXTXS","Texas A & M Forest Service","TXTXS","Texas Forest Service","","009197","","VAL VERDE ","","","","","","2020","2020/08/24 00:00:00+00","237","1904","Natural","Natural","","2020/08/26 00:00:00+00","239","1804","25","C","30.16583333","-100.9461667","MISSING/NOT SPECIFIED","TX","Val Verde","48465","Val Verde County"
"-97.012692362","33.717994097","2280068","400624533","SFO-2020TXPRI794427","NONFED","ST-NASF","ST/C&L","USTXTXS","Texas A & M Forest Service","TXPRI","Texas Forest Service","","794427","","66772 CR 115","","","","","","2020","2020/02/02 00:00:00+00","33","","Human","Equipment and vehicle use","","","","","1","B","33.718","-97.0127","MISSING/NOT SPECIFIED","TX","Cooke","48097","Cooke County"
"-101.848391087","34.940994119","2280069","400624534","SFO-2020TXPRI795915","NONFED","ST-NASF","ST/C&L","USTXTXS","Texas A & M Forest Service","TXPRI","Texas Forest Service","","795915","","20926","","","","","","2020","2020/09/19 00:00:00+00","263","","Missing data/not specified/undetermined","Missing data/not specified/undetermined","","","","","0.5","B","34.941","-101.8484","MISSING/NOT SPECIFIED","TX","Randall","48381","Randall County"
"-96.239692771","29.841894816","2280070","400624535","SFO-2020TXPRI797655","NONFED","ST-NASF","ST/C&L","USTXTXS","Texas A & M Forest Service","TXPRI","Texas Forest Service","","797655","","BRUSH FIRE ","","","","","","2020","2020/08/18 00:00:00+00","231","","Natural","Natural","","","","","2","B","29.8419","-96.2397","MISSING/NOT SPECIFIED","TX","Austin","48015","Austin County"
"-95.032393065","30.164094709","2280071","400624536","SFO-2020TXPRI796725","NONFED","ST-NASF","ST/C&L","USTXTXS","Texas A & M Forest Service","TXPRI","Texas Forest Service","","796725","","GRASS FIRE","","","","","","2020","2020/05/18 00:00:00+00","139","","Human","Debris and open burning","","","","","0.5","B","30.1641","-95.0324","MISSING/NOT SPECIFIED","TX","Liberty","48291","Liberty County"
"-98.606191971","33.580694195","2280072","400624537","SFO-2020TXPRI796982","NONFED","ST-NASF","ST/C&L","USTXTXS","Texas A & M Forest Service","TXPRI","Texas Forest Service","","796982","","GRASS FIRE DEMOSS RD","","","","","","2020","2020/10/12 00:00:00+00","286","","Human","Equipment and vehicle use","","","","","2","B","33.5807","-98.6062","MISSING/NOT SPECIFIED","TX","Archer","48009","Archer County"
"-96.137492583","33.75529405","2280073","400624538","SFO-2020TXPRI794208","NONFED","ST-NASF","ST/C&L","USTXTXS","Texas A & M Forest Service","TXPRI","Texas Forest Service","","794208","","N/A","","","","","","2020","2020/08/21 00:00:00+00","234","","Human","Missing data/not specified/undetermined","","","","","0.25","A","33.7553","-96.1375","MISSING/NOT SPECIFIED","TX","Fannin","48147","Fannin County"
"-101.170985427","32.328753536","2280074","400624539","SFO-2020TXPRI793519","NONFED","ST-NASF","ST/C&L","USTXTXS","Texas A & M Forest Service","TXPRI","Texas Forest Service","","793519","","MITCHELL COUNTY","","","","","","2020","2020/09/01 00:00:00+00","245","","Human","Debris and open burning","","","","","3","B","32.328759","-101.170994","MISSING/NOT SPECIFIED","TX","Mitchell","48335","Mitchell County"
"-79.194220824","41.871966727","2280075","400624540","SFO-2020PAPAS14(20)1-009","NONFED","ST-NASF","ST/C&L","USPAPAS","Pennsylvania Division of Forest Fire Protection","PAPAS","Pennsylvania Division of Forest Fire Protection","","14(20)1-009","","FOLLETT RUN","","","","","","2020","2020/03/16 00:00:00+00","76","1415","Human","Debris and open burning","","2020/03/16 00:00:00+00","76","1444","0.1","A","41.871975","-79.194224","MISSING/NOT SPECIFIED","PA","Warren","42123","Warren County"
"-77.112879674","41.151972995","2280076","400624541","SFO-2020PAPAS12(20)1-023","NONFED","ST-NASF","ST/C&L","USPAPAS","Pennsylvania Division of Forest Fire Protection","PAPAS","Pennsylvania Division of Forest Fire Protection","","12(20)1-023","","LIMESTONE TOWNSHIP 2","","","","","","2020","2020/03/15 00:00:00+00","75","1641","Human","Debris and open burning","","2020/03/15 00:00:00+00","75","1714","4","B","41.15198122","-77.11288214","MISSING/NOT SPECIFIED","PA","Lycoming","42081","Lycoming County"
"-76.964329622","40.551646885","2280077","400624542","SFO-2020PAPAS18(20)1-155","NONFED","ST-NASF","ST/C&L","USPAPAS","Pennsylvania Division of Forest Fire Protection","PAPAS","Pennsylvania Division of Forest Fire Protection","","18(20)1-155","","MIDLAND PARK","","","","","","2020","2020/05/07 00:00:00+00","128","1518","Human","Railroad operations and maintenance","","2020/05/07 00:00:00+00","128","","0.1","A","40.551655","-76.964332","MISSING/NOT SPECIFIED","PA","Dauphin","42043","Dauphin County"
"-76.896724636","40.662479861","2280078","400624543","SFO-2020PAPAS18(20)1-157","NONFED","ST-NASF","ST/C&L","USPAPAS","Pennsylvania Division of Forest Fire Protection","PAPAS","Pennsylvania Division of Forest Fire Protection","","18(20)1-157","","2307 ROUTE 174","","","","","","2020","2020/05/07 00:00:00+00","128","1526","Human","Railroad operations and maintenance","","2020/05/07 00:00:00+00","128","1550","0.2","A","40.662488","-76.896727","MISSING/NOT SPECIFIED","PA","Northumberland","42097","Northumberland County"
"-75.502498086","40.518291836","2280079","400624544","SFO-2020PAPAS17(20)1-058","NONFED","ST-NASF","ST/C&L","USPAPAS","Pennsylvania Division of Forest Fire Protection","PAPAS","Pennsylvania Division of Forest Fire Protection","","17(20)1-058","","LEIBERT CREEK 4","","","","","","2020","2020/04/06 00:00:00+00","97","1245","Human","Railroad operations and maintenance","","2020/04/06 00:00:00+00","97","1400","0.1","A","40.5183","-75.5025","MISSING/NOT SPECIFIED","PA","Lehigh","42077","Lehigh County"
"-75.493898089","40.513291836","2280080","400624545","SFO-2020PAPAS17(20)1-065","NONFED","ST-NASF","ST/C&L","USPAPAS","Pennsylvania Division of Forest Fire Protection","PAPAS","Pennsylvania Division of Forest Fire Protection","","17(20)1-065","","LEIBERT CREEK 11","","","","","","2020","2020/04/06 00:00:00+00","97","1245","Human","Railroad operations and maintenance","","2020/04/06 00:00:00+00","97","1400","0.1","A","40.5133","-75.4939","MISSING/NOT SPECIFIED","PA","Lehigh","42077","Lehigh County"
"-78.93522665","39.464345355","2280081","400624546","SFO-2020WVDOF2020-38460","NONFED","ST-NASF","ST/C&L","USWVWVS","West Virginia Division of Forestry","WVDOF","West Virginia Division of Forestry","","2020-38460","","UPPER WAXLER RD FIRE","","","","","","2020","2020/11/15 00:00:00+00","320","1340","Human","Power generation/transmission/distribution","","2020/11/15 00:00:00+00","320","1430","0.25","A","39.46435318","-78.93522957","PRIVATE","WV","Mineral","54057","Mineral County"
"-79.297462639","38.547367562","2280082","400624547","SFO-2020WVDOF2020-38005","NONFED","ST-NASF","ST/C&L","USWVWVS","West Virginia Division of Forestry","WVDOF","West Virginia Division of Forestry","","2020-38005","","PUFFENBARGER","","","","","","2020","2020/02/18 00:00:00+00","49","1100","Human","Equipment and vehicle use","","2020/02/18 00:00:00+00","49","1130","0.3","B","38.54737519","-79.29746561","PRIVATE","WV","Pendleton","54071","Pendleton County"
"-81.867656274","37.549134197","2280083","400624548","SFO-2020WVDOF2020-38614","NONFED","ST-NASF","ST/C&L","USWVWVS","West Virginia Division of Forestry","WVDOF","West Virginia Division of Forestry","","2020-38614","","ISABAN MOUNTAIN","","","","","","2020","2020/12/23 00:00:00+00","358","1543","Human","Arson/incendiarism","","2020/12/23 00:00:00+00","358","1930","4","B","37.54914152","-81.86765996","PRIVATE","WV","Mingo","54059","Mingo County"
"-80.864413225","38.02386142","2280084","400624549","SFO-2020WVDOF2020-38016","NONFED","ST-NASF","ST/C&L","USWVWVS","West Virginia Division of Forestry","WVDOF","West Virginia Division of Forestry","","2020-38016","","CORLISS ROAD FIRE","","","","","","2020","2020/02/17 00:00:00+00","48","1438","Human","Debris and open burning","","2020/02/17 00:00:00+00","48","1600","2","B","38.02386888","-80.86441664","PRIVATE","WV","Fayette","54019","Fayette County"
"-82.205617648","38.218044557","2280085","400624550","SFO-2020WVDOF2020-38173","NONFED","ST-NASF","ST/C&L","USWVWVS","West Virginia Division of Forestry","WVDOF","West Virginia Division of Forestry","","2020-38173","","ELLIS FARM ROAD","","","","","","2020","2020/03/29 00:00:00+00","89","1730","Human","Power generation/transmission/distribution","","2020/03/29 00:00:00+00","89","2200","11","C","38.218052","-82.20562148","PRIVATE","WV","Lincoln","54043","Lincoln County"
"-80.566665021","38.388220245","2280086","400624551","SFO-2020WVDOF2020-38564","NONFED","ST-NASF","ST/C&L","USWVWVS","West Virginia Division of Forestry","WVDOF","West Virginia Division of Forestry","","2020-38564","","WEBSTER ROAD","","","","","","2020","2020/11/05 00:00:00+00","310","1520","Human","Equipment and vehicle use","","2020/11/05 00:00:00+00","310","1600","0.2","A","38.38822779","-80.56666837","PRIVATE","WV","Webster","54101","Webster County"
"-80.82642025","38.281996947","2280087","400624552","SFO-2020WVDOF2020-38565","NONFED","ST-NASF","ST/C&L","USWVWVS","West Virginia Division of Forestry","WVDOF","West Virginia Division of Forestry","","2020-38565","","POWER PLANT RD","","","","","","2020","2020/11/10 00:00:00+00","315","1541","Human","Arson/incendiarism","","2020/11/11 00:00:00+00","316","0115","16","C","38.28200446","-80.82642367","UNDEFINED FEDERAL","WV","Nicholas","54067","Nicholas County"
"-78.782946063","39.367360098","2280088","400624553","SFO-2020WVDOF2020-38100","NONFED","ST-NASF","ST/C&L","USWVWVS","West Virginia Division of Forestry","WVDOF","West Virginia Division of Forestry","","2020-38100","","FOX HOLLOW ROAD FIRE","","","","","","2020","2020/03/30 00:00:00+00","90","1322","Human","Recreation and ceremony","","2020/03/30 00:00:00+00","90","1500","0.3","B","39.36736791","-78.78294893","PRIVATE","WV","Hampshire","54027","Hampshire County"
"-78.692866808","39.108508926","2280089","400624554","SFO-2020WVDOF2020-38500","NONFED","ST-NASF","ST/C&L","USWVWVS","West Virginia Division of Forestry","WVDOF","West Virginia Division of Forestry","","2020-38500","","KNOWLEN RUN ROAD FIRE","","","","","","2020","2020/11/20 00:00:00+00","325","1400","Human","Misuse of fire by a minor","Minor","2020/11/20 00:00:00+00","325","1440","0.2","A","39.10851669","-78.69286963","PRIVATE","WV","Hardy","54031","Hardy County"
"-97.242492366","32.730494291","2280090","400624555","SFO-2020TXPRI788988","NONFED","ST-NASF","ST/C&L","USTXTXS","Texas A & M Forest Service","TXPRI","Texas Forest Service","","788988","","E ROSEDALE","","","","","","2020","2020/07/05 00:00:00+00","187","","Missing data/not specified/undetermined","Missing data/not specified/undetermined","","","","","0.01","A","32.7305","-97.2425","MISSING/NOT SPECIFIED","TX","Tarrant","48439","Tarrant County"
"-98.032892241","31.450394567","2280091","400624556","SFO-2020TXPRI788617","NONFED","ST-NASF","ST/C&L","USTXTXS","Texas A & M Forest Service","TXPRI","Texas Forest Service","","788617","","425","","","","","","2020","2020/08/02 00:00:00+00","215","","Human","Equipment and vehicle use","","","","","7","B","31.4504","-98.0329","MISSING/NOT SPECIFIED","TX","Coryell","48099","Coryell County"
"-95.430192965","30.12549473","2280092","400624557","SFO-2020TXPRI789964","NONFED","ST-NASF","ST/C&L","USTXTXS","Texas A & M Forest Service","TXPRI","Texas Forest Service","","789964","","RAYFORD852","","","","","","2020","2020/07/22 00:00:00+00","204","","Missing data/not specified/undetermined","Missing data/not specified/undetermined","","","","","0.1","A","30.1255","-95.4302","MISSING/NOT SPECIFIED","TX","Montgomery","48339","Montgomery County"
"-95.075393054","30.168194709","2280093","400624558","SFO-2020TXPRI796269","NONFED","ST-NASF","ST/C&L","USTXTXS","Texas A & M Forest Service","TXPRI","Texas Forest Service","","796269","","BRUSH GRASS FIRE MIXTURE","","","","","","2020","2020/04/08 00:00:00+00","99","","Human","Debris and open burning","","","","","0.1","A","30.1682","-95.0754","MISSING/NOT SPECIFIED","TX","Liberty","48291","Liberty County"
"-98.285592052","33.559994184","2280094","400624559","SFO-2020TXPRI792796","NONFED","ST-NASF","ST/C&L","USTXTXS","Texas A & M Forest Service","TXPRI","Texas Forest Service","","792796","","4992 FM 174","","","","","","2020","2020/08/26 00:00:00+00","239","","Human","Debris and open burning","","","","","10","C","33.56","-98.2856","MISSING/NOT SPECIFIED","TX","Clay","48077","Clay County"
"-97.17559245","31.561894511","2280095","400624561","SFO-2020TXPRI797424","NONFED","ST-NASF","ST/C&L","USTXTXS","Texas A & M Forest Service","TXPRI","Texas Forest Service","","797424","","2900023","","","","","","2020","2020/10/16 00:00:00+00","290","","Human","Debris and open burning","","","","","0.01","A","31.5619","-97.1756","MISSING/NOT SPECIFIED","TX","McLennan","48309","McLennan County"
"-95.236292866","32.923994169","2280096","400624562","SFO-2020TXPRI798129","NONFED","ST-NASF","ST/C&L","USTXTXS","Texas A & M Forest Service","TXPRI","Texas Forest Service","","798129","","1833","","","","","","2020","2020/06/27 00:00:00+00","179","","Missing data/not specified/undetermined","Missing data/not specified/undetermined","","","","","0.2","A","32.924","-95.2363","MISSING/NOT SPECIFIED","TX","Wood","48499","Wood County"
"-75.995108716","40.738510211","2280097","400624563","SFO-2020PAPAS18(20)1-096","NONFED","ST-NASF","ST/C&L","USPAPAS","Pennsylvania Division of Forest Fire Protection","PAPAS","Pennsylvania Division of Forest Fire Protection","","18(20)1-096","","120 RIVER ROAD","","","","","","2020","2020/03/27 00:00:00+00","87","1228","Human","Debris and open burning","","2020/03/27 00:00:00+00","87","1245","1.7","B","40.7385184","-75.9951108","MISSING/NOT SPECIFIED","PA","Schuylkill","42107","Schuylkill County"
"-75.80489794","41.293391697","2280098","400624564","SFO-2020PAPAS11(20)1-018","NONFED","ST-NASF","ST/C&L","USPAPAS","Pennsylvania Division of Forest Fire Protection","PAPAS","Pennsylvania Division of Forest Fire Protection","","11(20)1-018","","PASSAN DR 1","","","","","","2020","2020/02/28 00:00:00+00","59","1357","Human","Railroad operations and maintenance","","2020/02/28 00:00:00+00","59","1516","0.1","A","41.2934","-75.8049","MISSING/NOT SPECIFIED","PA","Luzerne","42079","Luzerne County"
"-75.802910927","41.492080659","2280099","400624565","SFO-2020PAPAS11(20)1-039","NONFED","ST-NASF","ST/C&L","USPAPAS","Pennsylvania Division of Forest Fire Protection","PAPAS","Pennsylvania Division of Forest Fire Protection","","11(20)1-039","","HIGHLAND ROAD","","","","","","2020","2020/02/25 00:00:00+00","56","1725","Human","Debris and open burning","","2020/02/25 00:00:00+00","56","1815","0.5","B","41.492089","-75.802913","MISSING/NOT SPECIFIED","PA","Wyoming","42131","Wyoming County"
"-76.170181799","41.643406645","2280100","400624566","SFO-2020PAPAS11(20)1-089","NONFED","ST-NASF","ST/C&L","USPAPAS","Pennsylvania Division of Forest Fire Protection","PAPAS","Pennsylvania Division of Forest Fire Protection","","11(20)1-089","","LACEY ST","","","","","","2020","2020/03/18 00:00:00+00","78","1659","Human","Debris and open burning","","2020/03/18 00:00:00+00","78","1710","0.1","A","41.643415","-76.170184","MISSING/NOT SPECIFIED","PA","Wyoming","42131","Wyoming County"
"-75.490298091","40.512791836","2280101","400624567","SFO-2020PAPAS17(20)1-067","NONFED","ST-NASF","ST/C&L","USPAPAS","Pennsylvania Division of Forest Fire Protection","PAPAS","Pennsylvania Division of Forest Fire Protection","","17(20)1-067","","LEIBERT CREEK 13","","","","","","2020","2020/04/06 00:00:00+00","97","1245","Human","Railroad operations and maintenance","","2020/04/06 00:00:00+00","97","1400","0.5","B","40.5128","-75.4903","MISSING/NOT SPECIFIED","PA","Lehigh","42077","Lehigh County"
"-76.346187725","41.898171603","2280102","400624568","SFO-2020PAPAS20(20)1-014","NONFED","ST-NASF","ST/C&L","USPAPAS","Pennsylvania Division of Forest Fire Protection","PAPAS","Pennsylvania Division of Forest Fire Protection","","20(20)1-014","","SPERRY","","","","","","2020","2020/03/22 00:00:00+00","82","1535","Human","Debris and open burning","","2020/03/22 00:00:00+00","82","1600","4.5","B","41.89818","-76.34619","MISSING/NOT SPECIFIED","PA","Bradford","42015","Bradford County"
"-81.810078509","38.336889377","2280103","400624569","SFO-2020WVDOF2020-38461","NONFED","ST-NASF","ST/C&L","USWVWVS","West Virginia Division of Forestry","WVDOF","West Virginia Division of Forestry","","2020-38461","","FOP RANGE SMITH CREEK","","","","","","2020","2020/11/10 00:00:00+00","315","1345","Human","Fireworks","","2020/11/10 00:00:00+00","315","1600","8","B","38.33689686","-81.81008223","PRIVATE","WV","Kanawha","54039","Kanawha County"
"-78.770965866","39.383834125","2280104","400624570","SFO-2020WVDOF2020-38303","NONFED","ST-NASF","ST/C&L","USWVWVS","West Virginia Division of Forestry","WVDOF","West Virginia Division of Forestry","","2020-38303","","FOX HOLLOW RD. FIRE","","","","","","2020","2020/04/21 00:00:00+00","112","1715","Human","Equipment and vehicle use","","2020/04/21 00:00:00+00","112","1800","2.5","B","39.38384194","-78.77096873","MISSING/NOT SPECIFIED","WV","Hampshire","54027","Hampshire County"
"-98.481792089","32.182794447","2280105","400624571","SFO-2020TXPRI790051","NONFED","ST-NASF","ST/C&L","USTXTXS","Texas A & M Forest Service","TXPRI","Texas Forest Service","","790051","","PAIN FIRE","","","","","","2020","2020/07/16 00:00:00+00","198","","Human","Equipment and vehicle use","","","","","2","B","32.1828","-98.4818","MISSING/NOT SPECIFIED","TX","Erath","48143","Erath County"
"-75.340598067","41.60359162","2280106","400624572","SFO-2020PAPAS11(20)1-169","NONFED","ST-NASF","ST/C&L","USPAPAS","Pennsylvania Division of Forest Fire Protection","PAPAS","Pennsylvania Division of Forest Fire Protection","","11(20)1-169","","CREEK DRIVE","","","","","","2020","2020/03/09 00:00:00+00","69","1731","Human","Debris and open burning","","2020/03/09 00:00:00+00","69","1855","1.25","B","41.6036","-75.3406","MISSING/NOT SPECIFIED","PA","Wayne","42127","Wayne County"
"-81.168821929","37.93748365","2280107","400624573","SFO-2020WVDOF2020-38159","NONFED","ST-NASF","ST/C&L","USWVWVS","West Virginia Division of Forestry","WVDOF","West Virginia Division of Forestry","","2020-38159","","218 SWEETWOOD LANE","","","","","","2020","2020/03/26 00:00:00+00","86","1720","Human","Debris and open burning","","2020/03/26 00:00:00+00","86","1945","3","B","37.93749108","-81.16882543","PRIVATE","WV","Fayette","54019","Fayette County"
"-80.69294205","39.315304417","2280108","400624574","SFO-2020WVDOF2020-38519","NONFED","ST-NASF","ST/C&L","USWVWVS","West Virginia Division of Forestry","WVDOF","West Virginia Division of Forestry","","2020-38519","","VISTA DORO LANE","","","","","","2020","2020/11/28 00:00:00+00","333","1419","Human","Debris and open burning","","2020/11/28 00:00:00+00","333","1515","0.1","A","39.31531214","-80.6929455","PRIVATE","WV","Doddridge","54017","Doddridge County"
"-82.029274637","38.566810811","2280109","400624575","SFO-2020WVDOF2020-38606","NONFED","ST-NASF","ST/C&L","USWVWVS","West Virginia Division of Forestry","WVDOF","West Virginia Division of Forestry","","2020-38606","","2214 STAVES BRANCH","","","","","","2020","2020/12/11 00:00:00+00","346","1405","Human","Equipment and vehicle use","","2020/12/11 00:00:00+00","346","1435","0.1","A","38.56681833","-82.02927844","PRIVATE","WV","Putnam","54079","Putnam County"
"-97.292292343","32.902994261","2280110","400624576","SFO-2020TXPRI789269","NONFED","ST-NASF","ST/C&L","USTXTXS","Texas A & M Forest Service","TXPRI","Texas Forest Service","","789269","","BROOK HILL","","","","","","2020","2020/07/18 00:00:00+00","200","","Missing data/not specified/undetermined","Missing data/not specified/undetermined","","","","","0.01","A","32.903","-97.2923","MISSING/NOT SPECIFIED","TX","Tarrant","48439","Tarrant County"
"-95.18089285","33.435294068","2280111","400624577","SFO-2020TXPRI791400","NONFED","ST-NASF","ST/C&L","USTXTXS","Texas A & M Forest Service","TXPRI","Texas Forest Service","","791400","","HWY 271S GRASS FIRE 8/30","","","","","","2020","2020/08/30 00:00:00+00","243","","Human","Debris and open burning","","","","","1","B","33.4353","-95.1809","MISSING/NOT SPECIFIED","TX","Red River","48387","Red River County"
"-102.401991247","30.364328269","2280112","400624578","SFO-2020TXTXS009246","NONFED","ST-NASF","ST/C&L","USTXTXS","Texas A & M Forest Service","TXTXS","Texas Forest Service","","009246","","SOTOL MITCHELL ","","","","","","2020","2020/09/03 00:00:00+00","247","1719","Natural","Natural","","2020/09/04 00:00:00+00","248","2037","69","C","30.36433333","-102.402","MISSING/NOT SPECIFIED","TX","Pecos","48371","Pecos County"
"-96.497592679","30.424294708","2280113","400624579","SFO-2020TXPRI795496","NONFED","ST-NASF","ST/C&L","USTXTXS","Texas A & M Forest Service","TXPRI","Texas Forest Service","","795496","","POSSIBLE BURN BAN VIOLATION","","","","","","2020","2020/08/15 00:00:00+00","228","","Missing data/not specified/undetermined","Missing data/not specified/undetermined","","","","","20","C","30.4243","-96.4976","MISSING/NOT SPECIFIED","TX","Burleson","48051","Burleson County"
"-79.49898287","40.120399251","2280114","400624580","SFO-2020PAPAS04(20)1-015","NONFED","ST-NASF","ST/C&L","USPAPAS","Pennsylvania Division of Forest Fire Protection","PAPAS","Pennsylvania Division of Forest Fire Protection","","04(20)1-015","","760 KREINBROOK HILL","","","","","","2020","2020/03/08 00:00:00+00","68","1751","Human","Missing data/not specified/undetermined","","2020/03/08 00:00:00+00","68","1805","0.25","A","40.12040718","-79.49898601","MISSING/NOT SPECIFIED","PA","Fayette","42051","Fayette County"
"-78.769141589","41.06471537","2280115","400624581","SFO-2020PAPAS09(20)1-006","NONFED","ST-NASF","ST/C&L","USPAPAS","Pennsylvania Division of Forest Fire Protection","PAPAS","Pennsylvania Division of Forest Fire Protection","","09(20)1-006","","DELARME","","","","","","2020","2020/02/23 00:00:00+00","54","1716","Human","Debris and open burning","","2020/02/23 00:00:00+00","54","1732","0.1","A","41.06472351","-78.76914457","MISSING/NOT SPECIFIED","PA","Clearfield","42033","Clearfield County"
"-79.718468688","41.505817818","2280116","400624582","SFO-2020PAPAS14(20)2-009","NONFED","ST-NASF","ST/C&L","USPAPAS","Pennsylvania Division of Forest Fire Protection","PAPAS","Pennsylvania Division of Forest Fire Protection","","14(20)2-009","","KANE RUN","","","","","","2020","2020/10/17 00:00:00+00","291","1414","Human","Missing data/not specified/undetermined","","2020/10/17 00:00:00+00","291","1508","0.66","B","41.505826","-79.718472","MISSING/NOT SPECIFIED","PA","Venango","42121","Venango County"
"-76.734767648","41.230191745","2280117","400624583","SFO-2020PAPAS20(20)2-002","NONFED","ST-NASF","ST/C&L","USPAPAS","Pennsylvania Division of Forest Fire Protection","PAPAS","Pennsylvania Division of Forest Fire Protection","","20(20)2-002","","405","","","","","","2020","2020/07/25 00:00:00+00","207","1359","Human","Fireworks","","2020/07/25 00:00:00+00","207","1410","0.1","A","41.2302","-76.73477","MISSING/NOT SPECIFIED","PA","Lycoming","42081","Lycoming County"
"-81.942985792","38.143727601","2280118","400624584","SFO-2020WVDOF2020-38062","NONFED","ST-NASF","ST/C&L","USWVWVS","West Virginia Division of Forestry","WVDOF","West Virginia Division of Forestry","","2020-38062","","982 BULGER ROAD","","","","","","2020","2020/03/04 00:00:00+00","64","1352","Human","Debris and open burning","","2020/03/04 00:00:00+00","64","1445","0.3","B","38.14373504","-81.94298954","PRIVATE","WV","Lincoln","54043","Lincoln County"
"-97.22559237","32.730394291","2280119","400624585","SFO-2020TXPRI789559","NONFED","ST-NASF","ST/C&L","USTXTXS","Texas A & M Forest Service","TXPRI","Texas Forest Service","","789559","","E LOOP 820","","","","","","2020","2020/07/30 00:00:00+00","212","","Missing data/not specified/undetermined","Missing data/not specified/undetermined","","","","","0.1","A","32.7304","-97.2256","MISSING/NOT SPECIFIED","TX","Tarrant","48439","Tarrant County"
"-101.920991041","35.304094063","2280120","400624586","SFO-2020TXPRI795180","NONFED","ST-NASF","ST/C&L","USTXTXS","Texas A & M Forest Service","TXPRI","Texas Forest Service","","795180","","BRICKPLANT","","","","","","2020","2020/07/04 00:00:00+00","186","","Human","Missing data/not specified/undetermined","","","","","2","B","35.3041","-101.921","MISSING/NOT SPECIFIED","TX","Potter","48375","Potter County"
"-76.05650249","40.829716096","2280121","400624587","SFO-2020PAPAS18(20)2-039","NONFED","ST-NASF","ST/C&L","USPAPAS","Pennsylvania Division of Forest Fire Protection","PAPAS","Pennsylvania Division of Forest Fire Protection","","18(20)2-039","","GRIER AVE CREST STREET","","","","","","2020","2020/11/19 00:00:00+00","324","1139","Human","Debris and open burning","","2020/11/19 00:00:00+00","324","1200","0.1","A","40.8297243","-76.0565046","MISSING/NOT SPECIFIED","PA","Schuylkill","42107","Schuylkill County"
"-75.992892892","41.114111739","2280122","400624588","SFO-2020PAPAS11(20)2-020","NONFED","ST-NASF","ST/C&L","USPAPAS","Pennsylvania Division of Forest Fire Protection","PAPAS","Pennsylvania Division of Forest Fire Protection","","11(20)2-020","","2227 PROSPECT","","","","","","2020","2020/11/05 00:00:00+00","310","1247","Human","Debris and open burning","","2020/11/05 00:00:00+00","310","1310","0.1","A","41.11412","-75.992895","MISSING/NOT SPECIFIED","PA","Luzerne","42079","Luzerne County"
"-75.844868515","41.02634596","2280123","400624589","SFO-2020PAPAS11(20)2-021","NONFED","ST-NASF","ST/C&L","USPAPAS","Pennsylvania Division of Forest Fire Protection","PAPAS","Pennsylvania Division of Forest Fire Protection","","11(20)2-021","","BRICKYARD","","","","","","2020","2020/11/06 00:00:00+00","311","0759","Human","Arson/incendiarism","","2020/11/06 00:00:00+00","311","0930","10.82","C","41.02635421","-75.84487057","MISSING/NOT SPECIFIED","PA","Luzerne","42079","Luzerne County"
"-75.691350526","40.53374233","2280124","400624590","SFO-2020PAPAS17(20)1-022","NONFED","ST-NASF","ST/C&L","USPAPAS","Pennsylvania Division of Forest Fire Protection","PAPAS","Pennsylvania Division of Forest Fire Protection","","17(20)1-022","","KLINES CORNER ROAD","","","","","","2020","2020/03/01 00:00:00+00","61","1450","Human","Equipment and vehicle use","","2020/03/01 00:00:00+00","61","1510","0.1","A","40.53375049","-75.6913525","MISSING/NOT SPECIFIED","PA","Berks","42011","Berks County"
"-77.545536028","39.817384241","2280125","400624591","SFO-2020PAPAS01(20)1-008","NONFED","ST-NASF","ST/C&L","USPAPAS","Pennsylvania Division of Forest Fire Protection","PAPAS","Pennsylvania Division of Forest Fire Protection","","01(20)1-008","","VISTA","","","","","","2020","2020/03/16 00:00:00+00","76","1000","Human","Arson/incendiarism","","2020/03/16 00:00:00+00","76","1000","0.1","A","39.81739219","-77.54553854","MISSING/NOT SPECIFIED","PA","Franklin","42055","Franklin County"
"-75.641397991","41.310291688","2280126","400624592","SFO-2020PAPAS11(20)2-058","NONFED","ST-NASF","ST/C&L","USPAPAS","Pennsylvania Division of Forest Fire Protection","PAPAS","Pennsylvania Division of Forest Fire Protection","","11(20)2-058","","NESBITT","","","","","","2020","2020/08/15 00:00:00+00","228","1824","Human","Recreation and ceremony","","2020/08/15 00:00:00+00","228","2000","1","B","41.3103","-75.6414","MISSING/NOT SPECIFIED","PA","Lackawanna","42069","Lackawanna County"
"-76.978005623","40.469389901","2280127","400624593","SFO-2020PAPAS03(20)1-027","NONFED","ST-NASF","ST/C&L","USPAPAS","Pennsylvania Division of Forest Fire Protection","PAPAS","Pennsylvania Division of Forest Fire Protection","","03(20)1-027","","WATTS","","","","","","2020","2020/04/07 00:00:00+00","98","1514","Human","Missing data/not specified/undetermined","","2020/04/07 00:00:00+00","98","1545","0.1","A","40.469398","-76.978008","MISSING/NOT SPECIFIED","PA","Perry","42099","Perry County"
"-78.009197319","40.184191997","2280128","400624594","SFO-2020PAPAS05(20)1-004","NONFED","ST-NASF","ST/C&L","USPAPAS","Pennsylvania Division of Forest Fire Protection","PAPAS","Pennsylvania Division of Forest Fire Protection","","05(20)1-004","","DUG HILL ROAD","","","","","","2020","2020/03/09 00:00:00+00","69","1400","Human","Debris and open burning","","2020/03/09 00:00:00+00","69","1445","0.1","A","40.1842","-78.0092","MISSING/NOT SPECIFIED","PA","Huntingdon","42061","Huntingdon County"
"-78.17699749","40.980826341","2280129","400624595","SFO-2020PAPAS09(20)1-016","NONFED","ST-NASF","ST/C&L","USPAPAS","Pennsylvania Division of Forest Fire Protection","PAPAS","Pennsylvania Division of Forest Fire Protection","","09(20)1-016","","SCHOOLHOUSE","","","","","","2020","2020/03/18 00:00:00+00","78","","Human","Debris and open burning","","2020/03/18 00:00:00+00","78","0552","2","B","40.98083449","-78.17700028","MISSING/NOT SPECIFIED","PA","Clearfield","42033","Clearfield County"
"-81.821891356","37.569101791","2280130","400624596","SFO-2020WVDOF2020-38012","NONFED","ST-NASF","ST/C&L","USWVWVS","West Virginia Division of Forestry","WVDOF","West Virginia Division of Forestry","","2020-38012","","NAPIER FORK","","","","","","2020","2020/02/22 00:00:00+00","53","1820","Human","Other causes","","2020/02/22 00:00:00+00","53","2320","5","B","37.56910912","-81.82189503","PRIVATE","WV","Wyoming","54109","Wyoming County"
"-103.672290876","31.797094738","2280131","400624597","SFO-2020TXPRI793852","NONFED","ST-NASF","ST/C&L","USTXTXS","Texas A & M Forest Service","TXPRI","Texas Forest Service","","793852","","GRASSFIRE#17","","","","","","2020","2020/08/15 00:00:00+00","228","","Natural","Natural","","","","","10","C","31.7971","-103.6723","MISSING/NOT SPECIFIED","TX","Loving","48301","Loving County"
"-98.581292322","26.281395615","2280132","400624598","SFO-2020TXPRI794192","NONFED","ST-NASF","ST/C&L","USTXTXS","Texas A & M Forest Service","TXPRI","Texas Forest Service","","794192","","QUEZADA RD.","","","","","","2020","2020/09/22 00:00:00+00","266","","Human","Debris and open burning","","","","","1","B","26.2814","-98.5813","MISSING/NOT SPECIFIED","TX","Starr","48427","Starr County"
"-97.645192306","32.029294441","2280133","400624599","SFO-2020TXPRI795108","NONFED","ST-NASF","ST/C&L","USTXTXS","Texas A & M Forest Service","TXPRI","Texas Forest Service","","795108","","2615 BRUSH PILES","","","","","","2020","2020/09/29 00:00:00+00","273","","Human","Debris and open burning","","","","","3","B","32.0293","-97.6452","MISSING/NOT SPECIFIED","TX","Bosque","48035","Bosque County"
"-101.779791078","35.257994063","2280134","400624600","SFO-2020TXPRI795171","NONFED","ST-NASF","ST/C&L","USTXTXS","Texas A & M Forest Service","TXPRI","Texas Forest Service","","795171","","VASQUEZ","","","","","","2020","2020/07/03 00:00:00+00","185","","Human","Missing data/not specified/undetermined","","","","","1","B","35.258","-101.7798","MISSING/NOT SPECIFIED","TX","Potter","48375","Potter County"
"-95.620192778","32.74269422","2280135","400624601","SFO-2020TXPRI795250","NONFED","ST-NASF","ST/C&L","USTXTXS","Texas A & M Forest Service","TXPRI","Texas Forest Service","","795250","","GRASS FIRE","","","","","","2020","2020/09/26 00:00:00+00","270","","Human","Debris and open burning","","","","","0.1","A","32.7427","-95.6202","MISSING/NOT SPECIFIED","TX","Wood","48499","Wood County"
"-101.332991403","32.095994584","2280136","400624602","SFO-2020TXPRI790304","NONFED","ST-NASF","ST/C&L","USTXTXS","Texas A & M Forest Service","TXPRI","Texas Forest Service","","790304","","3 MILES EAST OF SOUTH HWY 87 ON FM 821","","","","","","2020","2020/08/06 00:00:00+00","219","","Human","Power generation/transmission/distribution","","","","","21","C","32.096","-101.333","MISSING/NOT SPECIFIED","TX","Howard","48227","Howard County"
"-96.599392613","31.214694556","2280137","400624603","SFO-2020TXPRI790443","NONFED","ST-NASF","ST/C&L","USTXTXS","Texas A & M Forest Service","TXPRI","Texas Forest Service","","790443","","VITERA SAND RD.","","","","","","2020","2020/08/11 00:00:00+00","224","","Missing data/not specified/undetermined","Missing data/not specified/undetermined","","","","","5","B","31.2147","-96.5994","MISSING/NOT SPECIFIED","TX","Robertson","48395","Robertson County"
"-99.895991734","32.32769448","2280138","400624604","SFO-2020TXPRI798000","NONFED","ST-NASF","ST/C&L","USTXTXS","Texas A & M Forest Service","TXPRI","Texas Forest Service","","798000","","GRASS FIRE","","","","","","2020","2020/08/31 00:00:00+00","244","","Human","Missing data/not specified/undetermined","","","","","1","B","32.3277","-99.896","MISSING/NOT SPECIFIED","TX","Taylor","48441","Taylor County"
"-75.539392255","40.352949979","2280139","400624605","SFO-2020PAPAS17(20)2-010","NONFED","ST-NASF","ST/C&L","USPAPAS","Pennsylvania Division of Forest Fire Protection","PAPAS","Pennsylvania Division of Forest Fire Protection","","17(20)2-010","","LAYFIELD ROAD","","","","","","2020","2020/11/05 00:00:00+00","310","1250","Human","Debris and open burning","","2020/11/05 00:00:00+00","310","1333","2","B","40.35295811","-75.53939417","MISSING/NOT SPECIFIED","PA","Montgomery","42091","Montgomery County"
"-77.506000503","39.786111055","2280140","400624606","SFO-2020PAPAS01(20)2-006","NONFED","ST-NASF","ST/C&L","USPAPAS","Pennsylvania Division of Forest Fire Protection","PAPAS","Pennsylvania Division of Forest Fire Protection","","01(20)2-006","","WIRT 4","","","","","","2020","2020/09/09 00:00:00+00","253","1344","Human","Arson/incendiarism","","2020/09/09 00:00:00+00","253","1400","0.1","A","39.786119","-77.506003","MISSING/NOT SPECIFIED","PA","Franklin","42055","Franklin County"
"-79.042159862","40.107069394","2280141","400624607","SFO-2020PAPAS04(20)2-018","NONFED","ST-NASF","ST/C&L","USPAPAS","Pennsylvania Division of Forest Fire Protection","PAPAS","Pennsylvania Division of Forest Fire Protection","","04(20)2-018","","PENN AVENUE","","","","","","2020","2020/11/05 00:00:00+00","310","1500","Human","Debris and open burning","","2020/11/05 00:00:00+00","310","1521","0.5","B","40.10707734","-79.04216286","MISSING/NOT SPECIFIED","PA","Somerset","42111","Somerset County"
"-76.548167677","41.662591656","2280142","400624608","SFO-2020PAPAS20(20)1-033","NONFED","ST-NASF","ST/C&L","USPAPAS","Pennsylvania Division of Forest Fire Protection","PAPAS","Pennsylvania Division of Forest Fire Protection","","20(20)1-033","","WESTON","","","","","","2020","2020/03/16 00:00:00+00","76","1235","Human","Debris and open burning","","2020/03/16 00:00:00+00","76","1300","0.75","B","41.6626","-76.54817","MISSING/NOT SPECIFIED","PA","Bradford","42015","Bradford County"
"-76.231097835","40.823391804","2280143","400624609","SFO-2020PAPAS18(20)2-030","NONFED","ST-NASF","ST/C&L","USPAPAS","Pennsylvania Division of Forest Fire Protection","PAPAS","Pennsylvania Division of Forest Fire Protection","","18(20)2-030","","350 RAVEN RUN ROAD","","","","","","2020","2020/11/09 00:00:00+00","314","0233","Human","Arson/incendiarism","","2020/11/10 00:00:00+00","315","0800","39.5","C","40.8234","-76.2311","MISSING/NOT SPECIFIED","PA","Schuylkill","42107","Schuylkill County"
"-81.334501852","38.184466687","2280144","400624610","SFO-2020WVDOF2020-38217","NONFED","ST-NASF","ST/C&L","USWVWVS","West Virginia Division of Forestry","WVDOF","West Virginia Division of Forestry","","2020-38217","","STATON HOLLOW","","","","","","2020","2020/03/29 00:00:00+00","89","1745","Human","Equipment and vehicle use","","2020/03/30 00:00:00+00","90","1000","31","C","38.18447416","-81.33450542","PRIVATE","WV","Kanawha","54039","Kanawha County"
"-97.238192365","32.769094284","2280145","400624611","SFO-2020TXPRI788989","NONFED","ST-NASF","ST/C&L","USTXTXS","Texas A & M Forest Service","TXPRI","Texas Forest Service","","788989","","THE HEIGHTS","","","","","","2020","2020/07/07 00:00:00+00","189","","Missing data/not specified/undetermined","Missing data/not specified/undetermined","","","","","0.1","A","32.7691","-97.2382","MISSING/NOT SPECIFIED","TX","Tarrant","48439","Tarrant County"
"-98.929291945","32.739894363","2280146","400624612","SFO-2020TXPRI789048","NONFED","ST-NASF","ST/C&L","USTXTXS","Texas A & M Forest Service","TXPRI","Texas Forest Service","","789048","","HUFFMAN FIRE","","","","","","2020","2020/08/09 00:00:00+00","222","","Missing data/not specified/undetermined","Missing data/not specified/undetermined","","","","","1","B","32.7399","-98.9293","MISSING/NOT SPECIFIED","TX","Stephens","48429","Stephens County"
"-97.633092418","29.909294851","2280147","400624613","SFO-2020TXPRI789136","NONFED","ST-NASF","ST/C&L","USTXTXS","Texas A & M Forest Service","TXPRI","Texas Forest Service","","789136","","FM 672 & WITTER ROAD","","","","","","2020","2020/07/13 00:00:00+00","195","","Missing data/not specified/undetermined","Missing data/not specified/undetermined","","","","","0.1","A","29.9093","-97.6331","MISSING/NOT SPECIFIED","TX","Caldwell","48055","Caldwell County"
"-97.38499242","31.139694601","2280148","400624615","SFO-2020TXPRI793566","NONFED","ST-NASF","ST/C&L","USTXTXS","Texas A & M Forest Service","TXPRI","Texas Forest Service","","793566","","CENTRAL POINTE","","","","","","2020","2020/08/11 00:00:00+00","224","","Missing data/not specified/undetermined","Missing data/not specified/undetermined","","","","","5","B","31.1397","-97.385","MISSING/NOT SPECIFIED","TX","Bell","48027","Bell County"
"-96.980392497","31.592994497","2280149","400624616","SFO-2020TXPRI791088","NONFED","ST-NASF","ST/C&L","USTXTXS","Texas A & M Forest Service","TXPRI","Texas Forest Service","","791088","","THE BRANCH EE FIRE","","","","","","2020","2020/08/29 00:00:00+00","242","","Missing data/not specified/undetermined","Missing data/not specified/undetermined","","","","","25.5","C","31.593","-96.9804","MISSING/NOT SPECIFIED","TX","McLennan","48309","McLennan County"
"-98.762791933","33.574594204","2280150","400624617","SFO-2020TXPRI796466","NONFED","ST-NASF","ST/C&L","USTXTXS","Texas A & M Forest Service","TXPRI","Texas Forest Service","","796466","","GRASS FIRE 7 BAR RANCH","","","","","","2020","2020/08/18 00:00:00+00","231","","Human","Power generation/transmission/distribution","","","","","40","C","33.5746","-98.7628","MISSING/NOT SPECIFIED","TX","Archer","48009","Archer County"
"-95.497092946","30.150294728","2280151","400624618","SFO-2020TXPRI796501","NONFED","ST-NASF","ST/C&L","USTXTXS","Texas A & M Forest Service","TXPRI","Texas Forest Service","","796501","","TANGLE BRUSH DR","","","","","","2020","2020/08/19 00:00:00+00","232","","Missing data/not specified/undetermined","Missing data/not specified/undetermined","","","","","0.1","A","30.1503","-95.4971","MISSING/NOT SPECIFIED","TX","Montgomery","48339","Montgomery County"
"-96.598992656","30.370594723","2280152","400624619","SFO-2020TXPRI797804","NONFED","ST-NASF","ST/C&L","USTXTXS","Texas A & M Forest Service","TXPRI","Texas Forest Service","","797804","","FM 60 W SMOKE INVESTIGATION","","","","","","2020","2020/09/17 00:00:00+00","261","","Human","Debris and open burning","","","","","0.1","A","30.3706","-96.599","MISSING/NOT SPECIFIED","TX","Burleson","48051","Burleson County"
"-76.739577616","41.664891663","2280153","400624620","SFO-2020PAPAS20(20)2-018","NONFED","ST-NASF","ST/C&L","USPAPAS","Pennsylvania Division of Forest Fire Protection","PAPAS","Pennsylvania Division of Forest Fire Protection","","20(20)2-018","","CROSS ROAD","","","","","","2020","2020/11/07 00:00:00+00","312","1441","Human","Debris and open burning","","2020/11/07 00:00:00+00","312","1520","0.5","B","41.6649","-76.73958","MISSING/NOT SPECIFIED","PA","Bradford","42015","Bradford County"
"-75.320798063","41.75809159","2280154","400624621","SFO-2020PAPAS11(20)2-088","NONFED","ST-NASF","ST/C&L","USPAPAS","Pennsylvania Division of Forest Fire Protection","PAPAS","Pennsylvania Division of Forest Fire Protection","","11(20)2-088","","DIXON VALLEY","","","","","","2020","2020/10/22 00:00:00+00","296","1617","Human","Debris and open burning","","2020/10/22 00:00:00+00","296","1730","0.75","B","41.7581","-75.3208","MISSING/NOT SPECIFIED","PA","Wayne","42127","Wayne County"
"-79.943672571","42.089297721","2280155","400624622","SFO-2020PAPAS14(20)2-018","NONFED","ST-NASF","ST/C&L","USPAPAS","Pennsylvania Division of Forest Fire Protection","PAPAS","Pennsylvania Division of Forest Fire Protection","","14(20)2-018","","DEWEY GREENE","","","","","","2020","2020/11/08 00:00:00+00","313","1402","Human","Debris and open burning","","2020/11/08 00:00:00+00","313","1410","0.61","B","42.089306","-79.943676","MISSING/NOT SPECIFIED","PA","Erie","42049","Erie County"
"-76.84259168","40.24605494","2280156","400624623","SFO-2020PAPAS18(20)1-176","NONFED","ST-NASF","ST/C&L","USPAPAS","Pennsylvania Division of Forest Fire Protection","PAPAS","Pennsylvania Division of Forest Fire Protection","","18(20)1-176","","GIBSON BLVD 5","","","","","","2020","2020/05/12 00:00:00+00","133","1611","Human","Arson/incendiarism","","2020/05/12 00:00:00+00","133","2009","0.22","A","40.246063","-76.842594","MISSING/NOT SPECIFIED","PA","Dauphin","42043","Dauphin County"
"-81.540254474","38.271454479","2280157","400624624","SFO-2020WVDOF2020-38403","NONFED","ST-NASF","ST/C&L","USWVWVS","West Virginia Division of Forestry","WVDOF","West Virginia Division of Forestry","","2020-38403","","BURNING SPRINGS #2","","","","","","2020","2020/10/17 00:00:00+00","291","1850","Human","Arson/incendiarism","","2020/10/18 00:00:00+00","292","1700","0.1","A","38.27146196","-81.54025811","PRIVATE","WV","Kanawha","54039","Kanawha County"
"-81.792148436","38.311642561","2280158","400624625","SFO-2020WVDOF2020-38186","NONFED","ST-NASF","ST/C&L","USWVWVS","West Virginia Division of Forestry","WVDOF","West Virginia Division of Forestry","","2020-38186","","GREENVIEW ROAD","","","","","","2020","2020/03/29 00:00:00+00","89","1510","Human","Equipment and vehicle use","","2020/03/29 00:00:00+00","89","1600","0.3","B","38.31165004","-81.79215215","PRIVATE","WV","Kanawha","54039","Kanawha County"
"-95.450592956","30.190194718","2280159","400624626","SFO-2020TXPRI792863","NONFED","ST-NASF","ST/C&L","USTXTXS","Texas A & M Forest Service","TXPRI","Texas Forest Service","","792863","","ED ENGLISH","","","","","","2020","2020/08/12 00:00:00+00","225","","Human","Missing data/not specified/undetermined","","","","","0.1","A","30.1902","-95.4506","MISSING/NOT SPECIFIED","TX","Montgomery","48339","Montgomery County"
"-97.207892436","31.656994494","2280160","400624627","SFO-2020TXPRI789338","NONFED","ST-NASF","ST/C&L","USTXTXS","Texas A & M Forest Service","TXPRI","Texas Forest Service","","789338","","GRASS/BRUSH #12 2020","","","","","","2020","2020/08/12 00:00:00+00","225","","Human","Equipment and vehicle use","","","","","10","C","31.657","-97.2079","MISSING/NOT SPECIFIED","TX","McLennan","48309","McLennan County"
"-97.435592308","32.892994269","2280161","400624628","SFO-2020TXPRI789268","NONFED","ST-NASF","ST/C&L","USTXTXS","Texas A & M Forest Service","TXPRI","Texas Forest Service","","789268","","BOAT CLUB 6","","","","","","2020","2020/07/18 00:00:00+00","200","","Missing data/not specified/undetermined","Missing data/not specified/undetermined","","","","","0.1","A","32.893","-97.4356","MISSING/NOT SPECIFIED","TX","Tarrant","48439","Tarrant County"
"-95.952792806","30.652094643","2280162","400624629","SFO-2020TXPRI792758","NONFED","ST-NASF","ST/C&L","USTXTXS","Texas A & M Forest Service","TXPRI","Texas Forest Service","","792758","","2952 CR 152","","","","","","2020","2020/06/18 00:00:00+00","170","","Missing data/not specified/undetermined","Missing data/not specified/undetermined","","","","","10","C","30.6521","-95.9528","MISSING/NOT SPECIFIED","TX","Grimes","48185","Grimes County"
"-101.776991089","35.131194084","2280163","400624630","SFO-2020TXPRI790783","NONFED","ST-NASF","ST/C&L","USTXTXS","Texas A & M Forest Service","TXPRI","Texas Forest Service","","790783","","824","","","","","","2020","2020/07/06 00:00:00+00","188","","Human","Missing data/not specified/undetermined","","","","","2","B","35.1312","-101.777","MISSING/NOT SPECIFIED","TX","Randall","48381","Randall County"
"-96.765292527","32.028994405","2280164","400624632","SFO-2020TXPRI791168","NONFED","ST-NASF","ST/C&L","USTXTXS","Texas A & M Forest Service","TXPRI","Texas Forest Service","","791168","","GRASS FIRE","","","","","","2020","2020/08/06 00:00:00+00","219","","Missing data/not specified/undetermined","Missing data/not specified/undetermined","","","","","5","B","32.029","-96.7653","MISSING/NOT SPECIFIED","TX","Navarro","48349","Navarro County"
"-75.92924791","41.14658173","2280165","400624633","SFO-2020PAPAS11(20)1-051","NONFED","ST-NASF","ST/C&L","USPAPAS","Pennsylvania Division of Forest Fire Protection","PAPAS","Pennsylvania Division of Forest Fire Protection","","11(20)1-051","","ICE LAKES","","","","","","2020","2020/03/15 00:00:00+00","75","1400","Human","Debris and open burning","","2020/03/15 00:00:00+00","75","1415","0.1","A","41.14659","-75.92925","MISSING/NOT SPECIFIED","PA","Luzerne","42079","Luzerne County"
"-75.989461886","41.220103718","2280166","400624634","SFO-2020PAPAS11(20)1-059","NONFED","ST-NASF","ST/C&L","USPAPAS","Pennsylvania Division of Forest Fire Protection","PAPAS","Pennsylvania Division of Forest Fire Protection","","11(20)1-059","","1533 W MAIN ST","","","","","","2020","2020/03/16 00:00:00+00","76","1515","Human","Missing data/not specified/undetermined","","2020/03/16 00:00:00+00","76","1530","0.1","A","41.220112","-75.989464","MISSING/NOT SPECIFIED","PA","Luzerne","42079","Luzerne County"
"-75.319698144","40.532491826","2280167","400624635","SFO-2020PAPAS17(20)1-032","NONFED","ST-NASF","ST/C&L","USPAPAS","Pennsylvania Division of Forest Fire Protection","PAPAS","Pennsylvania Division of Forest Fire Protection","","17(20)1-032","","PEPPERMINT ROAD","","","","","","2020","2020/03/15 00:00:00+00","75","1256","Human","Debris and open burning","","2020/03/15 00:00:00+00","75","1438","1.03","B","40.5325","-75.3197","MISSING/NOT SPECIFIED","PA","Bucks","42017","Bucks County"
"-76.281137735","39.816700203","2280168","400624636","SFO-2020PAPAS17(20)1-039","NONFED","ST-NASF","ST/C&L","USPAPAS","Pennsylvania Division of Forest Fire Protection","PAPAS","Pennsylvania Division of Forest Fire Protection","","17(20)1-039","","WISSLER RUN","","","","","","2020","2020/02/21 00:00:00+00","52","1426","Human","Arson/incendiarism","","2020/02/21 00:00:00+00","52","1627","2","B","39.8167082","-76.28113985","MISSING/NOT SPECIFIED","PA","Lancaster","42071","Lancaster County"
"-77.5121755","39.800372053","2280169","400624637","SFO-2020PAPAS01(20)2-003","NONFED","ST-NASF","ST/C&L","USPAPAS","Pennsylvania Division of Forest Fire Protection","PAPAS","Pennsylvania Division of Forest Fire Protection","","01(20)2-003","","WIRT 3","","","","","","2020","2020/08/26 00:00:00+00","239","1500","Human","Arson/incendiarism","","2020/08/26 00:00:00+00","239","1510","0.1","A","39.80038","-77.512178","MISSING/NOT SPECIFIED","PA","Franklin","42055","Franklin County"
"-76.078281854","41.270882712","2280170","400624638","SFO-2020PAPAS11(20)2-033","NONFED","ST-NASF","ST/C&L","USPAPAS","Pennsylvania Division of Forest Fire Protection","PAPAS","Pennsylvania Division of Forest Fire Protection","","11(20)2-033","","METROPOLITAN  AVE 2","","","","","","2020","2020/11/11 00:00:00+00","316","0425","Human","Debris and open burning","","2020/11/11 00:00:00+00","316","0500","0.1","A","41.270891","-76.078284","MISSING/NOT SPECIFIED","PA","Luzerne","42079","Luzerne County"
"-75.049698159","41.618291606","2280171","400624639","SFO-2020PAPAS11(20)1-154","NONFED","ST-NASF","ST/C&L","USPAPAS","Pennsylvania Division of Forest Fire Protection","PAPAS","Pennsylvania Division of Forest Fire Protection","","11(20)1-154","","RIVER ROAD","","","","","","2020","2020/02/22 00:00:00+00","53","1529","Human","Debris and open burning","","2020/02/22 00:00:00+00","53","1555","0.25","A","41.6183","-75.0497","MISSING/NOT SPECIFIED","PA","Wayne","42127","Wayne County"
"-97.321992352","32.634894313","2280172","400624640","SFO-2020TXPRI788418","NONFED","ST-NASF","ST/C&L","USTXTXS","Texas A & M Forest Service","TXPRI","Texas Forest Service","","788418","","S FRWY","","","","","","2020","2020/06/19 00:00:00+00","171","","Missing data/not specified/undetermined","Missing data/not specified/undetermined","","","","","0.1","A","32.6349","-97.322","MISSING/NOT SPECIFIED","TX","Tarrant","48439","Tarrant County"
"-96.516892677","30.354994723","2280173","400624641","SFO-2020TXPRI788795","NONFED","ST-NASF","ST/C&L","USTXTXS","Texas A & M Forest Service","TXPRI","Texas Forest Service","","788795","","FM 1361 @ CORD 430","","","","","","2020","2020/06/13 00:00:00+00","165","","Missing data/not specified/undetermined","Missing data/not specified/undetermined","","","","","0.1","A","30.355","-96.5169","MISSING/NOT SPECIFIED","TX","Burleson","48051","Burleson County"
"-97.961592308","30.516394744","2280174","400624642","SFO-2020TXPRI795015","NONFED","ST-NASF","ST/C&L","USTXTXS","Texas A & M Forest Service","TXPRI","Texas Forest Service","","795015","","20200000504","","","","","","2020","2020/03/14 00:00:00+00","74","","Human","Debris and open burning","","","","","0.1","A","30.5164","-97.9616","MISSING/NOT SPECIFIED","TX","Travis","48453","Travis County"
"-95.445292829","32.646294231","2280175","400624643","SFO-2020TXPRI792871","NONFED","ST-NASF","ST/C&L","USTXTXS","Texas A & M Forest Service","TXPRI","Texas Forest Service","","792871","","NONE","","","","","","2020","2020/09/06 00:00:00+00","250","","Human","Debris and open burning","","","","","0.1","A","32.6463","-95.4453","MISSING/NOT SPECIFIED","TX","Wood","48499","Wood County"
"-97.14929246","31.497594523","2280176","400624644","SFO-2020TXPRI793201","NONFED","ST-NASF","ST/C&L","USTXTXS","Texas A & M Forest Service","TXPRI","Texas Forest Service","","793201","","2440014","","","","","","2020","2020/08/31 00:00:00+00","244","","Human","Debris and open burning","","","","","0.01","A","31.4976","-97.1493","MISSING/NOT SPECIFIED","TX","McLennan","48309","McLennan County"
"-98.731591953","33.393394235","2280177","400624645","SFO-2020TXPRI791414","NONFED","ST-NASF","ST/C&L","USTXTXS","Texas A & M Forest Service","TXPRI","Texas Forest Service","","791414","","ELOS RD","","","","","","2020","2020/06/22 00:00:00+00","174","","Missing data/not specified/undetermined","Missing data/not specified/undetermined","","","","","5","B","33.3934","-98.7316","MISSING/NOT SPECIFIED","TX","Young","48503","Young County"
"-102.006591046","34.980094121","2280178","400624646","SFO-2020TXPRI798566","NONFED","ST-NASF","ST/C&L","USTXTXS","Texas A & M Forest Service","TXPRI","Texas Forest Service","","798566","","20990","","","","","","2020","2020/10/08 00:00:00+00","282","","Missing data/not specified/undetermined","Missing data/not specified/undetermined","","","","","1","B","34.9801","-102.0066","MISSING/NOT SPECIFIED","TX","Randall","48381","Randall County"
"-97.376892374","32.010194433","2280179","400624647","SFO-2020TXPRI798589","NONFED","ST-NASF","ST/C&L","USTXTXS","Texas A & M Forest Service","TXPRI","Texas Forest Service","","798589","","CEDARWAY","","","","","","2020","2020/10/15 00:00:00+00","289","","Missing data/not specified/undetermined","Missing data/not specified/undetermined","","","","","0.1","A","32.0102","-97.3769","MISSING/NOT SPECIFIED","TX","Hill","48217","Hill County"
"-98.570091982","33.551194199","2280180","400624648","SFO-2020TXPRI796234","NONFED","ST-NASF","ST/C&L","USTXTXS","Texas A & M Forest Service","TXPRI","Texas Forest Service","","796234","","GRASS FIRE BELL RD","","","","","","2020","2020/06/16 00:00:00+00","168","","Human","Equipment and vehicle use","","","","","3","B","33.5512","-98.5701","MISSING/NOT SPECIFIED","TX","Archer","48009","Archer County"
"-78.50578414","40.526916951","2280181","400624649","SFO-2020PAPAS06(20)2-020","NONFED","ST-NASF","ST/C&L","USPAPAS","Pennsylvania Division of Forest Fire Protection","PAPAS","Pennsylvania Division of Forest Fire Protection","","06(20)2-020","","BIG MURPH","","","","","","2020","2020/09/06 00:00:00+00","250","1926","Human","Missing data/not specified/undetermined","","2020/09/06 00:00:00+00","250","2040","0.2","A","40.526925","-78.505787","MISSING/NOT SPECIFIED","PA","Blair","42013","Blair County"
"-78.46139715","40.584391939","2280182","400624650","SFO-2020PAPAS06(20)2-028","NONFED","ST-NASF","ST/C&L","USPAPAS","Pennsylvania Division of Forest Fire Protection","PAPAS","Pennsylvania Division of Forest Fire Protection","","06(20)2-028","","RICHLAND ROAD","","","","","","2020","2020/10/23 00:00:00+00","297","1620","Human","Arson/incendiarism","","2020/10/23 00:00:00+00","297","1645","0.31","B","40.5844","-78.4614","MISSING/NOT SPECIFIED","PA","Cambria","42021","Cambria County"
"-79.443290439","40.512754233","2280183","400624651","SFO-2020PAPAS06(20)2-030","NONFED","ST-NASF","ST/C&L","USPAPAS","Pennsylvania Division of Forest Fire Protection","PAPAS","Pennsylvania Division of Forest Fire Protection","","06(20)2-030","","SKYLINE","","","","","","2020","2020/09/28 00:00:00+00","272","1747","Human","Arson/incendiarism","","2020/09/28 00:00:00+00","272","1811","1.3","B","40.51276224","-79.44329359","MISSING/NOT SPECIFIED","PA","Indiana","42063","Indiana County"
"-79.06899697","40.451591989","2280184","400624652","SFO-2020PAPAS06(20)2-036","NONFED","ST-NASF","ST/C&L","USPAPAS","Pennsylvania Division of Forest Fire Protection","PAPAS","Pennsylvania Division of Forest Fire Protection","","06(20)2-036","","CLYDE ROAD","","","","","","2020","2020/11/06 00:00:00+00","311","1147","Human","Debris and open burning","","2020/11/06 00:00:00+00","311","1230","1.5","B","40.4516","-79.069","MISSING/NOT SPECIFIED","PA","Indiana","42063","Indiana County"
"-77.110309479","41.931044628","2280185","400624653","SFO-2020PAPAS16(20)2-018","NONFED","ST-NASF","ST/C&L","USPAPAS","Pennsylvania Division of Forest Fire Protection","PAPAS","Pennsylvania Division of Forest Fire Protection","","16(20)2-018","","17762 ROUTE 287","","","","","","2020","2020/09/21 00:00:00+00","265","1822","Human","Debris and open burning","","2020/09/21 00:00:00+00","265","1833","1","B","41.931053","-77.110312","MISSING/NOT SPECIFIED","PA","Tioga","42117","Tioga County"
"-80.119639589","39.964406387","2280186","400624654","SFO-2020PAPAS04(20)2-024","NONFED","ST-NASF","ST/C&L","USPAPAS","Pennsylvania Division of Forest Fire Protection","PAPAS","Pennsylvania Division of Forest Fire Protection","","04(20)2-024","","WOODIES ROAD","","","","","","2020","2020/08/10 00:00:00+00","223","1925","Human","Misuse of fire by a minor","Minor","2020/08/10 00:00:00+00","223","1940","0.1","A","39.96441426","-80.11964291","MISSING/NOT SPECIFIED","PA","Greene","42059","Greene County"
"-75.650610882","40.786284709","2280187","400624655","SFO-2020PAPAS18(20)1-183","NONFED","ST-NASF","ST/C&L","USPAPAS","Pennsylvania Division of Forest Fire Protection","PAPAS","Pennsylvania Division of Forest Fire Protection","","18(20)1-183","","PINE TREE LANE","","","","","","2020","2020/05/14 00:00:00+00","135","1330","Human","Debris and open burning","","2020/05/14 00:00:00+00","135","1445","3.6","B","40.78629292","-75.65061286","MISSING/NOT SPECIFIED","PA","Carbon","42025","Carbon County"
"-77.074502595","40.435741912","2280188","400624656","SFO-2020PAPAS03(20)1-032","NONFED","ST-NASF","ST/C&L","USPAPAS","Pennsylvania Division of Forest Fire Protection","PAPAS","Pennsylvania Division of Forest Fire Protection","","03(20)1-032","","PARADISE","","","","","","2020","2020/05/10 00:00:00+00","131","1327","Human","Debris and open burning","","2020/05/10 00:00:00+00","131","1357","0.2","A","40.43575","-77.074505","MISSING/NOT SPECIFIED","PA","Perry","42099","Perry County"
"-79.660512045","39.768283616","2280189","400624657","SFO-2020PAPAS04(20)1-008","NONFED","ST-NASF","ST/C&L","USPAPAS","Pennsylvania Division of Forest Fire Protection","PAPAS","Pennsylvania Division of Forest Fire Protection","","04(20)1-008","","215 CORNISH ROAD","","","","","","2020","2020/02/23 00:00:00+00","54","1118","Human","Debris and open burning","","2020/02/23 00:00:00+00","54","1145","2","B","39.76829147","-79.66051521","MISSING/NOT SPECIFIED","PA","Fayette","42051","Fayette County"
"-79.121596986","39.99439208","2280190","400624658","SFO-2020PAPAS04(20)1-011","NONFED","ST-NASF","ST/C&L","USPAPAS","Pennsylvania Division of Forest Fire Protection","PAPAS","Pennsylvania Division of Forest Fire Protection","","04(20)1-011","","POVERTY HOLLOW","","","","","","2020","2020/03/09 00:00:00+00","69","1217","Human","Debris and open burning","","2020/03/09 00:00:00+00","69","1400","16.1","C","39.9944","-79.1216","MISSING/NOT SPECIFIED","PA","Somerset","42111","Somerset County"
"-79.218596951","40.056392072","2280191","400624659","SFO-2020PAPAS04(20)1-021","NONFED","ST-NASF","ST/C&L","USPAPAS","Pennsylvania Division of Forest Fire Protection","PAPAS","Pennsylvania Division of Forest Fire Protection","","04(20)1-021","","IRONWOOD ROAD","","","","","","2020","2020/03/09 00:00:00+00","69","1411","Human","Debris and open burning","","2020/03/09 00:00:00+00","69","1430","0.25","A","40.0564","-79.2186","MISSING/NOT SPECIFIED","PA","Somerset","42111","Somerset County"
"-80.082686625","38.136216346","2280192","400624660","SFO-2020WVDOF2020-38277","NONFED","ST-NASF","ST/C&L","USWVWVS","West Virginia Division of Forestry","WVDOF","West Virginia Division of Forestry","","2020-38277","","UNDERWOOD","","","","","","2020","2020/01/16 00:00:00+00","16","1420","Human","Equipment and vehicle use","","2020/01/16 00:00:00+00","16","1530","1","B","38.13622386","-80.08268981","STATE","WV","Pocahontas","54075","Pocahontas County"
"-80.812140692","37.844584294","2280193","400624661","SFO-2020WVDOF2020-38280","NONFED","ST-NASF","ST/C&L","USWVWVS","West Virginia Division of Forestry","WVDOF","West Virginia Division of Forestry","","2020-38280","","MILL CREEK RD.","","","","","","2020","2020/05/03 00:00:00+00","124","1612","Human","Debris and open burning","","2020/05/03 00:00:00+00","124","1716","0.1","A","37.84459172","-80.81214408","PRIVATE","WV","Summers","54089","Summers County"
"-99.149775224","32.687144382","2280194","400624662","SFO-2020TXTXS009228","NONFED","ST-NASF","ST/C&L","USTXTXS","Texas A & M Forest Service","TXTXS","Texas Forest Service","","009228","","DEEP CREEK","2020_11819521_DEEP CREEK","","TX3268709915020200830","DEEP CREEK","","2020","2020/08/30 00:00:00+00","243","0843","Natural","Natural","","2020/09/01 00:00:00+00","245","1625","3971","F","32.68715","-99.14978333","MISSING/NOT SPECIFIED","TX","Shackelford","48417","Shackelford County"
"-97.388492316","32.948794257","2280195","400624663","SFO-2020TXPRI788407","NONFED","ST-NASF","ST/C&L","USTXTXS","Texas A & M Forest Service","TXPRI","Texas Forest Service","","788407","","NW HIGHWAY","","","","","","2020","2020/06/17 00:00:00+00","169","","Human","Power generation/transmission/distribution","","","","","0.1","A","32.9488","-97.3885","MISSING/NOT SPECIFIED","TX","Tarrant","48439","Tarrant County"
"-97.117292589","28.940195028","2280196","400624664","SFO-2020TXPRI793678","NONFED","ST-NASF","ST/C&L","USTXTXS","Texas A & M Forest Service","TXPRI","Texas Forest Service","","793678","","HIGHWAY 87 RR FIRE","","","","","","2020","2020/09/15 00:00:00+00","259","","Human","Railroad operations and maintenance","","","","","0.02","A","28.9402","-97.1173","MISSING/NOT SPECIFIED","TX","Victoria","48469","Victoria County"
"-97.184192568","29.050795008","2280197","400624665","SFO-2020TXPRI791135","NONFED","ST-NASF","ST/C&L","USTXTXS","Texas A & M Forest Service","TXPRI","Texas Forest Service","","791135","","BLAINE WILLIAMS GRASSFIRE","","","","","","2020","2020/08/15 00:00:00+00","228","","Human","Equipment and vehicle use","","","","","2","B","29.0508","-97.1842","MISSING/NOT SPECIFIED","TX","DeWitt","48123","DeWitt County"
"-96.066292598","33.794794039","2280198","400624667","SFO-2020TXPRI793725","NONFED","ST-NASF","ST/C&L","USTXTXS","Texas A & M Forest Service","TXPRI","Texas Forest Service","","793725","","SCOTT GIBBS ","","","","","","2020","2020/08/20 00:00:00+00","233","","Human","Equipment and vehicle use","","","","","0.25","A","33.7948","-96.0663","MISSING/NOT SPECIFIED","TX","Fannin","48147","Fannin County"
"-74.332178493","39.946851906","2280199","400624668","SFO-2020NJDEPB05-200514141903","NONFED","ST-NASF","ST/C&L","USNJNJS","New Jersey Forest Fire Service","NJDEP","New Jersey Department of Environmental Protection","","B05-200514141903","","","","","","","","2020","2020/05/14 00:00:00+00","135","1317","Human","Smoking","","","","","0.25","A","39.94686","-74.33218","MISSING/NOT SPECIFIED","NJ","Ocean","34029","Ocean County"
"-104.951366003","39.718360841","2280200","400624669","SFO-20201601060186","NONFED","ST-NASF","ST/C&L","USCODENX","Denver Fire Department","1601","Denver Fire Department","","060186","","N/A","","","","","","2020","2020/07/10 00:00:00+00","192","0039","Human","Equipment and vehicle use","","2020/07/10 00:00:00+00","192","0102","0.1","A","39.71836726","-104.9513761","MISSING/NOT SPECIFIED","CO","DENVER","08031","Denver County"
"-105.06052767","39.786626809","2280201","400624670","SFO-20201601055409","NONFED","ST-NASF","ST/C&L","USCODENX","Denver Fire Department","1601","Denver Fire Department","","055409","","N/A","","","","","","2020","2020/07/02 00:00:00+00","184","0009","Human","Missing data/not specified/undetermined","","2020/07/02 00:00:00+00","184","0132","1","B","39.78663323","-105.0605378","MISSING/NOT SPECIFIED","CO","DENVER","08031","Denver County"
"-105.011316176","39.82765013","2280202","400624671","SFO-2020145203028","NONFED","ST-NASF","ST/C&L","USCONWAX","North Washington Fire Protection District","145","North Washington Fire Protection District","","203028","","N/A","","","","","","2020","2020/05/09 00:00:00+00","130","2300","Human","Missing data/not specified/undetermined","","2020/05/09 00:00:00+00","130","2310","0.1","A","39.82765656","-105.0113263","PRIVATE","CO","ADAMS","08001","Adams County"
"-108.096656817","38.670624259","2280203","400624672","SFO-20202920000121","NONFED","ST-NASF","ST/C&L","USCODECX","Delta County Fire Protection District #1","2920","Delta County Fire Protection District #1","","000121","","N/A","","","","","","2020","2020/06/11 00:00:00+00","163","1641","Human","Missing data/not specified/undetermined","","2020/06/11 00:00:00+00","163","1711","0.1","A","38.67063032","-108.0966675","MISSING/NOT SPECIFIED","CO","DELTA","08029","Delta County"
"-105.040718674","39.789853628","2280204","400624673","SFO-20201601027048","NONFED","ST-NASF","ST/C&L","USCODENX","Denver Fire Department","1601","Denver Fire Department","","027048","","N/A","","","","","","2020","2020/03/25 00:00:00+00","85","2051","Human","Missing data/not specified/undetermined","","2020/03/25 00:00:00+00","85","2102","0.1","A","39.78986005","-105.0407288","PRIVATE","CO","DENVER","08031","Denver County"
"-104.772823004","40.063404191","2280205","400624674","SFO-2020123212000407","NONFED","ST-NASF","ST/C&L","USCOLUPX","Fort Lupton Fire Protection District","12321","Fort Lupton Fire Protection District","","2000407","","N/A","","","","","","2020","2020/04/11 00:00:00+00","102","1506","Human","Equipment and vehicle use","","2020/04/11 00:00:00+00","102","1605","0.1","A","40.06341067","-104.7728331","MISSING/NOT SPECIFIED","CO","WELD","08123","Weld County"
"-107.800178014","38.378084708","2280206","400624675","SFO-20208525000889","NONFED","ST-NASF","ST/C&L","USCOMONX","Montrose Fire Protection District","8525","Montrose Fire Protection District","","000889","","N/A","","","","","","2020","2020/03/18 00:00:00+00","78","1031","Human","Smoking","","2020/03/18 00:00:00+00","78","1059","1","B","38.37809075","-107.8001886","MISSING/NOT SPECIFIED","CO","MONTROSE","08085","Montrose County"
"-89.997494355","31.115827663","2280207","400624677","SFO-2020MSMFC007227","NONFED","ST-NASF","ST/C&L","USMSMSS","Mississippi Forestry Commission","MSMFC","Mississippi Forestry Commission","","007227","","7227","","","","","","2020","2020/04/06 00:00:00+00","97","1743","Human","Arson/incendiarism","","2020/04/06 00:00:00+00","97","1930","5","B","31.11583333","-89.9975","PRIVATE","MS","Walthall","28147","Walthall County"
"-88.599161367","31.984716318","2280208","400624678","SFO-2020MSMFC007244","NONFED","ST-NASF","ST/C&L","USMSMSS","Mississippi Forestry Commission","MSMFC","Mississippi Forestry Commission","","007244","","7244","","","","","","2020","2020/04/12 00:00:00+00","103","1239","Natural","Natural","","2020/04/12 00:00:00+00","103","1541","10","C","31.98472222","-88.59916667","PRIVATE","MS","Clarke","28023","Clarke County"
"-89.394076251","30.672550237","2280209","400624679","SFO-2020MSMFC007337","NONFED","ST-NASF","ST/C&L","USMSMSS","Mississippi Forestry Commission","MSMFC","Mississippi Forestry Commission","","007337","","7337","","","","","","2020","2020/05/13 00:00:00+00","134","1437","Human","Debris and open burning","","2020/05/13 00:00:00+00","134","1933","30","C","30.67255583","-89.39408171","PRIVATE","MS","Pearl River","28109","Pearl River County"
"-89.816661055","31.513049802","2280210","400624680","SFO-2020MSMFC007097","NONFED","ST-NASF","ST/C&L","USMSMSS","Mississippi Forestry Commission","MSMFC","Mississippi Forestry Commission","","007097","","7097","","","","","","2020","2020/03/08 00:00:00+00","68","1454","Human","Missing data/not specified/undetermined","","2020/03/08 00:00:00+00","68","1643","20","C","31.51305556","-89.81666667","PRIVATE","MS","Jefferson Davis","28065","Jefferson Davis County"
"-89.124438942","32.936382807","2280211","400624681","SFO-2020MSMFC007358","NONFED","ST-NASF","ST/C&L","USMSMSS","Mississippi Forestry Commission","MSMFC","Mississippi Forestry Commission","","007358","","7358","","","","","","2020","2020/06/02 00:00:00+00","154","1910","Human","Debris and open burning","","2020/06/02 00:00:00+00","154","2152","3","B","32.93638889","-89.12444444","PRIVATE","MS","Winston","28159","Winston County"
"-89.214161115","33.506382693","2280212","400624682","SFO-2020MSMFC007717","NONFED","ST-NASF","ST/C&L","USMSMSS","Mississippi Forestry Commission","MSMFC","Mississippi Forestry Commission","","007717","","7717","","","","","","2020","2020/11/24 00:00:00+00","329","1536","Human","Debris and open burning","","2020/11/24 00:00:00+00","329","1741","2","B","33.50638889","-89.21416667","PRIVATE","MS","Choctaw","28019","Choctaw County"
"-72.708108286","42.090554232","2280213","400624683","SFO-2020MADCRMA11200034","NONFED","ST-NASF","ST/C&L","USMAMAS","Massachusetts Bureau of Forest Fire Control","MADCR","Massachusetts Department of Conservation and Recreation","","MA11200034","","","","","","","","2020","2020/03/16 00:00:00+00","76","1337","Human","Missing data/not specified/undetermined","","2020/03/16 00:00:00+00","76","1402","0.1","A","42.0905628","-72.7081094","MISSING/NOT SPECIFIED","MA","Hampden","25013","Hampden County"
"-72.729268879","42.097768432","2280214","400624684","SFO-2020MADCRMA11200089","NONFED","ST-NASF","ST/C&L","USMAMAS","Massachusetts Bureau of Forest Fire Control","MADCR","Massachusetts Department of Conservation and Recreation","","MA11200089","","","","","","","","2020","2020/06/01 00:00:00+00","153","0831","Human","Missing data/not specified/undetermined","","2020/06/01 00:00:00+00","153","1041","0.5","B","42.097777","-72.72927","MISSING/NOT SPECIFIED","MA","Hampden","25013","Hampden County"
"-97.292192417","31.624894504","2280215","400624685","SFO-2020TXPRI798964","NONFED","ST-NASF","ST/C&L","USTXTXS","Texas A & M Forest Service","TXPRI","Texas Forest Service","","798964","","3090032","","","","","","2020","2020/11/04 00:00:00+00","309","","Human","Debris and open burning","","","","","0.01","A","31.6249","-97.2922","MISSING/NOT SPECIFIED","TX","McLennan","48309","McLennan County"
"-95.130992914","32.571894232","2280216","400624686","SFO-2020TXPRI799367","NONFED","ST-NASF","ST/C&L","USTXTXS","Texas A & M Forest Service","TXPRI","Texas Forest Service","","799367","","14704 HWY 155 S","","","","","","2020","2020/11/15 00:00:00+00","320","","Missing data/not specified/undetermined","Missing data/not specified/undetermined","","","","","2","B","32.5719","-95.131","MISSING/NOT SPECIFIED","TX","Upshur","48459","Upshur County"
"-74.825268302","40.52079181","2280217","400624687","SFO-2020NJDEPA08-200405130229","NONFED","ST-NASF","ST/C&L","USNJNJS","New Jersey Forest Fire Service","NJDEP","New Jersey Department of Environmental Protection","","A08-200405130229","","","","","","","","2020","2020/04/02 00:00:00+00","93","1750","Human","Equipment and vehicle use","","","","","0.25","A","40.5208","-74.82527","MISSING/NOT SPECIFIED","NJ","Hunterdon","34019","Hunterdon County"
