"ï»¿X","Y","OBJECTID","FOD_ID","FPA_ID","SOURCE_SYSTEM_TYPE","SOURCE_SYSTEM","NWCG_REPORTING_AGENCY","NWCG_REPORTING_UNIT_ID","NWCG_REPORTING_UNIT_NAME","SOURCE_REPORTING_UNIT","SOURCE_REPORTING_UNIT_NAME","LOCAL_FIRE_REPORT_ID","LOCAL_INCIDENT_ID","FIRE_CODE","FIRE_NAME","ICS_209_PLUS_INCIDENT_JOIN_ID","ICS_209_PLUS_COMPLEX_JOIN_ID","MTBS_ID","MTBS_FIRE_NAME","COMPLEX_NAME","FIRE_YEAR","DISCOVERY_DATE","DISCOVERY_DOY","DISCOVERY_TIME","NWCG_CAUSE_CLASSIFICATION","NWCG_GENERAL_CAUSE","NWCG_CAUSE_AGE_CATEGORY","CONT_DATE","CONT_DOY","CONT_TIME","FIRE_SIZE","FIRE_SIZE_CLASS","LATITUDE","LONGITUDE","OWNER_DESCR","STATE","COUNTY","FIPS_CODE","FIPS_NAME"
"-113.639188332","37.335794483","345001","353836","W-545558","FED","DOI-WFMI","BLM","USUTCCD","Cedar City Field Office","UTCCD","Cedar City Field Office","","","DQ5Z","POWERLINE","2007_UT-CCD-070419_POWERLINE","","","","","2007","2007/07/16 00:00:00+00","197","1336","Natural","Natural","","2007/07/19 00:00:00+00","200","1800","845","E","37.3358","-113.6392","BLM","UT","Washington","49053","Washington County"
"-112.599688406","38.494694275","345002","353837","W-552698","FED","DOI-WFMI","BLM","USUTCCD","Cedar City Field Office","UTCCD","Cedar City Field Office","","","DT4X","BELL SPRINGS","","","","","","2007","2007/07/16 00:00:00+00","197","1445","Natural","Natural","","2007/07/17 00:00:00+00","198","1200","5","B","38.4947","-112.5997","BLM","UT","Beaver","49001","Beaver County"
"-113.362188354","37.62169443","345003","353838","W-548997","FED","DOI-WFMI","BLM","USUTCCD","Cedar City Field Office","UTCCD","Cedar City Field Office","","","DRG5","MINER HILL","","","","","","2007","2007/07/16 00:00:00+00","197","1542","Natural","Natural","","2007/07/16 00:00:00+00","197","1633","0.1","A","37.6217","-113.3622","BLM","UT","Washington","49053","Washington County"
"-112.542188569","37.089194439","345004","353839","W-545908","FED","DOI-WFMI","BLM","USUTCCD","Cedar City Field Office","UTCCD","Cedar City Field Office","","","DSP4","KANAB CREEK","","","","","","2007","2007/07/16 00:00:00+00","197","1613","Natural","Natural","","2007/07/20 00:00:00+00","201","1900","0.1","A","37.0892","-112.5422","BLM","UT","Kane","49025","Kane County"
"-113.439188323","37.772794418","345005","353840","W-547477","FED","DOI-WFMI","BLM","USUTCCD","Cedar City Field Office","UTCCD","Cedar City Field Office","","","DQ94","ANTELOPE SPRINGS","","","","","","2007","2007/07/16 00:00:00+00","197","1629","Natural","Natural","","2007/07/17 00:00:00+00","198","1900","140.7","D","37.7728","-113.4392","BLM","UT","Iron","49021","Iron County"
"-113.233088388","37.536094432","345006","353841","W-545518","FED","DOI-WFMI","BLM","USUTCCD","Cedar City Field Office","UTCCD","Cedar City Field Office","","","DQ8F","BUMBLEBEE","","","","","","2007","2007/07/16 00:00:00+00","197","1705","Natural","Natural","","2007/07/21 00:00:00+00","202","1800","79.5","C","37.5361","-113.2331","PRIVATE","UT","Iron","49021","Iron County"
"-113.144988314","38.364194329","345007","353842","W-548996","FED","DOI-WFMI","BLM","USUTCCD","Cedar City Field Office","UTCCD","Cedar City Field Office","","","DR8W","LUCKY","","","","","","2007","2007/07/16 00:00:00+00","197","1951","Natural","Natural","","2007/07/19 00:00:00+00","200","1800","5","B","38.3642","-113.145","BLM","UT","Beaver","49001","Beaver County"
"-113.396888391","37.213894481","345008","353843","W-549991","FED","DOI-WFMI","BLM","USUTCCD","Cedar City Field Office","UTCCD","Cedar City Field Office","","","DRN8","RED CLIFFS","","","","","","2007","2007/07/16 00:00:00+00","197","2037","Natural","Natural","","2007/07/17 00:00:00+00","198","1330","1","B","37.2139","-113.3969","BLM","UT","Washington","49053","Washington County"
"-112.895788468","37.404694425","345009","353844","W-548633","FED","DOI-WFMI","BLM","USUTCCD","Cedar City Field Office","UTCCD","Cedar City Field Office","","","DSV7","COGSWELL POINT","","","","","","2007","2007/07/16 00:00:00+00","197","2050","Natural","Natural","","2007/07/17 00:00:00+00","198","1000","0.1","A","37.4047","-112.8958","BLM","UT","Kane","49025","Kane County"
"-113.228088425","37.194394472","345010","353845","W-544833","FED","DOI-WFMI","BLM","USUTCCD","Cedar City Field Office","UTCCD","Cedar City Field Office","","","DRF7","SHEEP BRIDGE","","","","","","2007","2007/07/16 00:00:00+00","197","2217","Natural","Natural","","2007/07/18 00:00:00+00","199","2220","0.1","A","37.1944","-113.2281","BLM","UT","Washington","49053","Washington County"
"-114.006888199","37.913694441","345011","353846","W-550316","FED","DOI-WFMI","BLM","USUTCCD","Cedar City Field Office","UTCCD","Cedar City Field Office","","","DRT9","PARADISE","2007_UT-CCD-070463_PARADISE","","UT3796511399920070716","PARADISE","","2007","2007/07/16 00:00:00+00","197","2217","Natural","Natural","","2007/08/04 00:00:00+00","216","1800","5797","G","37.9137","-114.0069","BLM","UT","Iron","49021","Iron County"
"-113.247188412","37.282794463","345012","353847","W-544837","FED","DOI-WFMI","BLM","USUTCCD","Cedar City Field Office","UTCCD","Cedar City Field Office","","","DSJ0","LAVERKIN","","","","","","2007","2007/07/16 00:00:00+00","197","2301","Natural","Natural","","2007/07/17 00:00:00+00","198","1800","0.1","A","37.2828","-113.2472","BLM","UT","Washington","49053","Washington County"
"-112.999688373","38.089994351","345013","353848","W-544630","FED","DOI-WFMI","BLM","USUTCCD","Cedar City Field Office","UTCCD","Cedar City Field Office","","","DRJ9","WILLOW","","","","","","2007","2007/07/17 00:00:00+00","198","1157","Natural","Natural","","2007/07/24 00:00:00+00","205","1400","18","C","38.09","-112.9997","BLM","UT","Iron","49021","Iron County"
"-113.401688332","37.751694418","345014","353850","W-547454","FED","DOI-WFMI","BLM","USUTCCD","Cedar City Field Office","UTCCD","Cedar City Field Office","","","DRX7","COYOTE","","","","","","2007","2007/07/17 00:00:00+00","198","1655","Natural","Natural","","2007/07/18 00:00:00+00","199","0800","0.5","B","37.7517","-113.4017","BLM","UT","Iron","49021","Iron County"
"-113.912188282","37.311394504","345015","353851","W-544822","FED","DOI-WFMI","BLM","USUTCCD","Cedar City Field Office","UTCCD","Cedar City Field Office","","","DR11","RED HOLLOW","","","","","","2007","2007/07/17 00:00:00+00","198","1908","Natural","Natural","","2007/07/19 00:00:00+00","200","2100","255","D","37.3114","-113.9122","BLM","UT","Washington","49053","Washington County"
"-112.577788555","37.157194433","345016","353852","W-545423","FED","DOI-WFMI","BLM","USUTCCD","Cedar City Field Office","UTCCD","Cedar City Field Office","","","DR4A","GOOSE","","","","","","2007","2007/07/17 00:00:00+00","198","1933","Natural","Natural","","2007/07/17 00:00:00+00","198","2045","0.2","A","37.1572","-112.5778","BLM","UT","Kane","49025","Kane County"
"-113.792188221","38.086394406","345017","353853","W-544803","FED","DOI-WFMI","BLM","USUTCCD","Cedar City Field Office","UTCCD","Cedar City Field Office","","","DR5M","RIDGE TOP","","","","","","2007","2007/07/17 00:00:00+00","198","2109","Natural","Natural","","2007/07/25 00:00:00+00","206","1300","9","B","38.0864","-113.7922","BLM","UT","Iron","49021","Iron County"
"-112.273888591","37.394194384","345018","353854","W-545481","FED","DOI-WFMI","BLM","USUTCCD","Cedar City Field Office","UTCCD","Cedar City Field Office","","","DR8F","GOAT","","","","","","2007","2007/07/17 00:00:00+00","198","2137","Natural","Natural","","2007/07/18 00:00:00+00","199","1200","0.1","A","37.3942","-112.2739","BLM","UT","Kane","49025","Kane County"
"-112.289388597","37.303094396","345019","353855","W-545489","FED","DOI-WFMI","BLM","USUTCCD","Cedar City Field Office","UTCCD","Cedar City Field Office","","","DSQ5","TIMBER","","","","","","2007","2007/07/18 00:00:00+00","199","0903","Natural","Natural","","2007/07/18 00:00:00+00","199","1200","0.1","A","37.3031","-112.2894","BLM","UT","Kane","49025","Kane County"
"-112.777788523","37.095294454","345020","353856","W-545914","FED","DOI-WFMI","BLM","USUTCCD","Cedar City Field Office","UTCCD","Cedar City Field Office","","","DR8P","ELEPHANT","","","","","","2007","2007/07/18 00:00:00+00","199","1754","Natural","Natural","","2007/07/21 00:00:00+00","202","1800","11","C","37.0953","-112.7778","BLM","UT","Kane","49025","Kane County"
"-113.24968837","37.678094416","345021","353857","W-548987","FED","DOI-WFMI","BLM","USUTCCD","Cedar City Field Office","UTCCD","Cedar City Field Office","","","DSB2","NIELSON","","","","","","2007","2007/07/19 00:00:00+00","200","1738","Natural","Natural","","2007/07/19 00:00:00+00","200","1920","0.1","A","37.6781","-113.2497","BLM","UT","Washington","49053","Washington County"
"-111.757788672","37.591694326","345022","353858","W-547471","FED","DOI-WFMI","BLM","USUTCCD","Cedar City Field Office","UTCCD","Cedar City Field Office","","","DS31","SLATE","","","","","","2007","2007/07/22 00:00:00+00","203","1408","Natural","Natural","","2007/07/23 00:00:00+00","204","1045","0.3","B","37.5917","-111.7578","BLM","UT","Garfield","49017","Garfield County"
"-113.438088338","37.639394434","345023","353859","W-547451","FED","DOI-WFMI","BLM","USUTCCD","Cedar City Field Office","UTCCD","Cedar City Field Office","","","DS73","WINDMILL","","","","","","2007","2007/07/23 00:00:00+00","204","1249","Natural","Natural","","2007/07/23 00:00:00+00","204","1439","0.1","A","37.6394","-113.4381","BLM","UT","Iron","49021","Iron County"
"-113.928588232","37.748894455","345024","353860","W-544793","FED","DOI-WFMI","BLM","USUTCCD","Cedar City Field Office","UTCCD","Cedar City Field Office","","","DS71","MODENA2","","","","","","2007","2007/07/23 00:00:00+00","204","1358","Natural","Natural","","2007/07/24 00:00:00+00","205","1630","50","C","37.7489","-113.9286","BLM","UT","Iron","49021","Iron County"
"-112.970288427","37.6535944","345025","353861","W-545515","FED","DOI-WFMI","BLM","USUTCCD","Cedar City Field Office","UTCCD","Cedar City Field Office","","","DT0V","MILTS","","","","","","2007","2007/07/26 00:00:00+00","207","1404","Natural","Natural","","2007/07/26 00:00:00+00","207","1800","0.1","A","37.6536","-112.9703","PRIVATE","UT","Iron","49021","Iron County"
"-113.623588261","38.015294403","345026","353862","W-545547","FED","DOI-WFMI","BLM","USUTCCD","Cedar City Field Office","UTCCD","Cedar City Field Office","","","DT3S","MT  SPRINGS","","","","","","2007","2007/07/27 00:00:00+00","208","1613","Natural","Natural","","2007/07/27 00:00:00+00","208","1720","0.1","A","38.0153","-113.6236","BLM","UT","Iron","49021","Iron County"
"-113.91218821","37.974994427","345027","353863","W-545524","FED","DOI-WFMI","BLM","USUTCCD","Cedar City Field Office","UTCCD","Cedar City Field Office","","","DT6Y","SKIPPY","","","","","","2007","2007/07/28 00:00:00+00","209","1725","Natural","Natural","","2007/07/28 00:00:00+00","209","1900","0.1","A","37.975","-113.9122","BLM","UT","Iron","49021","Iron County"
"-114.01028819","37.990794432","345028","353864","W-548834","FED","DOI-WFMI","BLM","USUTCCD","Cedar City Field Office","UTCCD","Cedar City Field Office","","","DU0N","HAMLIN VALLEY 2","","","","","","2007","2007/07/30 00:00:00+00","211","1419","Natural","Natural","","2007/07/31 00:00:00+00","212","1200","0.1","A","37.9908","-114.0103","BLM","UT","Iron","49021","Iron County"
"-113.299688364","37.642194424","345029","353865","W-552707","FED","DOI-WFMI","BLM","USUTCCD","Cedar City Field Office","UTCCD","Cedar City Field Office","","","DUS3","SWETT","","","","","","2007","2007/07/30 00:00:00+00","211","1519","Natural","Natural","","2007/07/30 00:00:00+00","211","2200","0.1","A","37.6422","-113.2997","BLM","UT","Iron","49021","Iron County"
"-114.009688171","38.154994414","345030","353866","W-545532","FED","DOI-WFMI","BLM","USUTCCD","Cedar City Field Office","UTCCD","Cedar City Field Office","","","DUF6","COYOTE 2","","","","","","2007","2007/07/30 00:00:00+00","211","1653","Natural","Natural","","2007/07/30 00:00:00+00","211","1856","0.1","A","38.155","-114.0097","BLM","UT","Beaver","49001","Beaver County"
"-112.67558854","37.119394444","345031","353867","W-548992","FED","DOI-WFMI","BLM","USUTCCD","Cedar City Field Office","UTCCD","Cedar City Field Office","","","DU4T","HANCOCK","","","","","","2007","2007/07/31 00:00:00+00","212","0848","Natural","Natural","","2007/07/31 00:00:00+00","212","1600","0.1","A","37.1194","-112.6756","BLM","UT","Washington","49053","Washington County"
"-112.620288526","37.358594412","345032","353868","W-546668","FED","DOI-WFMI","BLM","USUTCCD","Cedar City Field Office","UTCCD","Cedar City Field Office","","","DUR3","BOX ELDER","","","","","","2007","2007/07/31 00:00:00+00","212","1805","Natural","Natural","","2007/08/02 00:00:00+00","214","1300","0.3","B","37.3586","-112.6203","BLM","UT","Kane","49025","Kane County"
"-112.584688433","38.278294299","345033","353869","W-552703","FED","DOI-WFMI","BLM","USUTCCD","Cedar City Field Office","UTCCD","Cedar City Field Office","","","DUR6","LIMB","","","","","","2007","2007/07/31 00:00:00+00","212","2045","Natural","Natural","","2007/07/31 00:00:00+00","212","2045","0.1","A","38.2783","-112.5847","BLM","UT","Beaver","49001","Beaver County"
"-112.651388532","37.242194428","345034","353870","W-546684","FED","DOI-WFMI","BLM","USUTCCD","Cedar City Field Office","UTCCD","Cedar City Field Office","","","DUZ6","SUGAR","","","","","","2007","2007/08/01 00:00:00+00","213","1410","Natural","Natural","","2007/08/02 00:00:00+00","214","1630","0.1","A","37.2422","-112.6514","BLM","UT","Kane","49025","Kane County"
"-113.668888323","37.359194482","345035","353871","W-549017","FED","DOI-WFMI","BLM","USUTCCD","Cedar City Field Office","UTCCD","Cedar City Field Office","","","DUY0","CANAL DRIVE","","","","","","2007","2007/08/01 00:00:00+00","213","1446","Natural","Natural","","2007/08/01 00:00:00+00","213","2000","0.2","A","37.3592","-113.6689","BLM","UT","Washington","49053","Washington County"
"-112.237788599","37.383294383","345036","353872","W-546688","FED","DOI-WFMI","BLM","USUTCCD","Cedar City Field Office","UTCCD","Cedar City Field Office","","","DU1F","BROWN","","","","","","2007","2007/08/01 00:00:00+00","213","2052","Natural","Natural","","2007/08/02 00:00:00+00","214","1300","0.1","A","37.3833","-112.2378","BLM","UT","Kane","49025","Kane County"
"-112.083088654","37.142494403","345037","353873","W-546682","FED","DOI-WFMI","BLM","USUTCCD","Cedar City Field Office","UTCCD","Cedar City Field Office","","","DU3G","CORRAL","","","","","","2007","2007/08/02 00:00:00+00","214","1737","Natural","Natural","","2007/08/02 00:00:00+00","214","2100","0.1","A","37.1425","-112.0831","BLM","UT","Kane","49025","Kane County"
"-112.12108865","37.111394409","345038","353874","W-546685","FED","DOI-WFMI","BLM","USUTCCD","Cedar City Field Office","UTCCD","Cedar City Field Office","","","DU5D","TELEGRAPH","","","","","","2007","2007/08/03 00:00:00+00","215","1446","Natural","Natural","","2007/08/03 00:00:00+00","215","1645","0.1","A","37.1114","-112.1211","BLM","UT","Kane","49025","Kane County"
"-111.916388696","37.058894402","345039","353875","W-548631","FED","DOI-WFMI","BLM","USUTCCD","Cedar City Field Office","UTCCD","Cedar City Field Office","","","DV70","DRY LAKE","","","","","","2007","2007/08/12 00:00:00+00","224","1805","Natural","Natural","","2007/08/21 00:00:00+00","233","1000","0.1","A","37.0589","-111.9164","BLM","UT","Kane","49025","Kane County"
"-113.945588286","37.217494517","345040","353876","W-551492","FED","DOI-WFMI","BLM","USUTCCD","Cedar City Field Office","UTCCD","Cedar City Field Office","","","DV97","HORSE","","","","","","2007","2007/08/13 00:00:00+00","225","1409","Human","Missing data/not specified/undetermined","","2007/08/13 00:00:00+00","225","1839","1.3","B","37.2175","-113.9456","BLM","UT","Washington","49053","Washington County"
"-112.583088534","37.35389441","345041","353877","W-548058","FED","DOI-WFMI","BLM","USUTCCD","Cedar City Field Office","UTCCD","Cedar City Field Office","","","DWH1","BENS HOLLOW","","","","","","2007","2007/08/13 00:00:00+00","225","2006","Natural","Natural","","2007/08/16 00:00:00+00","228","1200","0.1","A","37.3539","-112.5831","BLM","UT","Kane","49025","Kane County"
"-113.355588354","37.636394428","345042","353878","W-552710","FED","DOI-WFMI","BLM","USUTCCD","Cedar City Field Office","UTCCD","Cedar City Field Office","","","DWQ8","GRUB","","","","","","2007","2007/08/14 00:00:00+00","226","1517","Natural","Natural","","2007/08/14 00:00:00+00","226","1800","0.1","A","37.6364","-113.3556","BLM","UT","Iron","49021","Iron County"
"-112.483888562","37.274694413","345043","353879","W-548062","FED","DOI-WFMI","BLM","USUTCCD","Cedar City Field Office","UTCCD","Cedar City Field Office","","","DWQ7","JOHN R FLAT","","","","","","2007","2007/08/14 00:00:00+00","226","1553","Natural","Natural","","2007/08/14 00:00:00+00","226","1814","0.1","A","37.2747","-112.4839","BLM","UT","Kane","49025","Kane County"
"-111.489988709","37.752194288","345044","353880","W-552528","FED","DOI-WFMI","BLM","USUTCCD","Cedar City Field Office","UTCCD","Cedar City Field Office","","","DWQ6","PINYON","","","","","","2007","2007/08/14 00:00:00+00","226","1612","Natural","Natural","","2007/08/14 00:00:00+00","226","1830","0.1","A","37.7522","-111.49","BLM","UT","Garfield","49017","Garfield County"
"-111.488588709","37.751094288","345045","353881","W-552527","FED","DOI-WFMI","BLM","USUTCCD","Cedar City Field Office","UTCCD","Cedar City Field Office","","","DWQ5","JUNIPER","","","","","","2007","2007/08/14 00:00:00+00","226","1713","Natural","Natural","","2007/08/14 00:00:00+00","226","1800","0.1","A","37.7511","-111.4886","BLM","UT","Garfield","49017","Garfield County"
"-112.833088393","38.204994325","345046","353882","W-546997","FED","DOI-WFMI","BLM","USUTCCD","Cedar City Field Office","UTCCD","Cedar City Field Office","","","DW01","FAT CAT","","","","","","2007","2007/08/15 00:00:00+00","227","1625","Natural","Natural","","2007/08/15 00:00:00+00","227","1900","0.1","A","38.205","-112.8331","BLM","UT","Beaver","49001","Beaver County"
"-111.687488661","37.824194292","345047","353883","W-552521","FED","DOI-WFMI","BLM","USUTCCD","Cedar City Field Office","UTCCD","Cedar City Field Office","","","DW4H","RIDGE","","","","","","2007","2007/08/16 00:00:00+00","228","0924","Natural","Natural","","2007/08/16 00:00:00+00","228","1500","0.1","A","37.8242","-111.6875","BLM","UT","Garfield","49017","Garfield County"
"-112.15888861","37.423294373","345048","353884","W-552517","FED","DOI-WFMI","BLM","USUTCCD","Cedar City Field Office","UTCCD","Cedar City Field Office","","","DW26","BULL","","","","","","2007","2007/08/16 00:00:00+00","228","0948","Natural","Natural","","2007/08/16 00:00:00+00","228","1640","0.1","A","37.4233","-112.1589","BLM","UT","Garfield","49017","Garfield County"
"-113.709688238","38.069194402","345049","353885","W-547007","FED","DOI-WFMI","BLM","USUTCCD","Cedar City Field Office","UTCCD","Cedar City Field Office","","","DW4G","CORN BREAD","","","","","","2007","2007/08/16 00:00:00+00","228","1337","Natural","Natural","","2007/08/16 00:00:00+00","228","1950","0.3","B","38.0692","-113.7097","BLM","UT","Iron","49021","Iron County"
"-112.83578841","38.046694344","345050","353886","W-546990","FED","DOI-WFMI","BLM","USUTCCD","Cedar City Field Office","UTCCD","Cedar City Field Office","","","DW4E","KANE SPRINGS 1","","","","","","2007","2007/08/16 00:00:00+00","228","1436","Natural","Natural","","2007/08/16 00:00:00+00","228","2000","0.1","A","38.0467","-112.8358","PRIVATE","UT","Iron","49021","Iron County"
"-113.624688231","38.278894373","345051","353887","W-552515","FED","DOI-WFMI","BLM","USUTCCD","Cedar City Field Office","UTCCD","Cedar City Field Office","","","DW4W","130","","","","","","2007","2007/08/16 00:00:00+00","228","1539","Natural","Natural","","2007/08/16 00:00:00+00","228","1837","0.1","A","38.2789","-113.6247","BLM","UT","Beaver","49001","Beaver County"
"-113.142188433","37.276694456","345052","353888","W-549015","FED","DOI-WFMI","BLM","USUTCCD","Cedar City Field Office","UTCCD","Cedar City Field Office","","","DW39","MESA","","","","","","2007","2007/08/16 00:00:00+00","228","1633","Natural","Natural","","2007/08/20 00:00:00+00","232","1623","6","B","37.2767","-113.1422","BLM","UT","Washington","49053","Washington County"
"-112.404988567","37.374394395","345053","353889","W-548040","FED","DOI-WFMI","BLM","USUTCCD","Cedar City Field Office","UTCCD","Cedar City Field Office","","","DXX7","FISHER CANYON","","","","","","2007","2007/08/16 00:00:00+00","228","1738","Natural","Natural","","2007/08/21 00:00:00+00","233","1515","0.1","A","37.3744","-112.405","BIA","UT","Kane","49025","Kane County"
"-113.142788433","37.276894457","345054","353890","W-549010","FED","DOI-WFMI","BLM","USUTCCD","Cedar City Field Office","UTCCD","Cedar City Field Office","","","DW6F","MESA 2","","","","","","2007","2007/08/17 00:00:00+00","229","1122","Natural","Natural","","2007/08/18 00:00:00+00","230","1200","0.5","B","37.2769","-113.1428","BLM","UT","Washington","49053","Washington County"
"-112.658588547","37.084994448","345055","353891","W-548033","FED","DOI-WFMI","BLM","USUTCCD","Cedar City Field Office","UTCCD","Cedar City Field Office","","","DW7D","MILK WEED","","","","","","2007","2007/08/17 00:00:00+00","229","1512","Natural","Natural","","2007/08/18 00:00:00+00","230","1330","0.5","B","37.085","-112.6586","BLM","UT","Kane","49025","Kane County"
"-112.566888568","37.051094446","345056","353892","W-548048","FED","DOI-WFMI","BLM","USUTCCD","Cedar City Field Office","UTCCD","Cedar City Field Office","","","DW7K","BUNTING 2","","","","","","2007","2007/08/17 00:00:00+00","229","1521","Natural","Natural","","2007/08/18 00:00:00+00","230","1000","0.1","A","37.0511","-112.5669","BLM","UT","Kane","49025","Kane County"
"-113.245788382","37.576394428","345057","353893","W-552711","FED","DOI-WFMI","BLM","USUTCCD","Cedar City Field Office","UTCCD","Cedar City Field Office","","","DW7Q","HARMONY MTN","","","","","","2007","2007/08/17 00:00:00+00","229","1647","Natural","Natural","","2007/08/18 00:00:00+00","230","1000","0.3","B","37.5764","-113.2458","BLM","UT","Iron","49021","Iron County"
"-112.983088486","37.069194471","345058","353894","W-552712","FED","DOI-WFMI","BLM","USUTCCD","Cedar City Field Office","UTCCD","Cedar City Field Office","","","DW77","EAGLE","","","","","","2007","2007/08/17 00:00:00+00","229","1904","Natural","Natural","","2007/08/23 00:00:00+00","235","1200","0.1","A","37.0692","-112.9831","BLM","UT","Washington","49053","Washington County"
"-113.983288266","37.334194506","345059","353895","W-554359","FED","DOI-WFMI","BLM","USUTCCD","Cedar City Field Office","UTCCD","Cedar City Field Office","","","DW9G","BUNKER","","","","","","2007","2007/08/17 00:00:00+00","229","2123","Natural","Natural","","2007/08/20 00:00:00+00","232","1700","8","B","37.3342","-113.9833","BLM","UT","Washington","49053","Washington County"
"-112.361688502","38.05889431","345060","353896","W-552715","FED","DOI-WFMI","BLM","USUTCCD","Cedar City Field Office","UTCCD","Cedar City Field Office","","","DXL2","HWY 89MM149","","","","","","2007","2007/08/18 00:00:00+00","230","0956","Natural","Natural","","2007/08/19 00:00:00+00","231","1800","0.1","A","38.0589","-112.3617","BLM","UT","Garfield","49017","Garfield County"
"-112.739688537","37.02669446","345061","353897","W-548632","FED","DOI-WFMI","BLM","USUTCCD","Cedar City Field Office","UTCCD","Cedar City Field Office","","","DW83","HILL","","","","","","2007","2007/08/18 00:00:00+00","230","1122","Natural","Natural","","2007/08/18 00:00:00+00","230","1230","0.1","A","37.0267","-112.7397","STATE","UT","Kane","49025","Kane County"
"-112.495288515","37.697794362","345062","353898","W-553716","FED","DOI-WFMI","BLM","USUTCCD","Cedar City Field Office","UTCCD","Cedar City Field Office","","","DXJ1","COAL PITS","","","","","","2007","2007/08/19 00:00:00+00","231","1153","Natural","Natural","","2007/08/19 00:00:00+00","231","1900","0.2","A","37.6978","-112.4953","BLM","UT","Washington","49053","Washington County"
"-112.144388649","37.076094415","345063","353899","W-551157","FED","DOI-WFMI","BLM","USUTCCD","Cedar City Field Office","UTCCD","Cedar City Field Office","","","DXS1","CHAIN","","","","","","2007","2007/08/20 00:00:00+00","232","1100","Natural","Natural","","2007/08/21 00:00:00+00","233","1300","0.5","B","37.0761","-112.1444","BLM","UT","Kane","49025","Kane County"
"-113.823288203","38.193594396","345064","353900","W-548621","FED","DOI-WFMI","BLM","USUTCCD","Cedar City Field Office","UTCCD","Cedar City Field Office","","","DXT4","COUGAR SPAR","","","","","","2007","2007/08/20 00:00:00+00","232","1306","Natural","Natural","","2007/08/21 00:00:00+00","233","1500","2.5","B","38.1936","-113.8233","BLM","UT","Beaver","49001","Beaver County"
"-112.590788538","37.302494417","345065","353901","W-551163","FED","DOI-WFMI","BLM","USUTCCD","Cedar City Field Office","UTCCD","Cedar City Field Office","","","DX0N","SPRING HOLLOW","","","","","","2007","2007/08/21 00:00:00+00","233","1540","Natural","Natural","","2007/08/22 00:00:00+00","234","1740","2","B","37.3025","-112.5908","BLM","UT","Kane","49025","Kane County"
"-113.073588366","38.026894363","345066","353902","W-548626","FED","DOI-WFMI","BLM","USUTCCD","Cedar City Field Office","UTCCD","Cedar City Field Office","","","DX1Y","MONUMENT","","","","","","2007","2007/08/22 00:00:00+00","234","1619","Natural","Natural","","2007/08/28 00:00:00+00","240","1445","65","C","38.0269","-113.0736","BLM","UT","Iron","49021","Iron County"
"-112.783088421","38.038894341","345067","353903","W-548069","FED","DOI-WFMI","BLM","USUTCCD","Cedar City Field Office","UTCCD","Cedar City Field Office","","","DX3D","COTTONWOOD","","","","","","2007","2007/08/23 00:00:00+00","235","1149","Natural","Natural","","2007/08/23 00:00:00+00","235","1459","0.1","A","38.0389","-112.7831","BLM","UT","Iron","49021","Iron County"
"-113.95638817","38.254694399","345068","353904","W-548026","FED","DOI-WFMI","BLM","USUTCCD","Cedar City Field Office","UTCCD","Cedar City Field Office","","","DYW5","CUZACK","","","","","","2007","2007/08/23 00:00:00+00","235","1613","Natural","Natural","","2007/08/30 00:00:00+00","242","1045","0.1","A","38.2547","-113.9564","BLM","UT","Beaver","49001","Beaver County"
"-112.406088525","37.768894348","345069","353905","W-552716","FED","DOI-WFMI","BLM","USUTCCD","Cedar City Field Office","UTCCD","Cedar City Field Office","","","DX82","GEORGE","","","","","","2007","2007/08/26 00:00:00+00","238","1635","Natural","Natural","","2007/08/26 00:00:00+00","238","1730","0.1","A","37.7689","-112.4061","BLM","UT","Garfield","49017","Garfield County"
"-113.436388338","37.634994434","345070","353906","W-549004","FED","DOI-WFMI","BLM","USUTCCD","Cedar City Field Office","UTCCD","Cedar City Field Office","","","DX84","DRY WASH","","","","","","2007","2007/08/26 00:00:00+00","238","1753","Natural","Natural","","2007/08/26 00:00:00+00","238","1830","0.1","A","37.635","-113.4364","BLM","UT","Iron","49021","Iron County"
"-113.674988322","37.359394482","345071","353907","W-549989","FED","DOI-WFMI","BLM","USUTCCD","Cedar City Field Office","UTCCD","Cedar City Field Office","","","DX9M","SR 18 22","","","","","","2007","2007/08/26 00:00:00+00","238","1907","Natural","Natural","","2007/08/27 00:00:00+00","239","0930","0.4","B","37.3594","-113.675","BLM","UT","Washington","49053","Washington County"
"-113.933888221","37.841694444","345072","353908","W-549007","FED","DOI-WFMI","BLM","USUTCCD","Cedar City Field Office","UTCCD","Cedar City Field Office","","","DX9K","DESERT SPRINGS","","","","","","2007","2007/08/26 00:00:00+00","238","1924","Natural","Natural","","2007/08/27 00:00:00+00","239","1830","0.1","A","37.8417","-113.9339","BLM","UT","Iron","49021","Iron County"
"-113.879988215","37.988294424","345073","353909","W-548144","FED","DOI-WFMI","BLM","USUTCCD","Cedar City Field Office","UTCCD","Cedar City Field Office","","","DYK6","RANDALL","","","","","","2007","2007/08/28 00:00:00+00","240","1001","Natural","Natural","","2007/08/28 00:00:00+00","240","1500","0.1","A","37.9883","-113.88","BLM","UT","Iron","49021","Iron County"
"-114.033588216","37.714994466","345074","353910","W-548829","FED","DOI-WFMI","BLM","USUTCCD","Cedar City Field Office","UTCCD","Cedar City Field Office","","","DY55","SHEEP SPRING","","","","","","2007","2007/09/01 00:00:00+00","244","1433","Natural","Natural","","2007/09/01 00:00:00+00","244","1900","0.1","A","37.715","-114.0336","STATE","UT","Iron","49021","Iron County"
"-112.676388519","37.31859442","345075","353911","W-551505","FED","DOI-WFMI","BLM","USUTCCD","Cedar City Field Office","UTCCD","Cedar City Field Office","","","DZG0","REED CYN 1","","","","","","2007","2007/09/01 00:00:00+00","244","1500","Natural","Natural","","2007/09/14 00:00:00+00","257","1200","0.1","A","37.3186","-112.6764","BLM","UT","Kane","49025","Kane County"
"-111.703888698","37.44639434","345076","353912","W-553295","FED","DOI-WFMI","BLM","USUTCCD","Cedar City Field Office","UTCCD","Cedar City Field Office","","","DY5E","HORSE MOUNTAIN","","","","","","2007","2007/09/01 00:00:00+00","244","1506","Natural","Natural","","2007/09/04 00:00:00+00","247","1800","0.1","A","37.4464","-111.7039","BLM","UT","Kane","49025","Kane County"
"-112.390288608","37.007494439","345077","353913","W-551167","FED","DOI-WFMI","BLM","USUTCCD","Cedar City Field Office","UTCCD","Cedar City Field Office","","","DZF9","STAMPIN UP","","","","","","2007","2007/09/02 00:00:00+00","245","1655","Natural","Natural","","2007/09/10 00:00:00+00","253","1500","0.1","A","37.0075","-112.3903","BLM","UT","Kane","49025","Kane County"
"-113.538888275","38.037794394","345078","353914","W-553293","FED","DOI-WFMI","BLM","USUTCCD","Cedar City Field Office","UTCCD","Cedar City Field Office","","","DZC1","JENSEN SPRINGS","","","","","","2007","2007/09/02 00:00:00+00","245","1908","Natural","Natural","","2007/09/03 00:00:00+00","246","1600","0.1","A","38.0378","-113.5389","BLM","UT","Iron","49021","Iron County"
"-112.951688418","37.768594385","345079","353915","W-549008","FED","DOI-WFMI","BLM","USUTCCD","Cedar City Field Office","UTCCD","Cedar City Field Office","","","DZA5","CINDER HILL","","","","","","2007","2007/09/03 00:00:00+00","246","1000","Natural","Natural","","2007/09/03 00:00:00+00","246","1430","0.1","A","37.7686","-112.9517","BLM","UT","Iron","49021","Iron County"
"-112.683088518","37.315794421","345080","353916","W-551166","FED","DOI-WFMI","BLM","USUTCCD","Cedar City Field Office","UTCCD","Cedar City Field Office","","","DZF7","REED CYN 2","","","","","","2007","2007/09/03 00:00:00+00","246","1003","Natural","Natural","","2007/09/13 00:00:00+00","256","1200","1","B","37.3158","-112.6831","BLM","UT","Kane","49025","Kane County"
"-112.336388612","37.069194428","345081","353917","W-551161","FED","DOI-WFMI","BLM","USUTCCD","Cedar City Field Office","UTCCD","Cedar City Field Office","","","DZF6","GLASS EYE","","","","","","2007","2007/09/03 00:00:00+00","246","1547","Natural","Natural","","2007/09/05 00:00:00+00","248","1700","0.1","A","37.0692","-112.3364","BLM","UT","Kane","49025","Kane County"
"-112.52188857","37.122494434","345082","353918","W-551162","FED","DOI-WFMI","BLM","USUTCCD","Cedar City Field Office","UTCCD","Cedar City Field Office","","","DZQ0","LEFT FORK","","","","","","2007","2007/09/04 00:00:00+00","247","0830","Natural","Natural","","2007/09/04 00:00:00+00","247","1900","0.1","A","37.1225","-112.5219","BLM","UT","Kane","49025","Kane County"
"-113.166388375","37.782494398","345083","353919","W-548630","FED","DOI-WFMI","BLM","USUTCCD","Cedar City Field Office","UTCCD","Cedar City Field Office","","","DZ1X","PAVILLION","","","","","","2007","2007/09/06 00:00:00+00","249","1202","Human","Missing data/not specified/undetermined","","2007/09/06 00:00:00+00","249","1245","0.1","A","37.7825","-113.1664","STATE","UT","Iron","49021","Iron County"
"-113.463588238","38.491094337","345084","353920","W-548627","FED","DOI-WFMI","BLM","USUTCCD","Cedar City Field Office","UTCCD","Cedar City Field Office","","","DZ3P","WAH WAH WEST","","","","","","2007","2007/09/07 00:00:00+00","250","1631","Natural","Natural","","2007/09/07 00:00:00+00","250","2035","7","B","38.4911","-113.4636","BLM","UT","Beaver","49001","Beaver County"
"-114.0071882","37.900594443","345085","353921","W-553299","FED","DOI-WFMI","BLM","USUTCCD","Cedar City Field Office","UTCCD","Cedar City Field Office","","","DZ4Y","SAWMILL","","","","","","2007","2007/09/08 00:00:00+00","251","1036","Natural","Natural","","2007/09/08 00:00:00+00","251","1730","0.1","A","37.9006","-114.0072","BLM","UT","Iron","49021","Iron County"
"-112.649688539","37.176694436","345086","353922","W-551507","FED","DOI-WFMI","BLM","USUTCCD","Cedar City Field Office","UTCCD","Cedar City Field Office","","","DZ5J","PINK","","","","","","2007","2007/09/09 00:00:00+00","252","1244","Natural","Natural","","2007/09/09 00:00:00+00","252","1800","0.1","A","37.1767","-112.6497","BLM","UT","Kane","49025","Kane County"
"-113.191688374","37.739994405","345087","353923","W-548999","FED","DOI-WFMI","BLM","USUTCCD","Cedar City Field Office","UTCCD","Cedar City Field Office","","","DZ5Q","CARNIVAL","","","","","","2007","2007/09/09 00:00:00+00","252","1522","Natural","Natural","","2007/09/09 00:00:00+00","252","1700","0.1","A","37.74","-113.1917","BLM","UT","Iron","49021","Iron County"
"-113.454188281","38.122494378","345088","353924","W-548993","FED","DOI-WFMI","BLM","USUTCCD","Cedar City Field Office","UTCCD","Cedar City Field Office","","","DZ6K","BULL SPRINGS","","","","","","2007","2007/09/09 00:00:00+00","252","1833","Natural","Natural","","2007/09/10 00:00:00+00","253","1100","0.1","A","38.1225","-113.4542","BLM","UT","Iron","49021","Iron County"
"-113.663288323","37.37609448","345089","353925","W-550816","FED","DOI-WFMI","BLM","USUTCCD","Cedar City Field Office","UTCCD","Cedar City Field Office","","","DZ7Z","BROOKSIDE","2007_UT-CCD-070862_BROOKSIDE","","","","","2007","2007/09/10 00:00:00+00","253","0913","Natural","Natural","","2007/09/15 00:00:00+00","258","2200","580.5","E","37.3761","-113.6633","BLM","UT","Washington","49053","Washington County"
"-113.149688399","37.58419442","345090","353926","W-553300","FED","DOI-WFMI","BLM","USUTCCD","Cedar City Field Office","UTCCD","Cedar City Field Office","","","DZ70","SAVAGE","","","","","","2007","2007/09/10 00:00:00+00","253","0957","Natural","Natural","","2007/09/10 00:00:00+00","253","1045","0.1","A","37.5842","-113.1497","BLM","UT","Iron","49021","Iron County"
"-112.396888592","37.142194423","345091","353927","W-551160","FED","DOI-WFMI","BLM","USUTCCD","Cedar City Field Office","UTCCD","Cedar City Field Office","","","DZ9A","LONG CYN","","","","","","2007","2007/09/10 00:00:00+00","253","1019","Natural","Natural","","2007/09/10 00:00:00+00","253","1310","0.1","A","37.1422","-112.3969","BLM","UT","Kane","49025","Kane County"
"-112.056388662","37.117194404","345092","353928","W-551165","FED","DOI-WFMI","BLM","USUTCCD","Cedar City Field Office","UTCCD","Cedar City Field Office","","","D0DE","DIRT","","","","","","2007","2007/09/10 00:00:00+00","253","1408","Natural","Natural","","2007/09/10 00:00:00+00","253","1610","0.1","A","37.1172","-112.0564","BLM","UT","Kane","49025","Kane County"
"-113.304988362","37.655794423","345093","353929","W-549530","FED","DOI-WFMI","BLM","USUTCCD","Cedar City Field Office","UTCCD","Cedar City Field Office","","","D0KY","SWETT HILL","","","","","","2007","2007/09/13 00:00:00+00","256","1610","Natural","Natural","","2007/09/14 00:00:00+00","257","1530","0.1","A","37.6558","-113.305","BLM","UT","Iron","49021","Iron County"
"-113.966688211","37.869694443","345094","353930","W-549531","FED","DOI-WFMI","BLM","USUTCCD","Cedar City Field Office","UTCCD","Cedar City Field Office","","","D0MC","NORTH ELENORE","","","","","","2007","2007/09/14 00:00:00+00","257","1651","Natural","Natural","","2007/09/16 00:00:00+00","259","1600","3","B","37.8697","-113.9667","BLM","UT","Iron","49021","Iron County"
"-111.985288674","37.142194396","345095","353931","W-551508","FED","DOI-WFMI","BLM","USUTCCD","Cedar City Field Office","UTCCD","Cedar City Field Office","","","D0RF","SAND GULCH","","","","","","2007","2007/09/16 00:00:00+00","259","2030","Natural","Natural","","2007/09/17 00:00:00+00","260","1300","0.3","B","37.1422","-111.9853","BLM","UT","Kane","49025","Kane County"
"-112.108288653","37.108094409","345096","353932","W-550814","FED","DOI-WFMI","BLM","USUTCCD","Cedar City Field Office","UTCCD","Cedar City Field Office","","","D0QK","MUSTANG","","","","","","2007","2007/09/16 00:00:00+00","259","2033","Natural","Natural","","2007/09/16 00:00:00+00","259","2230","0.1","A","37.1081","-112.1083","BLM","UT","Kane","49025","Kane County"
"-113.178088375","37.754194402","345097","353933","W-554807","FED","DOI-WFMI","BLM","USUTCCD","Cedar City Field Office","UTCCD","Cedar City Field Office","","","D0RZ","THREE PEAKS 1","","","","","","2007","2007/09/17 00:00:00+00","260","1445","Human","Recreation and ceremony","","2007/09/17 00:00:00+00","260","1700","0.1","A","37.7542","-113.1781","BLM","UT","Iron","49021","Iron County"
"-112.044688647","37.286694382","345098","353934","W-552503","FED","DOI-WFMI","BLM","USUTCCD","Cedar City Field Office","UTCCD","Cedar City Field Office","","","D0TD","PARIA","","","","","","2007","2007/09/17 00:00:00+00","260","1544","Natural","Natural","","2007/09/19 00:00:00+00","262","1500","0.2","A","37.2867","-112.0447","BLM","UT","Kane","49025","Kane County"
"-113.769188308","37.322194493","345099","353935","W-551501","FED","DOI-WFMI","BLM","USUTCCD","Cedar City Field Office","UTCCD","Cedar City Field Office","","","D0YW","TOBIN","","","","","","2007","2007/09/24 00:00:00+00","267","1410","Natural","Natural","","2007/09/24 00:00:00+00","267","1630","0.1","A","37.3222","-113.7692","BLM","UT","Washington","49053","Washington County"
"-113.245588402","37.38779445","345100","353936","W-553301","FED","DOI-WFMI","BLM","USUTCCD","Cedar City Field Office","UTCCD","Cedar City Field Office","","","D1JU","BLACK","","","","","","2007","2007/10/10 00:00:00+00","283","1715","Human","Missing data/not specified/undetermined","","2007/10/12 00:00:00+00","285","1410","1.6","B","37.3878","-113.2456","BLM","UT","Washington","49053","Washington County"
"-113.635288228","38.284194373","345101","353937","W-552739","FED","DOI-WFMI","BLM","USUTCCD","Cedar City Field Office","UTCCD","Cedar City Field Office","","","D1P9","LATE","","","","","","2007","2007/10/17 00:00:00+00","290","1719","Natural","Natural","","2007/10/19 00:00:00+00","292","1300","0.3","B","38.2842","-113.6353","BLM","UT","Iron","49021","Iron County"
"-113.174988428","37.26639446","345102","353938","W-554361","FED","DOI-WFMI","BLM","USUTCCD","Cedar City Field Office","UTCCD","Cedar City Field Office","","","D2DR","MESA CLIFF","","","","","","2007","2007/11/17 00:00:00+00","321","2145","Human","Recreation and ceremony","","2007/11/27 00:00:00+00","331","1150","0.3","B","37.2664","-113.175","BLM","UT","Washington","49053","Washington County"
"-112.627788406","38.445594283","345103","353939","W-554153","FED","DOI-WFMI","BLM","USUTCCD","Cedar City Field Office","UTCCD","Cedar City Field Office","","","D2JP","WILDCAT","","","","","","2007","2007/11/27 00:00:00+00","331","1145","Human","Equipment and vehicle use","","2007/11/28 00:00:00+00","332","1600","31","C","38.4456","-112.6278","BLM","UT","Utah","49049","Utah County"
"-113.236058402","37.404234448","345104","353940","W-556891","FED","DOI-WFMI","BLM","USUTCCD","Cedar City Field Office","UTCCD","Cedar City Field Office","","","D4S2","DEADMAN TRAIL","","","","","","2008","2008/03/28 00:00:00+00","88","1900","Human","Debris and open burning","","2008/03/29 00:00:00+00","89","0800","0.3","B","37.40424","-113.23607","BLM","UT","Washington","49053","Washington County"
"-113.171688375","37.7682944","345105","353941","W-556985","FED","DOI-WFMI","BLM","USUTCCD","Cedar City Field Office","UTCCD","Cedar City Field Office","","","D4YN","ROMAN","","","","","","2008","2008/04/04 00:00:00+00","95","1130","Human","Fireworks","","2008/04/04 00:00:00+00","95","1230","0.1","A","37.7683","-113.1717","BLM","UT","Iron","49021","Iron County"
"-113.650788358","37.062194516","345106","353942","W-557292","FED","DOI-WFMI","BLM","USUTCCD","Cedar City Field Office","UTCCD","Cedar City Field Office","","","D5DP","BLOOM TRASH","","","","","","2008","2008/04/12 00:00:00+00","103","1520","Human","Debris and open burning","","2008/04/12 00:00:00+00","103","1745","0.1","A","37.0622","-113.6508","BLM","UT","Washington","49053","Washington County"
"-113.728288235","38.071094404","345107","353943","W-558805","FED","DOI-WFMI","BLM","USUTCCD","Cedar City Field Office","UTCCD","Cedar City Field Office","","","D7CZ","TYPHOID","","","","","","2008","2008/05/25 00:00:00+00","146","1804","Human","Recreation and ceremony","","2008/05/27 00:00:00+00","148","1500","0.8","B","38.0711","-113.7283","BLM","UT","Iron","49021","Iron County"
"-113.43308834","37.625794435","345108","353944","W-558807","FED","DOI-WFMI","BLM","USUTCCD","Cedar City Field Office","UTCCD","Cedar City Field Office","","","D7PY","IRON TOWN","","","","","","2008","2008/06/04 00:00:00+00","156","1439","Natural","Natural","","2008/06/04 00:00:00+00","156","1645","0.1","A","37.6258","-113.4331","BLM","UT","Iron","49021","Iron County"
"-113.661088334","37.270294492","345109","353945","W-558819","FED","DOI-WFMI","BLM","USUTCCD","Cedar City Field Office","UTCCD","Cedar City Field Office","","","D7P7","RIDGE TOP","","","","","","2008","2008/06/04 00:00:00+00","156","1506","Natural","Natural","","2008/06/04 00:00:00+00","156","2100","0.1","A","37.2703","-113.6611","BLM","UT","Washington","49053","Washington County"
"-113.405288345","37.631694432","345110","353946","W-558821","FED","DOI-WFMI","BLM","USUTCCD","Cedar City Field Office","UTCCD","Cedar City Field Office","","","D7P8","MINE","","","","","","2008","2008/06/04 00:00:00+00","156","1537","Natural","Natural","","2008/06/04 00:00:00+00","156","1807","0.1","A","37.6317","-113.4053","BLM","UT","Iron","49021","Iron County"
"-113.529388321","37.630594441","345111","353947","W-558824","FED","DOI-WFMI","BLM","USUTCCD","Cedar City Field Office","UTCCD","Cedar City Field Office","","","D7P3","RESERVOIR","","","","","","2008","2008/06/04 00:00:00+00","156","1600","Natural","Natural","","2008/06/04 00:00:00+00","156","1724","0.1","A","37.6306","-113.5294","BLM","UT","Iron","49021","Iron County"
"-111.413088723","37.762194281","345112","353948","W-558825","FED","DOI-WFMI","BLM","USUTCCD","Cedar City Field Office","UTCCD","Cedar City Field Office","","","D7R3","RIVER","","","","","","2008","2008/06/04 00:00:00+00","156","1706","Natural","Natural","","2008/06/05 00:00:00+00","157","1500","0.1","A","37.7622","-111.4131","BLM","UT","Garfield","49017","Garfield County"
"-112.13308865","37.085594413","345113","353949","W-572847","FED","DOI-WFMI","BLM","USUTCCD","Cedar City Field Office","UTCCD","Cedar City Field Office","","","D7WZ","ROCK","","","","","","2008","2008/06/10 00:00:00+00","162","1630","Natural","Natural","","2008/06/12 00:00:00+00","164","1130","1","B","37.0856","-112.1331","BLM","UT","Kane","49025","Kane County"
"-112.144688653","37.03419442","345114","353951","W-572959","FED","DOI-WFMI","BLM","USUTCCD","Cedar City Field Office","UTCCD","Cedar City Field Office","","","D8S0","EAGLE SINK","","","","","","2008","2008/06/23 00:00:00+00","175","1704","Natural","Natural","","2008/06/24 00:00:00+00","176","1310","0.3","B","37.0342","-112.1447","BLM","UT","Kane","49025","Kane County"
"-112.316388622","37.005794435","345115","353952","W-573246","FED","DOI-WFMI","BLM","USUTCCD","Cedar City Field Office","UTCCD","Cedar City Field Office","","","D9BX","SEETS","","","","","","2008","2008/06/29 00:00:00+00","181","1510","Natural","Natural","","2008/06/30 00:00:00+00","182","1228","0.1","A","37.0058","-112.3164","BLM","UT","Kane","49025","Kane County"
"-111.951088628","37.646694332","345116","353955","W-573253","FED","DOI-WFMI","BLM","USUTCCD","Cedar City Field Office","UTCCD","Cedar City Field Office","","","D9BG","WILDCAD 205","","","","","","2008","2008/06/29 00:00:00+00","181","1635","Natural","Natural","","2008/07/01 00:00:00+00","183","1222","0.1","A","37.6467","-111.9511","BLM","UT","Garfield","49017","Garfield County"
"-112.168588598","37.522194362","345117","353956","W-573240","FED","DOI-WFMI","BLM","USUTCCD","Cedar City Field Office","UTCCD","Cedar City Field Office","","","D9B9","PARIA","","","","","","2008","2008/06/29 00:00:00+00","181","1828","Natural","Natural","","2008/07/01 00:00:00+00","183","1235","0.1","A","37.5222","-112.1686","BLM","UT","Kane","49025","Kane County"
"-112.136688605","37.51639436","345118","353957","W-573256","FED","DOI-WFMI","BLM","USUTCCD","Cedar City Field Office","UTCCD","Cedar City Field Office","","","D9BN","WILDCAD 215","","","","","","2008","2008/06/29 00:00:00+00","181","1833","Natural","Natural","","2008/07/01 00:00:00+00","183","1235","0.1","A","37.5164","-112.1367","BLM","UT","Kane","49025","Kane County"
"-112.136888605","37.509994361","345119","353958","W-573257","FED","DOI-WFMI","BLM","USUTCCD","Cedar City Field Office","UTCCD","Cedar City Field Office","","","D9BQ","WILDCAD 216","","","","","","2008","2008/06/29 00:00:00+00","181","1842","Natural","Natural","","2008/07/01 00:00:00+00","183","1235","0.1","A","37.51","-112.1369","BLM","UT","Kane","49025","Kane County"
"-111.916688638","37.617494333","345120","353959","W-573258","FED","DOI-WFMI","BLM","USUTCCD","Cedar City Field Office","UTCCD","Cedar City Field Office","","","D9BL","BLUES","","","","","","2008","2008/06/29 00:00:00+00","181","1845","Natural","Natural","","2008/06/30 00:00:00+00","182","1805","0.1","A","37.6175","-111.9167","BLM","UT","Garfield","49017","Garfield County"
"-111.920788638","37.606694335","345121","353961","W-573260","FED","DOI-WFMI","BLM","USUTCCD","Cedar City Field Office","UTCCD","Cedar City Field Office","","","D9EA","WILDCAD 223","","","","","","2008","2008/06/29 00:00:00+00","181","2043","Natural","Natural","","2008/06/30 00:00:00+00","182","1220","0.1","A","37.6067","-111.9208","BLM","UT","Garfield","49017","Garfield County"
"-112.699688524","37.235294432","345122","353962","W-573245","FED","DOI-WFMI","BLM","USUTCCD","Cedar City Field Office","UTCCD","Cedar City Field Office","","","D9CC","HOLLOW","","","","","","2008","2008/06/29 00:00:00+00","181","2045","Natural","Natural","","2008/06/29 00:00:00+00","181","2130","0.1","A","37.2353","-112.6997","BLM","UT","Kane","49025","Kane County"
"-111.766388679","37.506094337","345123","353963","W-573263","FED","DOI-WFMI","BLM","USUTCCD","Cedar City Field Office","UTCCD","Cedar City Field Office","","","D9EE","LOW VALLEY","","","","","","2008","2008/06/30 00:00:00+00","182","1155","Natural","Natural","","2008/06/30 00:00:00+00","182","1400","0.1","A","37.5061","-111.7664","BLM","UT","Kane","49025","Kane County"
"-111.844688657","37.569694334","345124","353964","W-573264","FED","DOI-WFMI","BLM","USUTCCD","Cedar City Field Office","UTCCD","Cedar City Field Office","","","D9D6","WILDCAD 226","","","","","","2008","2008/06/30 00:00:00+00","182","1207","Natural","Natural","","2008/07/01 00:00:00+00","183","1210","0.1","A","37.5697","-111.8447","BLM","UT","Garfield","49017","Garfield County"
"-112.590788537","37.309394416","345125","353965","W-573437","FED","DOI-WFMI","BLM","USUTCCD","Cedar City Field Office","UTCCD","Cedar City Field Office","","","D9G6","COTTONWOOD ONE","","","","","","2008","2008/06/30 00:00:00+00","182","1738","Natural","Natural","","2008/06/30 00:00:00+00","182","2030","0.1","A","37.3094","-112.5908","BLM","UT","Kane","49025","Kane County"
"-112.099688613","37.509194359","345126","353966","W-573441","FED","DOI-WFMI","BLM","USUTCCD","Cedar City Field Office","UTCCD","Cedar City Field Office","","","D9G9","PE","","","","","","2008","2008/07/01 00:00:00+00","183","1237","Natural","Natural","","2008/07/01 00:00:00+00","183","1748","0.1","A","37.5092","-112.0997","BLM","UT","Kane","49025","Kane County"
"-112.405288525","37.767794348","345127","353967","W-573440","FED","DOI-WFMI","BLM","USUTCCD","Cedar City Field Office","UTCCD","Cedar City Field Office","","","D9KV","GRAVEYARD","","","","","","2008","2008/07/01 00:00:00+00","183","1318","Natural","Natural","","2008/07/01 00:00:00+00","183","1730","0.1","A","37.7678","-112.4053","BLM","UT","Garfield","49017","Garfield County"
"-112.025788669","37.109194403","345128","353968","W-573442","FED","DOI-WFMI","BLM","USUTCCD","Cedar City Field Office","UTCCD","Cedar City Field Office","","","D9LC","FIVE MILE 1","","","","","","2008","2008/07/01 00:00:00+00","183","1524","Natural","Natural","","2008/07/01 00:00:00+00","183","2051","0.3","B","37.1092","-112.0258","BLM","UT","Kane","49025","Kane County"
"-112.025588669","37.113594402","345129","353969","W-573443","FED","DOI-WFMI","BLM","USUTCCD","Cedar City Field Office","UTCCD","Cedar City Field Office","","","D9LB","FIVE MILE 2","","","","","","2008","2008/07/01 00:00:00+00","183","1524","Natural","Natural","","2008/07/02 00:00:00+00","184","1530","0.1","A","37.1136","-112.0256","BLM","UT","Kane","49025","Kane County"
"-112.00528867","37.142194398","345130","353970","W-573444","FED","DOI-WFMI","BLM","USUTCCD","Cedar City Field Office","UTCCD","Cedar City Field Office","","","D9MA","FIVE MILE 3","","","","","","2008","2008/07/01 00:00:00+00","183","1542","Natural","Natural","","2008/07/02 00:00:00+00","184","1110","0.1","A","37.1422","-112.0053","BLM","UT","Kane","49025","Kane County"
"-112.618588438","38.176394314","345131","353971","W-573445","FED","DOI-WFMI","BLM","USUTCCD","Cedar City Field Office","UTCCD","Cedar City Field Office","","","D9LU","LEES SPRING","","","","","","2008","2008/07/01 00:00:00+00","183","1606","Natural","Natural","","2008/07/01 00:00:00+00","183","1900","0.1","A","38.1764","-112.6186","BLM","UT","Beaver","49001","Beaver County"
"-112.098588662","37.033894417","345132","353972","W-573446","FED","DOI-WFMI","BLM","USUTCCD","Cedar City Field Office","UTCCD","Cedar City Field Office","","","D9LH","POWERLINE","","","","","","2008","2008/07/01 00:00:00+00","183","1621","Natural","Natural","","2008/07/02 00:00:00+00","184","1330","0.1","A","37.0339","-112.0986","BLM","UT","Kane","49025","Kane County"
"-112.609188549","37.161894435","345133","353973","W-573447","FED","DOI-WFMI","BLM","USUTCCD","Cedar City Field Office","UTCCD","Cedar City Field Office","","","D9LW","BLUE VALLEY","","","","","","2008","2008/07/01 00:00:00+00","183","1642","Natural","Natural","","2008/07/01 00:00:00+00","183","1830","0.1","A","37.1619","-112.6092","BLM","UT","Beaver","49001","Beaver County"
"-112.299688591","37.343294392","345134","353974","W-573448","FED","DOI-WFMI","BLM","USUTCCD","Cedar City Field Office","UTCCD","Cedar City Field Office","","","D9MF","PARK WASH","","","","","","2008","2008/07/01 00:00:00+00","183","1722","Natural","Natural","","2008/07/03 00:00:00+00","185","1150","0.1","A","37.3433","-112.2997","BLM","UT","Kane","49025","Kane County"
"-112.236388598","37.388894382","345135","353975","W-573450","FED","DOI-WFMI","BLM","USUTCCD","Cedar City Field Office","UTCCD","Cedar City Field Office","","","D9MK","DENIM WASH 2","","","","","","2008","2008/07/01 00:00:00+00","183","1729","Natural","Natural","","2008/07/02 00:00:00+00","184","1430","0.1","A","37.3889","-112.2364","BLM","UT","Kane","49025","Kane County"
"-112.235288599","37.383094383","345136","353976","W-573449","FED","DOI-WFMI","BLM","USUTCCD","Cedar City Field Office","UTCCD","Cedar City Field Office","","","D9ME","DENIM WASH 1","","","","","","2008","2008/07/01 00:00:00+00","183","1732","Natural","Natural","","2008/07/01 00:00:00+00","183","2030","0.1","A","37.3831","-112.2353","BLM","UT","Kane","49025","Kane County"
"-111.656688685","37.66499431","345137","353977","W-573454","FED","DOI-WFMI","BLM","USUTCCD","Cedar City Field Office","UTCCD","Cedar City Field Office","","","D9SS","QUARTER MILE","","","","","","2008","2008/07/02 00:00:00+00","184","1819","Natural","Natural","","2008/07/02 00:00:00+00","184","2200","0.1","A","37.665","-111.6567","BLM","UT","Garfield","49017","Garfield County"
"-113.174988337","38.107794361","345138","353978","W-575383","FED","DOI-WFMI","BLM","USUTCCD","Cedar City Field Office","UTCCD","Cedar City Field Office","","","D98N","BADGER","","","","","","2008","2008/07/05 00:00:00+00","187","1537","Natural","Natural","","2008/07/06 00:00:00+00","188","1530","5","B","38.1078","-113.175","BLM","UT","Iron","49021","Iron County"
"-113.121088359","38.002194369","345139","353979","W-575789","FED","DOI-WFMI","BLM","USUTCCD","Cedar City Field Office","UTCCD","Cedar City Field Office","","","D99D","SPRING HOLLOW","","","","","","2008","2008/07/05 00:00:00+00","187","1800","Natural","Natural","","2008/07/06 00:00:00+00","188","1000","0.1","A","38.0022","-113.1211","BLM","UT","Iron","49021","Iron County"
"-112.600288552","37.143594437","345140","353980","W-577554","FED","DOI-WFMI","BLM","USUTCCD","Cedar City Field Office","UTCCD","Cedar City Field Office","","","EAK5","RAT NEST","","","","","","2008","2008/07/06 00:00:00+00","188","1431","Natural","Natural","","2008/07/07 00:00:00+00","189","1135","0.1","A","37.1436","-112.6003","BLM","UT","Kane","49025","Kane County"
"-113.616888237","38.242194376","345141","353981","W-574786","FED","DOI-WFMI","BLM","USUTCCD","Cedar City Field Office","UTCCD","Cedar City Field Office","","","EAQ3","JOCKEY","","","","","","2008","2008/07/06 00:00:00+00","188","1650","Natural","Natural","","2008/07/06 00:00:00+00","188","2100","0.1","A","38.2422","-113.6169","BLM","UT","Beaver","49001","Beaver County"
"-113.744988231","38.073294404","345142","353982","W-574787","FED","DOI-WFMI","BLM","USUTCCD","Cedar City Field Office","UTCCD","Cedar City Field Office","","","EAQ4","STEAMBOAT","","","","","","2008","2008/07/06 00:00:00+00","188","1652","Natural","Natural","","2008/07/07 00:00:00+00","189","0930","0.1","A","38.0733","-113.745","BLM","UT","Iron","49021","Iron County"
"-114.002788154","38.316694395","345143","353983","W-575792","FED","DOI-WFMI","BLM","USUTCCD","Cedar City Field Office","UTCCD","Cedar City Field Office","","","EAN7","BOTTOM","","","","","","2008","2008/07/06 00:00:00+00","188","1653","Natural","Natural","","2008/07/06 00:00:00+00","188","1950","0.1","A","38.3167","-114.0028","BLM","UT","Iron","49021","Iron County"
"-113.949688225","37.775594453","345144","353984","W-574792","FED","DOI-WFMI","BLM","USUTCCD","Cedar City Field Office","UTCCD","Cedar City Field Office","","","EAN1","LONER","","","","","","2008","2008/07/06 00:00:00+00","188","1659","Natural","Natural","","2008/07/06 00:00:00+00","188","1920","0.1","A","37.7756","-113.9497","BLM","UT","Iron","49021","Iron County"
"-114.016688176","38.10639442","345145","353985","W-574793","FED","DOI-WFMI","BLM","USUTCCD","Cedar City Field Office","UTCCD","Cedar City Field Office","","","EAQ5","SQUARE","","","","","","2008","2008/07/06 00:00:00+00","188","1705","Natural","Natural","","2008/07/06 00:00:00+00","188","2030","0.1","A","38.1064","-114.0167","BLM","UT","Iron","49021","Iron County"
"-113.783088271","37.644394457","345146","353986","W-575901","FED","DOI-WFMI","BLM","USUTCCD","Cedar City Field Office","UTCCD","Cedar City Field Office","","","EAN5","PARK WASH 2","","","","","","2008","2008/07/06 00:00:00+00","188","1705","Natural","Natural","","2008/07/06 00:00:00+00","188","1918","0.1","A","37.6444","-113.7831","BLM","UT","Iron","49021","Iron County"
"-113.766388232","38.025294411","345147","353987","W-574795","FED","DOI-WFMI","BLM","USUTCCD","Cedar City Field Office","UTCCD","Cedar City Field Office","","","EAQ6","WILSON CANYON","","","","","","2008","2008/07/06 00:00:00+00","188","1712","Natural","Natural","","2008/07/07 00:00:00+00","189","0657","0.1","A","38.0253","-113.7664","BLM","UT","Iron","49021","Iron County"
"-114.017788154","38.291394399","345148","353988","W-575793","FED","DOI-WFMI","BLM","USUTCCD","Cedar City Field Office","UTCCD","Cedar City Field Office","","","EAQ8","BOTTOM 2","","","","","","2008","2008/07/06 00:00:00+00","188","1920","Natural","Natural","","2008/07/06 00:00:00+00","188","2200","0.1","A","38.2914","-114.0178","BLM","UT","Iron","49021","Iron County"
"-113.62858824","38.191894383","345149","353989","W-575786","FED","DOI-WFMI","BLM","USUTCCD","Cedar City Field Office","UTCCD","Cedar City Field Office","","","EAQ9","OBSERVATION KNOLL","","","","","","2008","2008/07/06 00:00:00+00","188","1930","Natural","Natural","","2008/07/06 00:00:00+00","188","2151","0.1","A","38.1919","-113.6286","BLM","UT","Beaver","49001","Beaver County"
"-113.778588272","37.639394457","345150","353990","W-575914","FED","DOI-WFMI","BLM","USUTCCD","Cedar City Field Office","UTCCD","Cedar City Field Office","","","EAR0","PINYON PARK","","","","","","2008","2008/07/06 00:00:00+00","188","1942","Natural","Natural","","2008/07/07 00:00:00+00","189","1632","0.1","A","37.6394","-113.7786","BLM","UT","Iron","49021","Iron County"
"-112.613288441","38.158594316","345151","353991","W-577626","FED","DOI-WFMI","BLM","USUTCCD","Cedar City Field Office","UTCCD","Cedar City Field Office","","","EA00","ODD","","","","","","2008","2008/07/07 00:00:00+00","189","0746","Natural","Natural","","2008/07/07 00:00:00+00","189","1630","0.1","A","38.1586","-112.6133","BLM","UT","Beaver","49001","Beaver County"
"-113.893088199","38.104694411","345152","353992","W-576510","FED","DOI-WFMI","BLM","USUTCCD","Cedar City Field Office","UTCCD","Cedar City Field Office","","","EA0W","BASKET","","","","","","2008","2008/07/07 00:00:00+00","189","1523","Natural","Natural","","2008/07/07 00:00:00+00","189","1700","0.3","B","38.1047","-113.8931","BLM","UT","Iron","49021","Iron County"
"-113.594988252","38.146694386","345153","353993","W-575234","FED","DOI-WFMI","BLM","USUTCCD","Cedar City Field Office","UTCCD","Cedar City Field Office","","","EA07","PINE VALLEY","","","","","","2008","2008/07/07 00:00:00+00","189","1525","Natural","Natural","","2008/07/10 00:00:00+00","192","1730","7","B","38.1467","-113.595","BLM","UT","Iron","49021","Iron County"
"-114.018588176","38.095794421","345154","353994","W-574801","FED","DOI-WFMI","BLM","USUTCCD","Cedar City Field Office","UTCCD","Cedar City Field Office","","","EA1S","CHOKE CHERRY","","","","","","2008","2008/07/07 00:00:00+00","189","1708","Natural","Natural","","2008/07/08 00:00:00+00","190","0000","0.3","B","38.0958","-114.0186","BLM","UT","Iron","49021","Iron County"
"-113.74578821","38.255594384","345155","353995","W-579000","FED","DOI-WFMI","BLM","USUTCCD","Cedar City Field Office","UTCCD","Cedar City Field Office","","","EA1R","MIDDLE OF NO WHERE","","","","","","2008","2008/07/07 00:00:00+00","189","1805","Natural","Natural","","2008/07/07 00:00:00+00","189","2000","0.1","A","38.2556","-113.7458","BLM","UT","Beaver","49001","Beaver County"
"-112.645788526","37.309694419","345156","353996","W-576508","FED","DOI-WFMI","BLM","USUTCCD","Cedar City Field Office","UTCCD","Cedar City Field Office","","","EA1Y","CALF PASTURE","","","","","","2008","2008/07/07 00:00:00+00","189","1825","Natural","Natural","","2008/07/08 00:00:00+00","190","1400","0.3","B","37.3097","-112.6458","BLM","UT","Kane","49025","Kane County"
"-113.122488352","38.062194362","345157","353997","W-574244","FED","DOI-WFMI","BLM","USUTCCD","Cedar City Field Office","UTCCD","Cedar City Field Office","","","EA1P","NARROWS","2008_UT-CCD-080333_NARROWS","","","","","2008","2008/07/07 00:00:00+00","189","1922","Natural","Natural","","2008/07/12 00:00:00+00","194","1330","629","E","38.0622","-113.1225","BLM","UT","Iron","49021","Iron County"
"-113.177788374","37.768094401","345158","353998","W-574798","FED","DOI-WFMI","BLM","USUTCCD","Cedar City Field Office","UTCCD","Cedar City Field Office","","","EA4W","REC","","","","","","2008","2008/07/08 00:00:00+00","190","1238","Natural","Natural","","2008/07/08 00:00:00+00","190","1400","0.1","A","37.7681","-113.1778","BLM","UT","Iron","49021","Iron County"
"-113.610788244","38.183294382","345159","353999","W-575250","FED","DOI-WFMI","BLM","USUTCCD","Cedar City Field Office","UTCCD","Cedar City Field Office","","","EBP8","HORSE","","","","","","2008","2008/07/11 00:00:00+00","193","1620","Natural","Natural","","2008/07/12 00:00:00+00","194","1830","0.1","A","38.1833","-113.6108","BLM","UT","Beaver","49001","Beaver County"
"-113.577488255","38.148294384","345160","354000","W-575244","FED","DOI-WFMI","BLM","USUTCCD","Cedar City Field Office","UTCCD","Cedar City Field Office","","","EBM3","PANTHER","","","","","","2008","2008/07/11 00:00:00+00","193","1620","Natural","Natural","","2008/07/12 00:00:00+00","194","1600","0.3","B","38.1483","-113.5775","BLM","UT","Iron","49021","Iron County"
"-113.589188254","38.132794387","345161","354001","W-575235","FED","DOI-WFMI","BLM","USUTCCD","Cedar City Field Office","UTCCD","Cedar City Field Office","","","EBJ2","FOUR MILE","","","","","","2008","2008/07/11 00:00:00+00","193","1622","Natural","Natural","","2008/07/11 00:00:00+00","193","2100","0.3","B","38.1328","-113.5892","BLM","UT","Iron","49021","Iron County"
"-112.616388525","37.381694409","345162","354002","W-575787","FED","DOI-WFMI","BLM","USUTCCD","Cedar City Field Office","UTCCD","Cedar City Field Office","","","EBK8","GRASSY","","","","","","2008","2008/07/11 00:00:00+00","193","2017","Natural","Natural","","2008/07/14 00:00:00+00","196","1719","14.3","C","37.3817","-112.6164","BLM","UT","Kane","49025","Kane County"
"-112.366688586","37.262494407","345163","354003","W-576504","FED","DOI-WFMI","BLM","USUTCCD","Cedar City Field Office","UTCCD","Cedar City Field Office","","","EBQ9","RANCH","","","","","","2008","2008/07/12 00:00:00+00","194","1717","Natural","Natural","","2008/07/12 00:00:00+00","194","2030","0.3","B","37.2625","-112.3667","BLM","UT","Kane","49025","Kane County"
"-113.256088396","37.418094447","345164","354004","W-576447","FED","DOI-WFMI","BLM","USUTCCD","Cedar City Field Office","UTCCD","Cedar City Field Office","","","EBT6","HILLSIDE","","","","","","2008","2008/07/13 00:00:00+00","195","1309","Natural","Natural","","2008/07/14 00:00:00+00","196","0850","0.5","B","37.4181","-113.2561","BLM","UT","Washington","49053","Washington County"
"-112.435588583","37.161894423","345165","354005","W-577622","FED","DOI-WFMI","BLM","USUTCCD","Cedar City Field Office","UTCCD","Cedar City Field Office","","","EB1T","CUTLER","","","","","","2008","2008/07/14 00:00:00+00","196","1646","Natural","Natural","","2008/07/14 00:00:00+00","196","1848","0.1","A","37.1619","-112.4356","BLM","UT","Kane","49025","Kane County"
"-113.636088328","37.375594478","345166","354006","W-575916","FED","DOI-WFMI","BLM","USUTCCD","Cedar City Field Office","UTCCD","Cedar City Field Office","","","EB2R","BAKER DAM","","","","","","2008","2008/07/14 00:00:00+00","196","2006","Human","Recreation and ceremony","","2008/07/14 00:00:00+00","196","2112","0.1","A","37.3756","-113.6361","BLM","UT","Washington","49053","Washington County"
"-112.152788651","37.03859442","345167","354007","W-576507","FED","DOI-WFMI","BLM","USUTCCD","Cedar City Field Office","UTCCD","Cedar City Field Office","","","EB46","ROCKY TOP","","","","","","2008","2008/07/15 00:00:00+00","197","1709","Natural","Natural","","2008/07/15 00:00:00+00","197","2050","0.1","A","37.0386","-112.1528","BLM","UT","Washington","49053","Washington County"
"-112.599688445","38.142194317","345168","354008","W-577555","FED","DOI-WFMI","BLM","USUTCCD","Cedar City Field Office","UTCCD","Cedar City Field Office","","","EB47","LEE SPRING 2","","","","","","2008","2008/07/15 00:00:00+00","197","1917","Natural","Natural","","2008/07/16 00:00:00+00","198","1106","0.3","B","38.1422","-112.5997","BLM","UT","Iron","49021","Iron County"
"-113.279188366","37.66329442","345169","354009","W-575248","FED","DOI-WFMI","BLM","USUTCCD","Cedar City Field Office","UTCCD","Cedar City Field Office","","","EB6K","CASTLE","","","","","","2008","2008/07/16 00:00:00+00","198","1300","Natural","Natural","","2008/07/16 00:00:00+00","198","1600","0.1","A","37.6633","-113.2792","BLM","UT","Iron","49021","Iron County"
"-113.401888281","38.214194364","345170","354010","W-575245","FED","DOI-WFMI","BLM","USUTCCD","Cedar City Field Office","UTCCD","Cedar City Field Office","","","EB6R","CLAY MINE","","","","","","2008","2008/07/16 00:00:00+00","198","1409","Natural","Natural","","2008/07/16 00:00:00+00","198","1630","0.1","A","38.2142","-113.4019","BLM","UT","Iron","49021","Iron County"
"-113.177188402","37.506694431","345171","354011","W-575264","FED","DOI-WFMI","BLM","USUTCCD","Cedar City Field Office","UTCCD","Cedar City Field Office","","","ECA2","NORTH CAMP","","","","","","2008","2008/07/17 00:00:00+00","199","1741","Natural","Natural","","2008/07/18 00:00:00+00","200","1430","0.1","A","37.5067","-113.1772","BLM","UT","Iron","49021","Iron County"
"-113.675788249","38.028094405","345172","354012","W-575256","FED","DOI-WFMI","BLM","USUTCCD","Cedar City Field Office","UTCCD","Cedar City Field Office","","","ECG6","TWO FOOT","","","","","","2008","2008/07/18 00:00:00+00","200","1352","Natural","Natural","","2008/07/18 00:00:00+00","200","1652","0.1","A","38.0281","-113.6758","BLM","UT","Iron","49021","Iron County"
"-113.666388251","38.029694404","345173","354013","W-575798","FED","DOI-WFMI","BLM","USUTCCD","Cedar City Field Office","UTCCD","Cedar City Field Office","","","ECH0","MUSTANG","","","","","","2008","2008/07/18 00:00:00+00","200","1401","Natural","Natural","","2008/07/20 00:00:00+00","202","1600","1.3","B","38.0297","-113.6664","BLM","UT","Iron","49021","Iron County"
"-112.936888396","37.996394357","345174","354014","W-575799","FED","DOI-WFMI","BLM","USUTCCD","Cedar City Field Office","UTCCD","Cedar City Field Office","","","ECP9","LONG LICK","","","","","","2008","2008/07/19 00:00:00+00","201","1543","Natural","Natural","","2008/07/19 00:00:00+00","201","1815","0.1","A","37.9964","-112.9369","BLM","UT","Iron","49021","Iron County"
"-113.649988328","37.348294482","345175","354015","W-575921","FED","DOI-WFMI","BLM","USUTCCD","Cedar City Field Office","UTCCD","Cedar City Field Office","","","EC2W","CLIFF ROSE","","","","","","2008","2008/07/20 00:00:00+00","202","1514","Natural","Natural","","2008/07/20 00:00:00+00","202","1715","0.1","A","37.3483","-113.65","BLM","UT","Washington","49053","Washington County"
"-113.241688369","37.702794413","345176","354016","W-575796","FED","DOI-WFMI","BLM","USUTCCD","Cedar City Field Office","UTCCD","Cedar City Field Office","","","EC0M","FLUSH","","","","","","2008","2008/07/20 00:00:00+00","202","1609","Natural","Natural","","2008/07/20 00:00:00+00","202","1915","0.1","A","37.7028","-113.2417","BLM","UT","Iron","49021","Iron County"
"-112.645288436","38.149194319","345177","354017","W-575918","FED","DOI-WFMI","BLM","USUTCCD","Cedar City Field Office","UTCCD","Cedar City Field Office","","","EDV0","BUFFALO","","","","","","2008","2008/07/25 00:00:00+00","207","1631","Natural","Natural","","2008/07/25 00:00:00+00","207","2030","0.1","A","38.1492","-112.6453","BLM","UT","Iron","49021","Iron County"
"-113.522488243","38.347794357","345178","354018","W-576430","FED","DOI-WFMI","BLM","USUTCCD","Cedar City Field Office","UTCCD","Cedar City Field Office","","","ED09","LUCKY DAWG","","","","","","2008","2008/07/26 00:00:00+00","208","1425","Natural","Natural","","2008/07/26 00:00:00+00","208","1900","0.1","A","38.3478","-113.5225","BLM","UT","Beaver","49001","Beaver County"
"-113.516388242","38.363094355","345179","354019","W-576742","FED","DOI-WFMI","BLM","USUTCCD","Cedar City Field Office","UTCCD","Cedar City Field Office","","","EDZ9","STEWEY","","","","","","2008","2008/07/26 00:00:00+00","208","1448","Natural","Natural","","2008/07/26 00:00:00+00","208","1530","1","B","38.3631","-113.5164","BLM","UT","Beaver","49001","Beaver County"
"-113.529688242","38.339694359","345180","354020","W-576441","FED","DOI-WFMI","BLM","USUTCCD","Cedar City Field Office","UTCCD","Cedar City Field Office","","","ED07","THUNDER","","","","","","2008","2008/07/26 00:00:00+00","208","1519","Natural","Natural","","2008/07/26 00:00:00+00","208","2000","0.3","B","38.3397","-113.5297","BLM","UT","Beaver","49001","Beaver County"
"-113.537788241","38.33389436","345181","354021","W-576432","FED","DOI-WFMI","BLM","USUTCCD","Cedar City Field Office","UTCCD","Cedar City Field Office","","","ED04","NEW MAN","","","","","","2008","2008/07/26 00:00:00+00","208","1519","Natural","Natural","","2008/07/27 00:00:00+00","209","0900","0.3","B","38.3339","-113.5378","BLM","UT","Beaver","49001","Beaver County"
"-113.198885287","38.503497317","345182","354022","W-588143","FED","DOI-WFMI","BLM","USUTCCD","Cedar City Field Office","UTCCD","Cedar City Field Office","","","ED00","FRISCO","","","","","","2008","2008/07/26 00:00:00+00","208","1637","Natural","Natural","","2008/07/26 00:00:00+00","208","1915","0.1","A","38.503503","-113.198897","BLM","UT","Beaver","49001","Beaver County"
"-113.194188372","37.759194403","345183","354023","W-579135","FED","DOI-WFMI","BLM","USUTCCD","Cedar City Field Office","UTCCD","Cedar City Field Office","","","ED1E","EDGE","","","","","","2008","2008/07/26 00:00:00+00","208","1846","Natural","Natural","","2008/07/26 00:00:00+00","208","1920","0.1","A","37.7592","-113.1942","BLM","UT","Iron","49021","Iron County"
"-113.663588249","38.056094401","345184","354024","W-577793","FED","DOI-WFMI","BLM","USUTCCD","Cedar City Field Office","UTCCD","Cedar City Field Office","","","ED2X","SOMEWHERE OUT THERE","","","","","","2008","2008/07/26 00:00:00+00","208","1946","Natural","Natural","","2008/07/27 00:00:00+00","209","1539","0.1","A","38.0561","-113.6636","BLM","UT","Iron","49021","Iron County"
"-113.556388214","38.543294338","345185","354025","W-576651","FED","DOI-WFMI","BLM","USUTCCD","Cedar City Field Office","UTCCD","Cedar City Field Office","","","ED3V","PINYON","","","","","","2008","2008/07/27 00:00:00+00","209","1639","Natural","Natural","","2008/07/27 00:00:00+00","209","2200","0.1","A","38.5433","-113.5564","BLM","UT","Beaver","49001","Beaver County"
"-113.623588232","38.274694373","345186","354026","W-577986","FED","DOI-WFMI","BLM","USUTCCD","Cedar City Field Office","UTCCD","Cedar City Field Office","","","ED3L","ROSE","","","","","","2008","2008/07/27 00:00:00+00","209","1652","Natural","Natural","","2008/07/28 00:00:00+00","210","1800","0.3","B","38.2747","-113.6236","BLM","UT","Beaver","49001","Beaver County"
"-113.599198222","38.402904357","345187","354027","W-576309","FED","DOI-WFMI","BLM","USUTCCD","Cedar City Field Office","UTCCD","Cedar City Field Office","","","ED3M","BULLDOG","","","","","","2008","2008/07/27 00:00:00+00","209","1700","Natural","Natural","","2008/07/27 00:00:00+00","209","2015","0.1","A","38.40291","-113.59921","BLM","UT","Beaver","49001","Beaver County"
"-112.40028857","37.350794398","345188","354028","W-577556","FED","DOI-WFMI","BLM","USUTCCD","Cedar City Field Office","UTCCD","Cedar City Field Office","","","ED5F","FISHER","","","","","","2008","2008/07/28 00:00:00+00","210","1059","Natural","Natural","","2008/07/29 00:00:00+00","211","1630","0.3","B","37.3508","-112.4003","BLM","UT","Kane","49025","Kane County"
"-112.389188575","37.3266944","345189","354029","W-577624","FED","DOI-WFMI","BLM","USUTCCD","Cedar City Field Office","UTCCD","Cedar City Field Office","","","ED5J","REESE","","","","","","2008","2008/07/28 00:00:00+00","210","1307","Natural","Natural","","2008/07/28 00:00:00+00","210","1800","0.1","A","37.3267","-112.3892","BLM","UT","Kane","49025","Kane County"
"-113.633618243","38.154964387","345190","354030","W-576310","FED","DOI-WFMI","BLM","USUTCCD","Cedar City Field Office","UTCCD","Cedar City Field Office","","","ED8W","MACKLEPRANG","","","","","","2008","2008/07/30 00:00:00+00","212","1000","Natural","Natural","","2008/07/30 00:00:00+00","212","1530","0.1","A","38.15497","-113.63363","BLM","UT","Beaver","49001","Beaver County"
"-113.856688172","38.407194374","345191","354031","W-577581","FED","DOI-WFMI","BLM","USUTCCD","Cedar City Field Office","UTCCD","Cedar City Field Office","","","EEH5","SAWTOOTH","","","","","","2008","2008/07/31 00:00:00+00","213","1456","Natural","Natural","","2008/08/09 00:00:00+00","222","1511","1.6","B","38.4072","-113.8567","BLM","UT","Iron","49021","Iron County"
"-112.511088576","37.087194438","345192","354032","W-577617","FED","DOI-WFMI","BLM","USUTCCD","Cedar City Field Office","UTCCD","Cedar City Field Office","","","EEK9","HOG","","","","","","2008","2008/08/01 00:00:00+00","214","0819","Human","Missing data/not specified/undetermined","","2008/08/01 00:00:00+00","214","1045","0.1","A","37.0872","-112.5111","BLM","UT","Kane","49025","Kane County"
"-112.649688553","37.046894452","345193","354033","W-577613","FED","DOI-WFMI","BLM","USUTCCD","Cedar City Field Office","UTCCD","Cedar City Field Office","","","EE1B","INDIAN CANYON","","","","","","2008","2008/08/03 00:00:00+00","216","1420","Natural","Natural","","2008/08/03 00:00:00+00","216","1730","0.1","A","37.0469","-112.6497","BLM","UT","Kane","49025","Kane County"
"-113.972788214","37.838294447","345194","354034","W-578011","FED","DOI-WFMI","BLM","USUTCCD","Cedar City Field Office","UTCCD","Cedar City Field Office","","","EE3M","CLUMPAGE","","","","","","2008","2008/08/04 00:00:00+00","217","1410","Natural","Natural","","2008/08/04 00:00:00+00","217","1800","0.3","B","37.8383","-113.9728","BLM","UT","Iron","49021","Iron County"
"-113.663088333","37.275594491","345195","354035","W-579350","FED","DOI-WFMI","BLM","USUTCCD","Cedar City Field Office","UTCCD","Cedar City Field Office","","","EE4D","TRAIL","","","","","","2008","2008/08/04 00:00:00+00","217","1652","Natural","Natural","","2008/08/05 00:00:00+00","218","1630","0.3","B","37.2756","-113.6631","BLM","UT","Washington","49053","Washington County"
"-112.363588602","37.113894425","345196","354036","W-577615","FED","DOI-WFMI","BLM","USUTCCD","Cedar City Field Office","UTCCD","Cedar City Field Office","","","EE4E","RED","","","","","","2008","2008/08/04 00:00:00+00","217","1846","Natural","Natural","","2008/08/04 00:00:00+00","217","2025","0.1","A","37.1139","-112.3636","BLM","UT","Kane","49025","Kane County"
"-113.233088394","37.482494438","345197","354037","W-577957","FED","DOI-WFMI","BLM","USUTCCD","Cedar City Field Office","UTCCD","Cedar City Field Office","","","EE4M","LONE TREE","","","","","","2008","2008/08/04 00:00:00+00","217","1951","Natural","Natural","","2008/08/04 00:00:00+00","217","2230","0.1","A","37.4825","-113.2331","BLM","UT","Beaver","49001","Beaver County"
"-113.583888268","38.019694399","345198","354038","W-577603","FED","DOI-WFMI","BLM","USUTCCD","Cedar City Field Office","UTCCD","Cedar City Field Office","","","EE6S","KNUCKLE","","","","","","2008","2008/08/05 00:00:00+00","218","1636","Natural","Natural","","2008/08/05 00:00:00+00","218","1800","0.1","A","38.0197","-113.5839","BLM","UT","Iron","49021","Iron County"
"-113.486088391","37.049194506","345199","354039","W-577625","FED","DOI-WFMI","BLM","USUTCCD","Cedar City Field Office","UTCCD","Cedar City Field Office","","","EE6U","PARROT","","","","","","2008","2008/08/05 00:00:00+00","218","1655","Natural","Natural","","2008/08/05 00:00:00+00","218","1900","0.1","A","37.0492","-113.4861","BLM","UT","Iron","49021","Iron County"
"-112.676888543","37.093294448","345200","354040","W-577612","FED","DOI-WFMI","BLM","USUTCCD","Cedar City Field Office","UTCCD","Cedar City Field Office","","","EE6X","YELLOW JACKET","","","","","","2008","2008/08/05 00:00:00+00","218","1713","Natural","Natural","","2008/08/06 00:00:00+00","219","1230","0.3","B","37.0933","-112.6769","BLM","UT","Kane","49025","Kane County"
"-112.852788503","37.147794453","345201","354041","W-577614","FED","DOI-WFMI","BLM","USUTCCD","Cedar City Field Office","UTCCD","Cedar City Field Office","","","EE88","ROCK CANYON","","","","","","2008","2008/08/05 00:00:00+00","218","2155","Natural","Natural","","2008/08/06 00:00:00+00","219","1400","0.1","A","37.1478","-112.8528","BLM","UT","Kane","49025","Kane County"
"-112.054988662","37.123894403","345202","354042","W-577605","FED","DOI-WFMI","BLM","USUTCCD","Cedar City Field Office","UTCCD","Cedar City Field Office","","","EE8M","SUBSTATION","","","","","","2008","2008/08/06 00:00:00+00","219","1038","Natural","Natural","","2008/08/06 00:00:00+00","219","1500","0.1","A","37.1239","-112.055","BLM","UT","Kane","49025","Kane County"
"-113.655788241","38.135294391","345203","354043","W-577621","FED","DOI-WFMI","BLM","USUTCCD","Cedar City Field Office","UTCCD","Cedar City Field Office","","","EE8S","EAGLE","","","","","","2008","2008/08/06 00:00:00+00","219","1325","Natural","Natural","","2008/08/06 00:00:00+00","219","1400","0.1","A","38.1353","-113.6558","BLM","UT","Iron","49021","Iron County"
"-111.753588659","37.723094309","345204","354044","W-580276","FED","DOI-WFMI","BLM","USUTCCD","Cedar City Field Office","UTCCD","Cedar City Field Office","","","EE9F","SPENCER RANCH","","","","","","2008","2008/08/06 00:00:00+00","219","1423","Natural","Natural","","2008/08/07 00:00:00+00","220","1435","0.1","A","37.7231","-111.7536","BLM","UT","Garfield","49017","Garfield County"
"-113.257488368","37.683594416","345205","354045","W-577627","FED","DOI-WFMI","BLM","USUTCCD","Cedar City Field Office","UTCCD","Cedar City Field Office","","","EE9K","MOOSE","","","","","","2008","2008/08/06 00:00:00+00","219","1556","Natural","Natural","","2008/08/06 00:00:00+00","219","1800","0.1","A","37.6836","-113.2575","BLM","UT","Iron","49021","Iron County"
"-113.256688398","37.406094449","345206","354046","W-578020","FED","DOI-WFMI","BLM","USUTCCD","Cedar City Field Office","UTCCD","Cedar City Field Office","","","EE9Q","ASH CREEK","","","","","","2008","2008/08/06 00:00:00+00","219","1619","Natural","Natural","","2008/08/07 00:00:00+00","220","1100","1","B","37.4061","-113.2567","BLM","UT","Washington","49053","Washington County"
"-114.046688214","37.705794468","345207","354047","W-577597","FED","DOI-WFMI","BLM","USUTCCD","Cedar City Field Office","UTCCD","Cedar City Field Office","","","EF33","UVADA","","","","","","2008","2008/08/08 00:00:00+00","221","2036","Natural","Natural","","2008/08/09 00:00:00+00","222","1642","0.3","B","37.7058","-114.0467","BLM","UT","Iron","49021","Iron County"
"-112.303588592","37.325794395","345208","354048","W-577610","FED","DOI-WFMI","BLM","USUTCCD","Cedar City Field Office","UTCCD","Cedar City Field Office","","","EF4N","TABLE","","","","","","2008","2008/08/09 00:00:00+00","222","1513","Natural","Natural","","2008/08/10 00:00:00+00","223","1400","0.3","B","37.3258","-112.3036","BLM","UT","Kane","49025","Kane County"
"-113.218288406","37.400594447","345209","354049","W-579368","FED","DOI-WFMI","BLM","USUTCCD","Cedar City Field Office","UTCCD","Cedar City Field Office","","","EF9T","BLACK RIDGE","","","","","","2008","2008/08/11 00:00:00+00","224","1016","Natural","Natural","","2008/08/11 00:00:00+00","224","1748","0.1","A","37.4006","-113.2183","BLM","UT","Washington","49053","Washington County"
"-113.902188196","38.11829441","345210","354050","W-578027","FED","DOI-WFMI","BLM","USUTCCD","Cedar City Field Office","UTCCD","Cedar City Field Office","","","EGA6","BACKTRACK","","","","","","2008","2008/08/11 00:00:00+00","224","1715","Natural","Natural","","2008/08/12 00:00:00+00","225","1000","0.3","B","38.1183","-113.9022","BLM","UT","Iron","49021","Iron County"
"-113.30578837","37.571694433","345211","354051","W-577611","FED","DOI-WFMI","BLM","USUTCCD","Cedar City Field Office","UTCCD","Cedar City Field Office","","","EGA2","SMOKING LOG","","","","","","2008","2008/08/11 00:00:00+00","224","1724","Human","Missing data/not specified/undetermined","","2008/08/11 00:00:00+00","224","1900","0.1","A","37.5717","-113.3058","BLM","UT","Utah","49049","Utah County"
"-113.241688402","37.392794449","345212","354052","W-578029","FED","DOI-WFMI","BLM","USUTCCD","Cedar City Field Office","UTCCD","Cedar City Field Office","","","EG02","MM 36  I15","","","","","","2008","2008/08/15 00:00:00+00","228","1323","Human","Missing data/not specified/undetermined","","2008/08/15 00:00:00+00","228","1440","0.3","B","37.3928","-113.2417","BLM","UT","Washington","49053","Washington County"
"-113.661688332","37.29169449","345213","354053","W-578576","FED","DOI-WFMI","BLM","USUTCCD","Cedar City Field Office","UTCCD","Cedar City Field Office","","","EG15","SITLA","","","","","","2008","2008/08/15 00:00:00+00","228","2219","Natural","Natural","","2008/08/16 00:00:00+00","229","1225","0.1","A","37.2917","-113.6617","BLM","UT","Washington","49053","Washington County"
"-113.633088339","37.279394489","345214","354054","W-578575","FED","DOI-WFMI","BLM","USUTCCD","Cedar City Field Office","UTCCD","Cedar City Field Office","","","EG4W","WIDE","","","","","","2008","2008/08/16 00:00:00+00","229","0002","Natural","Natural","","2008/08/16 00:00:00+00","229","1700","0.1","A","37.2794","-113.6331","BLM","UT","Washington","49053","Washington County"
"-112.688088436","38.070794331","345215","354055","W-577988","FED","DOI-WFMI","BLM","USUTCCD","Cedar City Field Office","UTCCD","Cedar City Field Office","","","EG2Y","HWY 20  I15","","","","","","2008","2008/08/16 00:00:00+00","229","1610","Human","Missing data/not specified/undetermined","","2008/08/16 00:00:00+00","229","1615","0.3","B","38.0708","-112.6881","BLM","UT","Iron","49021","Iron County"
"-111.990588669","37.179194392","345216","354056","W-577985","FED","DOI-WFMI","BLM","USUTCCD","Cedar City Field Office","UTCCD","Cedar City Field Office","","","EG25","LOCK","","","","","","2008","2008/08/16 00:00:00+00","229","1635","Natural","Natural","","2008/08/16 00:00:00+00","229","1840","0.1","A","37.1792","-111.9906","BLM","UT","Kane","49025","Kane County"
"-112.870588413","37.952494358","345217","354057","W-578037","FED","DOI-WFMI","BLM","USUTCCD","Cedar City Field Office","UTCCD","Cedar City Field Office","","","EG9K","BRYAN","","","","","","2008","2008/08/18 00:00:00+00","231","1806","Natural","Natural","","2008/08/19 00:00:00+00","232","1600","0.1","A","37.9525","-112.8706","BLM","UT","Iron","49021","Iron County"
"-113.211688411","37.360294451","345218","354058","W-578041","FED","DOI-WFMI","BLM","USUTCCD","Cedar City Field Office","UTCCD","Cedar City Field Office","","","EHE6","RAEF","","","","","","2008","2008/08/19 00:00:00+00","232","1401","Natural","Natural","","2008/08/20 00:00:00+00","233","1500","1","B","37.3603","-113.2117","BLM","UT","Beaver","49001","Beaver County"
"-112.033088665","37.132494401","345219","354059","W-578042","FED","DOI-WFMI","BLM","USUTCCD","Cedar City Field Office","UTCCD","Cedar City Field Office","","","EHF3","BULL","","","","","","2008","2008/08/19 00:00:00+00","232","1533","Natural","Natural","","2008/08/20 00:00:00+00","233","1300","0.5","B","37.1325","-112.0331","BLM","UT","Kane","49025","Kane County"
"-112.072488655","37.1610944","345220","354060","W-578559","FED","DOI-WFMI","BLM","USUTCCD","Cedar City Field Office","UTCCD","Cedar City Field Office","","","EHF5","KITCHEN","","","","","","2008","2008/08/19 00:00:00+00","232","1648","Natural","Natural","","2008/08/19 00:00:00+00","232","2030","0.1","A","37.1611","-112.0725","BLM","UT","Kane","49025","Kane County"
"-113.604688344","37.282194487","345221","354061","W-578574","FED","DOI-WFMI","BLM","USUTCCD","Cedar City Field Office","UTCCD","Cedar City Field Office","","","EHF0","ROCK HOLLOW","","","","","","2008","2008/08/19 00:00:00+00","232","1702","Natural","Natural","","2008/08/19 00:00:00+00","232","1745","0.1","A","37.2822","-113.6047","BLM","UT","Washington","49053","Washington County"
"-114.037788236","37.516694489","345222","354062","W-578044","FED","DOI-WFMI","BLM","USUTCCD","Cedar City Field Office","UTCCD","Cedar City Field Office","","","EHH8","PINE","","","","","","2008","2008/08/19 00:00:00+00","232","1845","Natural","Natural","","2008/08/21 00:00:00+00","234","1527","1","B","37.5167","-114.0378","BLM","UT","Washington","49053","Washington County"
"-113.255788401","37.370294453","345223","354063","W-577987","FED","DOI-WFMI","BLM","USUTCCD","Cedar City Field Office","UTCCD","Cedar City Field Office","","","EHV8","RANCH 2","","","","","","2008","2008/08/21 00:00:00+00","234","1340","Human","Missing data/not specified/undetermined","","2008/08/21 00:00:00+00","234","1500","0.2","A","37.3703","-113.2558","BLM","UT","Washington","49053","Washington County"
"-112.827788435","37.831694369","345224","354064","W-578573","FED","DOI-WFMI","BLM","USUTCCD","Cedar City Field Office","UTCCD","Cedar City Field Office","","","EJG6","PAROWAN","","","","","","2008","2008/08/24 00:00:00+00","237","1857","Natural","Natural","","2008/08/24 00:00:00+00","237","1907","0.1","A","37.8317","-112.8278","BLM","UT","Iron","49021","Iron County"
"-113.183088337","38.094994363","345225","354065","W-578571","FED","DOI-WFMI","BLM","USUTCCD","Cedar City Field Office","UTCCD","Cedar City Field Office","","","EH5R","TWIN PEAKS","","","","","","2008","2008/08/25 00:00:00+00","238","1727","Natural","Natural","","2008/08/27 00:00:00+00","240","1730","8","B","38.095","-113.1831","BLM","UT","Iron","49021","Iron County"
"-113.59358823","38.340594363","345226","354066","W-578570","FED","DOI-WFMI","BLM","USUTCCD","Cedar City Field Office","UTCCD","Cedar City Field Office","","","EH5M","NORTH CREEK 2","","","","","","2008","2008/08/25 00:00:00+00","238","1834","Natural","Natural","","2008/08/26 00:00:00+00","239","0922","0.1","A","38.3406","-113.5936","BLM","UT","Beaver","49001","Beaver County"
"-114.050788235","37.51109449","345227","354067","W-579348","FED","DOI-WFMI","BLM","USUTCCD","Cedar City Field Office","UTCCD","Cedar City Field Office","","","EH6U","SHEEP CREEK","","","","","","2008","2008/08/25 00:00:00+00","238","1950","Natural","Natural","","2008/08/26 00:00:00+00","239","1750","3","B","37.5111","-114.0508","BLM","UT","Washington","49053","Washington County"
"-114.030288205","37.821394453","345228","354068","W-578568","FED","DOI-WFMI","BLM","USUTCCD","Cedar City Field Office","UTCCD","Cedar City Field Office","","","EH6Q","RICE","","","","","","2008","2008/08/25 00:00:00+00","238","2006","Natural","Natural","","2008/08/26 00:00:00+00","239","1133","0.1","A","37.8214","-114.0303","BLM","UT","Iron","49021","Iron County"
"-114.044388208","37.76829446","345229","354069","W-578567","FED","DOI-WFMI","BLM","USUTCCD","Cedar City Field Office","UTCCD","Cedar City Field Office","","","EH74","JEEP TRAIL","","","","","","2008","2008/08/26 00:00:00+00","239","1043","Natural","Natural","","2008/08/26 00:00:00+00","239","1500","0.1","A","37.7683","-114.0444","BLM","UT","Iron","49021","Iron County"
"-113.279688407","37.273294466","345230","354070","W-578566","FED","DOI-WFMI","BLM","USUTCCD","Cedar City Field Office","UTCCD","Cedar City Field Office","","","EJP8","TOQUERVILLE FALLS","","","","","","2008","2008/08/30 00:00:00+00","243","1011","Human","Missing data/not specified/undetermined","","2008/09/05 00:00:00+00","249","1800","158","D","37.2733","-113.2797","BLM","UT","Washington","49053","Washington County"
"-113.724988312","37.368094485","345231","354071","W-578565","FED","DOI-WFMI","BLM","USUTCCD","Cedar City Field Office","UTCCD","Cedar City Field Office","","","EJT5","MOODY WASH","","","","","","2008","2008/08/30 00:00:00+00","243","1824","Natural","Natural","","2008/08/30 00:00:00+00","243","2030","0.1","A","37.3681","-113.725","BLM","UT","Washington","49053","Washington County"
"-111.499688706","37.760294287","345232","354072","W-579523","FED","DOI-WFMI","BLM","USUTCCD","Cedar City Field Office","UTCCD","Cedar City Field Office","","","EKF5","BIG FLAT","","","","","","2008","2008/09/09 00:00:00+00","253","1512","Natural","Natural","","2008/09/09 00:00:00+00","253","1710","0.1","A","37.7603","-111.4997","BLM","UT","Garfield","49017","Garfield County"
"-112.50998857","37.14829443","345233","354073","W-579524","FED","DOI-WFMI","BLM","USUTCCD","Cedar City Field Office","UTCCD","Cedar City Field Office","","","EKF6","BROWN","","","","","","2008","2008/09/09 00:00:00+00","253","1514","Natural","Natural","","2008/09/09 00:00:00+00","253","1830","0.1","A","37.1483","-112.51","BLM","UT","Kane","49025","Kane County"
"-113.249688279","38.494994321","345234","354074","W-579515","FED","DOI-WFMI","BLM","USUTCCD","Cedar City Field Office","UTCCD","Cedar City Field Office","","","EKG0","TILA","","","","","","2008","2008/09/09 00:00:00+00","253","1559","Natural","Natural","","2008/09/10 00:00:00+00","254","1445","0.1","A","38.495","-113.2497","BLM","UT","Beaver","49001","Beaver County"
"-113.757488229","38.069194406","345235","354076","W-579526","FED","DOI-WFMI","BLM","USUTCCD","Cedar City Field Office","UTCCD","Cedar City Field Office","","","EKJ7","SAWMILL CANYON","","","","","","2008","2008/09/10 00:00:00+00","254","1550","Natural","Natural","","2008/09/12 00:00:00+00","256","1630","0.5","B","38.0692","-113.7575","BLM","UT","Iron","49021","Iron County"
"-113.174188375","37.763294401","345236","354077","W-579539","FED","DOI-WFMI","BLM","USUTCCD","Cedar City Field Office","UTCCD","Cedar City Field Office","","","EK82","BKS","","","","","","2008","2008/09/15 00:00:00+00","259","2200","Human","Recreation and ceremony","","2008/09/15 00:00:00+00","259","2300","0.1","A","37.7633","-113.1742","BLM","UT","Iron","49021","Iron County"
"-112.766388424","38.04219434","345237","354078","W-579734","FED","DOI-WFMI","BLM","USUTCCD","Cedar City Field Office","UTCCD","Cedar City Field Office","","","EK9K","MONO","","","","","","2008","2008/09/16 00:00:00+00","260","1652","Natural","Natural","","2008/09/16 00:00:00+00","260","1900","0.3","B","38.0422","-112.7664","BLM","UT","Iron","49021","Iron County"
"-112.792788419","38.040594342","345238","354079","W-579739","FED","DOI-WFMI","BLM","USUTCCD","Cedar City Field Office","UTCCD","Cedar City Field Office","","","EK9R","HILLS BEACH","","","","","","2008","2008/09/16 00:00:00+00","260","1653","Natural","Natural","","2008/09/17 00:00:00+00","261","1400","0.1","A","38.0406","-112.7928","BLM","UT","Iron","49021","Iron County"
"-113.644188329","37.350794481","345239","354080","W-579741","FED","DOI-WFMI","BLM","USUTCCD","Cedar City Field Office","UTCCD","Cedar City Field Office","","","EK9N","TURKEY","","","","","","2008","2008/09/16 00:00:00+00","260","1747","Natural","Natural","","2008/09/16 00:00:00+00","260","1830","0.1","A","37.3508","-113.6442","BLM","UT","Washington","49053","Washington County"
"-113.996088212","37.818594451","345240","354081","W-580504","FED","DOI-WFMI","BLM","USUTCCD","Cedar City Field Office","UTCCD","Cedar City Field Office","","","EL1C","LOST MODENA","","","","","","2008","2008/09/18 00:00:00+00","262","1406","Natural","Natural","","2008/09/19 00:00:00+00","263","2330","0.1","A","37.8186","-113.9961","BLM","UT","Iron","49021","Iron County"
"-113.460288331","37.663894432","345241","354082","W-580853","FED","DOI-WFMI","BLM","USUTCCD","Cedar City Field Office","UTCCD","Cedar City Field Office","","","EL3P","DESERT MOUND","","","","","","2008","2008/09/26 00:00:00+00","270","1758","Natural","Natural","","2008/09/26 00:00:00+00","270","2000","0.1","A","37.6639","-113.4603","BLM","UT","Iron","49021","Iron County"
"-112.935788383","38.112194343","345242","354083","W-580741","FED","DOI-WFMI","BLM","USUTCCD","Cedar City Field Office","UTCCD","Cedar City Field Office","","","EL32","DRY WILLOW","","","","","","2008","2008/09/26 00:00:00+00","270","1854","Natural","Natural","","2008/09/27 00:00:00+00","271","1400","0.1","A","38.1122","-112.9358","BLM","UT","Iron","49021","Iron County"
"-113.639688227","38.286394373","345243","354084","W-580743","FED","DOI-WFMI","BLM","USUTCCD","Cedar City Field Office","UTCCD","Cedar City Field Office","","","EL42","WAH WAH RIDGE","","","","","","2008","2008/09/27 00:00:00+00","271","1358","Natural","Natural","","2008/09/28 00:00:00+00","272","1350","0.1","A","38.2864","-113.6397","BLM","UT","Beaver","49001","Beaver County"
"-112.835288392","38.207794325","345244","354085","W-580744","FED","DOI-WFMI","BLM","USUTCCD","Cedar City Field Office","UTCCD","Cedar City Field Office","","","EL4U","MINERSVILLE DAM","","","","","","2008","2008/09/27 00:00:00+00","271","1505","Natural","Natural","","2008/09/28 00:00:00+00","272","1100","0.1","A","38.2078","-112.8353","BLM","UT","Beaver","49001","Beaver County"
"-113.645588228","38.271694375","345245","354086","W-580745","FED","DOI-WFMI","BLM","USUTCCD","Cedar City Field Office","UTCCD","Cedar City Field Office","","","EL41","SPRING","","","","","","2008","2008/09/27 00:00:00+00","271","1528","Natural","Natural","","2008/09/28 00:00:00+00","272","1030","0.1","A","38.2717","-113.6456","BLM","UT","Iron","49021","Iron County"
"-113.661388335","37.260594493","345246","354087","W-580746","FED","DOI-WFMI","BLM","USUTCCD","Cedar City Field Office","UTCCD","Cedar City Field Office","","","EL5E","PEPPER","","","","","","2008","2008/09/27 00:00:00+00","271","1528","Natural","Natural","","2008/09/27 00:00:00+00","271","1947","0.1","A","37.2606","-113.6614","BLM","UT","Beaver","49001","Beaver County"
"-111.98858864","37.463594357","345247","354088","W-580747","FED","DOI-WFMI","BLM","USUTCCD","Cedar City Field Office","UTCCD","Cedar City Field Office","","","EL46","KODACHROME 1","","","","","","2008","2008/09/27 00:00:00+00","271","1625","Natural","Natural","","2008/09/27 00:00:00+00","271","2300","0.1","A","37.4636","-111.9886","BLM","UT","Kane","49025","Kane County"
"-111.975788642","37.467494355","345248","354089","W-580749","FED","DOI-WFMI","BLM","USUTCCD","Cedar City Field Office","UTCCD","Cedar City Field Office","","","EL5B","KODACHROME 2","","","","","","2008","2008/09/27 00:00:00+00","271","1635","Natural","Natural","","2008/09/27 00:00:00+00","271","2300","0.1","A","37.4675","-111.9758","BLM","UT","Kane","49025","Kane County"
"-113.7963882","38.265294386","345249","354090","W-580750","FED","DOI-WFMI","BLM","USUTCCD","Cedar City Field Office","UTCCD","Cedar City Field Office","","","EL6Q","RANGER","","","","","","2008","2008/09/27 00:00:00+00","271","1732","Natural","Natural","","2008/09/28 00:00:00+00","272","1830","0.1","A","38.2653","-113.7964","BLM","UT","Beaver","49001","Beaver County"
"-113.400288392","37.198094483","345250","354091","W-580758","FED","DOI-WFMI","BLM","USUTCCD","Cedar City Field Office","UTCCD","Cedar City Field Office","","","EL5T","HARRISBURG","","","","","","2008","2008/09/28 00:00:00+00","272","1031","Human","Missing data/not specified/undetermined","","2008/09/28 00:00:00+00","272","1330","0.4","B","37.1981","-113.4003","BLM","UT","Washington","49053","Washington County"
"-113.399688392","37.198894483","345251","354092","W-582091","FED","DOI-WFMI","BLM","USUTCCD","Cedar City Field Office","UTCCD","Cedar City Field Office","","","EL5V","HARRISBURG NORTH","","","","","","2008","2008/09/28 00:00:00+00","272","1209","Human","Missing data/not specified/undetermined","","2008/09/28 00:00:00+00","272","1330","0.3","B","37.1989","-113.3997","BLM","UT","Washington","49053","Washington County"
"-113.608288252","38.11689439","345252","354093","W-580507","FED","DOI-WFMI","BLM","USUTCCD","Cedar City Field Office","UTCCD","Cedar City Field Office","","","EL55","KEEL","","","","","","2008","2008/09/28 00:00:00+00","272","1324","Natural","Natural","","2008/09/29 00:00:00+00","273","1430","0.1","A","38.1169","-113.6083","BLM","UT","Beaver","49001","Beaver County"
"-112.653888447","38.033894333","345253","354094","W-580760","FED","DOI-WFMI","BLM","USUTCCD","Cedar City Field Office","UTCCD","Cedar City Field Office","","","EL6F","SR 20","","","","","","2008","2008/09/28 00:00:00+00","272","1347","Natural","Natural","","2008/09/28 00:00:00+00","272","1900","0.1","A","38.0339","-112.6539","BLM","UT","Iron","49021","Iron County"
"-112.421088519","37.789994346","345254","354095","W-581899","FED","DOI-WFMI","BLM","USUTCCD","Cedar City Field Office","UTCCD","Cedar City Field Office","","","EM1L","SLAYER","","","","","","2008","2008/10/08 00:00:00+00","282","1505","Human","Missing data/not specified/undetermined","","2008/10/08 00:00:00+00","282","1730","0.3","B","37.79","-112.4211","BLM","UT","Garfield","49017","Garfield County"
"-113.007188479","37.08919447","345255","354097","W-585923","FED","DOI-WFMI","BLM","USUTCCD","Cedar City Field Office","UTCCD","Cedar City Field Office","","","EU37","SAWMILL","","","","","","2009","2009/04/21 00:00:00+00","111","1504","Human","Missing data/not specified/undetermined","","2009/04/27 00:00:00+00","117","1200","31","C","37.0892","-113.0072","BLM","UT","Washington","49053","Washington County"
"-112.61638844","38.160594315","345256","354098","W-587218","FED","DOI-WFMI","BLM","USUTCCD","Cedar City Field Office","UTCCD","Cedar City Field Office","","","EWN6","I15 MM102","","","","","","2009","2009/05/01 00:00:00+00","121","0230","Human","Missing data/not specified/undetermined","","2009/05/01 00:00:00+00","121","0330","0.1","A","38.1606","-112.6164","BLM","UT","Beaver","49001","Beaver County"
"-112.959388376","38.129394343","345257","354099","W-587225","FED","DOI-WFMI","BLM","USUTCCD","Cedar City Field Office","UTCCD","Cedar City Field Office","","","EWN7","STUBBY","","","","","","2009","2009/05/02 00:00:00+00","122","1145","Natural","Natural","","2009/05/02 00:00:00+00","122","1220","0.1","A","38.1294","-112.9594","BLM","UT","Beaver","49001","Beaver County"
"-113.236388402","37.403094448","345258","354100","W-587235","FED","DOI-WFMI","BLM","USUTCCD","Cedar City Field Office","UTCCD","Cedar City Field Office","","","EWS5","BLACK RIDGE","","","","","","2009","2009/05/15 00:00:00+00","135","1654","Human","Equipment and vehicle use","","2009/05/15 00:00:00+00","135","1833","0.5","B","37.4031","-113.2364","BLM","UT","Washington","49053","Washington County"
"-111.479688711","37.751894287","345259","354101","W-587239","FED","DOI-WFMI","BLM","USUTCCD","Cedar City Field Office","UTCCD","Cedar City Field Office","","","EW4J","MOLLY","","","","","","2009","2009/05/20 00:00:00+00","140","1503","Natural","Natural","","2009/05/20 00:00:00+00","140","1850","0.3","B","37.7519","-111.4797","BLM","UT","Garfield","49017","Garfield County"
"-112.186088606","37.415794376","345260","354102","W-587241","FED","DOI-WFMI","BLM","USUTCCD","Cedar City Field Office","UTCCD","Cedar City Field Office","","","EXX4","BOONDOCK","","","","","","2009","2009/05/29 00:00:00+00","149","0713","Natural","Natural","","2009/05/29 00:00:00+00","149","1601","0.1","A","37.4158","-112.1861","BLM","UT","Kane","49025","Kane County"
"-112.926688347","38.443594304","345261","354104","W-587243","FED","DOI-WFMI","BLM","USUTCCD","Cedar City Field Office","UTCCD","Cedar City Field Office","","","EXY8","LOWER HONEY BOY","","","","","","2009","2009/05/29 00:00:00+00","149","1358","Natural","Natural","","2009/05/29 00:00:00+00","149","1700","0.1","A","38.4436","-112.9267","BLM","UT","Beaver","49001","Beaver County"
"-112.071388658","37.130794403","345262","354105","W-587247","FED","DOI-WFMI","BLM","USUTCCD","Cedar City Field Office","UTCCD","Cedar City Field Office","","","EX16","ROCK FACE","","","","","","2009","2009/05/30 00:00:00+00","150","1536","Natural","Natural","","2009/05/30 00:00:00+00","150","1805","0.1","A","37.1308","-112.0714","BLM","UT","Kane","49025","Kane County"
"-112.066388658","37.143594401","345263","354106","W-587245","FED","DOI-WFMI","BLM","USUTCCD","Cedar City Field Office","UTCCD","Cedar City Field Office","","","EX12","SUGAR","","","","","","2009","2009/05/30 00:00:00+00","150","1536","Natural","Natural","","2009/05/30 00:00:00+00","150","1606","0.1","A","37.1436","-112.0664","BLM","UT","Kane","49025","Kane County"
