"ï»¿X","Y","OBJECTID","FOD_ID","FPA_ID","SOURCE_SYSTEM_TYPE","SOURCE_SYSTEM","NWCG_REPORTING_AGENCY","NWCG_REPORTING_UNIT_ID","NWCG_REPORTING_UNIT_NAME","SOURCE_REPORTING_UNIT","SOURCE_REPORTING_UNIT_NAME","LOCAL_FIRE_REPORT_ID","LOCAL_INCIDENT_ID","FIRE_CODE","FIRE_NAME","ICS_209_PLUS_INCIDENT_JOIN_ID","ICS_209_PLUS_COMPLEX_JOIN_ID","MTBS_ID","MTBS_FIRE_NAME","COMPLEX_NAME","FIRE_YEAR","DISCOVERY_DATE","DISCOVERY_DOY","DISCOVERY_TIME","NWCG_CAUSE_CLASSIFICATION","NWCG_GENERAL_CAUSE","NWCG_CAUSE_AGE_CATEGORY","CONT_DATE","CONT_DOY","CONT_TIME","FIRE_SIZE","FIRE_SIZE_CLASS","LATITUDE","LONGITUDE","OWNER_DESCR","STATE","COUNTY","FIPS_CODE","FIPS_NAME"
"-106.390288749","45.387492988","1900001","400021478","W-694800","FED","DOI-WFMI","BLM","USMTMCD","Miles City Field Office","MTMCD","Miles City Field Office","254","","KJJ0","TEECHEE CREEK","","","","","","2016","2016/07/28 00:00:00+00","210","1715","Natural","Natural","","2016/07/29 00:00:00+00","211","1637","0.1","A","45.3875","-106.3903","USFS","MT","Rosebud","30087","Rosebud County"
"-104.6885891","45.712492804","1900002","400021479","W-694687","FED","DOI-WFMI","BLM","USMTMCD","Miles City Field Office","MTMCD","Miles City Field Office","257","","KJJ7","CUP","","","","","","2016","2016/07/28 00:00:00+00","210","2000","Natural","Natural","","2016/07/28 00:00:00+00","210","2117","0.1","A","45.7125","-104.6886","PRIVATE","MT","Carter","30011","Carter County"
"-106.373588752","45.393092986","1900003","400021480","W-694816","FED","DOI-WFMI","BLM","USMTMCD","Miles City Field Office","MTMCD","Miles City Field Office","258","","KJK7","GATE","","","","","","2016","2016/07/28 00:00:00+00","210","2130","Natural","Natural","","2016/07/29 00:00:00+00","211","1620","0.1","A","45.3931","-106.3736","USFS","MT","Rosebud","30087","Rosebud County"
"-106.07748886","45.173892985","1900004","400021481","W-694806","FED","DOI-WFMI","BLM","USMTMCD","Miles City Field Office","MTMCD","Miles City Field Office","262","","KJN8","REANUS","","","","","","2016","2016/07/29 00:00:00+00","211","1230","Natural","Natural","","2016/07/29 00:00:00+00","211","2015","14.9","C","45.1739","-106.0775","PRIVATE","MT","Powder River","30075","Powder River County"
"-106.316388774","45.344692987","1900005","400021482","W-696381","FED","DOI-WFMI","BLM","USMTMCD","Miles City Field Office","MTMCD","Miles City Field Office","263","","KJN8","STOCKER","","","","","","2016","2016/07/29 00:00:00+00","211","1222","Natural","Natural","","2016/07/30 00:00:00+00","212","1819","5","B","45.3447","-106.3164","USFS","MT","Rosebud","30087","Rosebud County"
"-106.371688756","45.370592988","1900006","400021483","W-694883","FED","DOI-WFMI","BLM","USMTMCD","Miles City Field Office","MTMCD","Miles City Field Office","265","","KJU0","NORTH","","","","","","2016","2016/07/29 00:00:00+00","211","1800","Natural","Natural","","2016/07/30 00:00:00+00","212","1415","0.2","A","45.3706","-106.3717","USFS","MT","Rosebud","30087","Rosebud County"
"-106.171688757","45.631892942","1900007","400021484","W-695511","FED","DOI-WFMI","BLM","USMTMCD","Miles City Field Office","MTMCD","Miles City Field Office","266","","KJ0R","COOK","2016_4386350_COOK","","","","","2016","2016/07/30 00:00:00+00","212","1730","Natural","Natural","","2016/08/01 00:00:00+00","214","1200","335.4","E","45.6319","-106.1717","USFS","MT","Powder River","30075","Powder River County"
"-106.366388626","46.100792908","1900008","400021485","W-697520","FED","DOI-WFMI","BLM","USMTMCD","Miles City Field Office","MTMCD","Miles City Field Office","268","","KJ1V","BUTTE","2016_4365439_BUTTE","","MT4610110636420160731","BUTTE","","2016","2016/07/30 00:00:00+00","212","1917","Natural","Natural","","2016/08/06 00:00:00+00","219","1900","1543.8","F","46.1008","-106.3664","PRIVATE","MT","Rosebud","30087","Rosebud County"
"-106.341688772","45.323592991","1900009","400021486","W-696398","FED","DOI-WFMI","BLM","USMTMCD","Miles City Field Office","MTMCD","Miles City Field Office","272","","KJ5D","PRONG","","","","","","2016","2016/08/01 00:00:00+00","214","0740","Natural","Natural","","2016/08/01 00:00:00+00","214","1105","0.1","A","45.3236","-106.3417","USFS","MT","Rosebud","30087","Rosebud County"
"-106.100646837","45.276892975","1900010","400021487","W-695350","FED","DOI-WFMI","BLM","USMTMCD","Miles City Field Office","MTMCD","Miles City Field Office","273","","K35D","GRIFFIN","","","","","","2016","2016/08/01 00:00:00+00","214","0915","Natural","Natural","","2016/08/01 00:00:00+00","214","1112","0.1","A","45.2769","-106.100658","PRIVATE","MT","Powder River","30075","Powder River County"
"-105.656388745","46.375292815","1900011","400021488","W-696072","FED","DOI-WFMI","BLM","USMTMCD","Miles City Field Office","MTMCD","Miles City Field Office","274","","KJ5N","DEAN","","","","","","2016","2016/07/31 00:00:00+00","213","2000","Human","Recreation and ceremony","","2016/08/01 00:00:00+00","214","0800","0.1","A","46.3753","-105.6564","BLM","MT","Custer","30017","Custer County"
"-106.350532776","45.285184996","1900012","400021489","W-695351","FED","DOI-WFMI","BLM","USMTMCD","Miles City Field Office","MTMCD","Miles City Field Office","276","","KJ5Z","HANGING","","","","","","2016","2016/08/01 00:00:00+00","214","1200","Natural","Natural","","2016/08/04 00:00:00+00","217","1655","11.3","C","45.285192","-106.350544","PRIVATE","MT","Rosebud","30087","Rosebud County"
"-106.04358882","45.452192951","1900013","400021490","W-697484","FED","DOI-WFMI","BLM","USMTMCD","Miles City Field Office","MTMCD","Miles City Field Office","279","","KJ60","YAGER","","","","","","2016","2016/08/01 00:00:00+00","214","1515","Natural","Natural","","2016/08/06 00:00:00+00","219","1255","42.3","C","45.4522","-106.0436","USFS","MT","Powder River","30075","Powder River County"
"-105.901388856","45.43829294","1900014","400021491","W-695308","FED","DOI-WFMI","BLM","USMTMCD","Miles City Field Office","MTMCD","Miles City Field Office","281","","KJ66","FAITHFUL","","","","","","2016","2016/08/01 00:00:00+00","214","1525","Natural","Natural","","2016/08/04 00:00:00+00","217","1244","3.6","B","45.4383","-105.9014","USFS","MT","Powder River","30075","Powder River County"
"-106.4285888","45.04499303","1900015","400021492","W-694963","FED","DOI-WFMI","BLM","USMTMCD","Miles City Field Office","MTMCD","Miles City Field Office","282","","KJ75","HORSE","2016_4320237_HORSE","","","","","2016","2016/08/01 00:00:00+00","214","1600","Natural","Natural","","2016/08/03 00:00:00+00","216","1338","113.3","D","45.045","-106.4286","PRIVATE","MT","Big Horn","30003","Big Horn County"
"-104.467489128","45.859192768","1900016","400021493","W-695091","FED","DOI-WFMI","BLM","USMTMCD","Miles City Field Office","MTMCD","Miles City Field Office","286","","KJ9X","PEECH","","","","","","2016","2016/08/02 00:00:00+00","215","1500","Natural","Natural","","2016/08/03 00:00:00+00","216","1730","0.1","A","45.8592","-104.4675","USFS","MT","Carter","30011","Carter County"
"-104.393889281","45.077492852","1900017","400021494","W-695159","FED","DOI-WFMI","BLM","USMTMCD","Miles City Field Office","MTMCD","Miles City Field Office","287","","KKB9","FIVE","","","","","","2016","2016/08/02 00:00:00+00","215","1800","Natural","Natural","","2016/08/02 00:00:00+00","215","1930","0.1","A","45.0775","-104.3939","PRIVATE","MT","Carter","30011","Carter County"
"-105.896208863","45.404052943","1900018","400021495","W-695222","FED","DOI-WFMI","BLM","USMTMCD","Miles City Field Office","MTMCD","Miles City Field Office","288","","KKE2","SPRING CREEK","","","","","","2016","2016/08/02 00:00:00+00","215","2130","Natural","Natural","","2016/08/03 00:00:00+00","216","0124","0.9","B","45.40406","-105.89622","PRIVATE","MT","Powder River","30075","Powder River County"
"-105.46426899","45.266442922","1900019","400021496","W-695518","FED","DOI-WFMI","BLM","USMTMCD","Miles City Field Office","MTMCD","Miles City Field Office","298","","KK51","LONESOME","","","","","","2016","2016/08/07 00:00:00+00","220","1045","Natural","Natural","","2016/08/09 00:00:00+00","222","1045","50","C","45.26645","-105.46428","BLM","MT","Powder River","30075","Powder River County"
"-106.39668874","45.428092984","1900020","400021497","W-696399","FED","DOI-WFMI","BLM","USMTMCD","Miles City Field Office","MTMCD","Miles City Field Office","302","","KK79","TONGUE","","","","","","2016","2016/08/07 00:00:00+00","220","2019","Natural","Natural","","2016/08/08 00:00:00+00","221","1223","0.1","A","45.4281","-106.3967","BLM","MT","Rosebud","30087","Rosebud County"
"-104.383289199","45.571092794","1900021","400021498","W-698038","FED","DOI-WFMI","BLM","USMTMCD","Miles City Field Office","MTMCD","Miles City Field Office","304","","KQE9","SKULL","","","","","","2016","2016/08/07 00:00:00+00","220","2111","Natural","Natural","","2016/08/08 00:00:00+00","221","0130","3","B","45.5711","-104.3833","BLM","MT","Carter","30011","Carter County"
"-104.959689135","45.127492894","1900022","400021499","W-695715","FED","DOI-WFMI","BLM","USMTMCD","Miles City Field Office","MTMCD","Miles City Field Office","306","","KK8U","BOOTLEGGER","","","","","","2016","2016/08/08 00:00:00+00","221","1100","Natural","Natural","","2016/08/10 00:00:00+00","223","1745","20","C","45.1275","-104.9597","BLM","MT","Carter","30011","Carter County"
"-104.953089072","45.500792851","1900023","400021500","W-696101","FED","DOI-WFMI","BLM","USMTMCD","Miles City Field Office","MTMCD","Miles City Field Office","307","","KMU2","POCOCHICHEE","","","","","","2016","2016/08/07 00:00:00+00","220","2200","Natural","Natural","","2016/08/08 00:00:00+00","221","1300","3.2","B","45.5008","-104.9531","PRIVATE","MT","Carter","30011","Carter County"
"-106.331268764","45.380992984","1900024","400021501","W-695470","FED","DOI-WFMI","BLM","USMTMCD","Miles City Field Office","MTMCD","Miles City Field Office","312","","KLB3","GREEN","","","","","","2016","2016/08/08 00:00:00+00","221","1345","Natural","Natural","","2016/08/08 00:00:00+00","221","1945","1.3","B","45.381","-106.33128","USFS","MT","Rosebud","30087","Rosebud County"
"-106.68888869","45.325593021","1900025","400021502","W-695600","FED","DOI-WFMI","BLM","USMTMCD","Miles City Field Office","MTMCD","Miles City Field Office","313","","KLA8","BULL CREEK","","","","","","2016","2016/08/08 00:00:00+00","221","1330","Natural","Natural","","2016/08/11 00:00:00+00","224","1315","22.3","C","45.3256","-106.6889","BLM","MT","Rosebud","30087","Rosebud County"
"-106.189388804","45.345592975","1900026","400021503","W-697439","FED","DOI-WFMI","BLM","USMTMCD","Miles City Field Office","MTMCD","Miles City Field Office","316","","KK9S","PAGET","","","","","","2016","2016/08/08 00:00:00+00","221","1442","Natural","Natural","","2016/08/12 00:00:00+00","225","1130","49.2","C","45.3456","-106.1894","USFS","MT","Powder River","30075","Powder River County"
"-106.068588858","45.196692982","1900027","400021504","W-695527","FED","DOI-WFMI","BLM","USMTMCD","Miles City Field Office","MTMCD","Miles City Field Office","317","","KLB2","SAYLE","","","","","","2016","2016/08/08 00:00:00+00","221","1716","Natural","Natural","","2016/08/10 00:00:00+00","223","1610","0.4","B","45.1967","-106.0686","USFS","MT","Powder River","30075","Powder River County"
"-106.226388823","45.183592997","1900028","400021505","W-695522","FED","DOI-WFMI","BLM","USMTMCD","Miles City Field Office","MTMCD","Miles City Field Office","321","","KLL1","BEAR","","","","","","2016","2016/08/09 00:00:00+00","222","1600","Natural","Natural","","2016/08/10 00:00:00+00","223","1556","0.7","B","45.1836","-106.2264","USFS","MT","Rosebud","30087","Rosebud County"
"-106.491848355","47.349882788","1900029","400021506","W-695478","FED","DOI-WFMI","BLM","USMTMCD","Miles City Field Office","MTMCD","Miles City Field Office","322","","KLL4","233","","","","","","2016","2016/08/09 00:00:00+00","222","1615","Human","Equipment and vehicle use","","2016/08/09 00:00:00+00","222","1735","0.1","A","47.34989","-106.49186","BLM","MT","Garfield","30033","Garfield County"
"-104.350789149","45.901892753","1900030","400021507","W-695489","FED","DOI-WFMI","BLM","USMTMCD","Miles City Field Office","MTMCD","Miles City Field Office","323","","KLR1","DUTCHMAN","","","","","","2016","2016/08/09 00:00:00+00","222","1700","Natural","Natural","","2016/08/09 00:00:00+00","222","1750","0.1","A","45.9019","-104.3508","PRIVATE","MT","Carter","30011","Carter County"
"-104.551089181","45.435592824","1900031","400021508","W-695492","FED","DOI-WFMI","BLM","USMTMCD","Miles City Field Office","MTMCD","Miles City Field Office","324","","KLN1","TAUCK","","","","","","2016","2016/08/09 00:00:00+00","222","1800","Natural","Natural","","2016/08/09 00:00:00+00","222","2120","112.5","D","45.4356","-104.5511","PRIVATE","MT","Carter","30011","Carter County"
"-104.177789228","45.692792762","1900032","400021509","W-695526","FED","DOI-WFMI","BLM","USMTMCD","Miles City Field Office","MTMCD","Miles City Field Office","325","","KLN6","RUSTLER CREEK","","","","","","2016","2016/08/09 00:00:00+00","222","2245","Natural","Natural","","2016/08/10 00:00:00+00","223","1740","18.4","C","45.6928","-104.1778","USFS","MT","Carter","30011","Carter County"
"-104.450789192","45.517492806","1900033","400021510","W-695496","FED","DOI-WFMI","BLM","USMTMCD","Miles City Field Office","MTMCD","Miles City Field Office","327","","KLQ0","RIDGEWAY","","","","","","2016","2016/08/09 00:00:00+00","222","1900","Natural","Natural","","2016/08/10 00:00:00+00","223","1200","3.3","B","45.5175","-104.4508","PRIVATE","MT","Carter","30011","Carter County"
"-107.173348159","47.515132835","1900034","400021511","W-695675","FED","DOI-WFMI","BLM","USMTMCD","Miles City Field Office","MTMCD","Miles City Field Office","335","","KL0W","MOONLIGHT","","","","","","2016","2016/08/11 00:00:00+00","224","1825","Natural","Natural","","2016/08/11 00:00:00+00","224","2232","15","C","47.51514","-107.17336","PRIVATE","MT","Garfield","30033","Garfield County"
"-105.102188895","46.287492775","1900035","400021512","W-695717","FED","DOI-WFMI","BLM","USMTMCD","Miles City Field Office","MTMCD","Miles City Field Office","338","","KL2V","CEDAR CREEK","","","","","","2016","2016/08/12 00:00:00+00","225","2030","Natural","Natural","","2016/08/13 00:00:00+00","226","0727","0.3","B","46.2875","-105.1022","PRIVATE","MT","Custer","30017","Custer County"
"-105.085788901","46.279692774","1900036","400021513","W-695729","FED","DOI-WFMI","BLM","USMTMCD","Miles City Field Office","MTMCD","Miles City Field Office","339","","KL23","KNOB","","","","","","2016","2016/08/13 00:00:00+00","226","0800","Natural","Natural","","2016/08/13 00:00:00+00","226","1009","6.9","B","46.2797","-105.0858","STATE","MT","Custer","30017","Custer County"
"-105.133089083","45.185292902","1900037","400021514","W-697453","FED","DOI-WFMI","BLM","USMTMCD","Miles City Field Office","MTMCD","Miles City Field Office","348","","KL52","GOTFREDSON ROAD","","","","","","2016","2016/08/14 00:00:00+00","227","1807","Natural","Natural","","2016/08/15 00:00:00+00","228","1754","91.8","C","45.1853","-105.1331","PRIVATE","MT","Powder River","30075","Powder River County"
"-105.256689041","45.260292904","1900038","400021515","W-695842","FED","DOI-WFMI","BLM","USMTMCD","Miles City Field Office","MTMCD","Miles City Field Office","349","","KL57","LITTLE ROUGH","","","","","","2016","2016/08/14 00:00:00+00","227","1730","Natural","Natural","","2016/08/15 00:00:00+00","228","0800","0.1","A","45.2603","-105.2567","BLM","MT","Powder River","30075","Powder River County"
"-104.889988872","46.693292711","1900039","400021516","W-695845","FED","DOI-WFMI","BLM","USMTMCD","Miles City Field Office","MTMCD","Miles City Field Office","351","","KL59","STOCKETT","","","","","","2016","2016/08/14 00:00:00+00","227","2014","Natural","Natural","","2016/08/15 00:00:00+00","228","1358","3.5","B","46.6933","-104.89","BLM","MT","Prairie","30079","Prairie County"
"-104.474989116","45.916692762","1900040","400021517","W-695999","FED","DOI-WFMI","BLM","USMTMCD","Miles City Field Office","MTMCD","Miles City Field Office","352","","KL7E","3 MILE","","","","","","2016","2016/08/15 00:00:00+00","228","1145","Natural","Natural","","2016/08/17 00:00:00+00","230","1045","0.6","B","45.9167","-104.475","USFS","MT","Carter","30011","Carter County"
"-104.959389135","45.127792894","1900041","400021518","W-696140","FED","DOI-WFMI","BLM","USMTMCD","Miles City Field Office","MTMCD","Miles City Field Office","356","","KL9E","BLOWOUT","","","","","","2016","2016/08/14 00:00:00+00","227","1500","Natural","Natural","","2016/08/16 00:00:00+00","229","1740","44.9","C","45.1278","-104.9594","BLM","MT","Carter","30011","Carter County"
"-105.101289091","45.1851929","1900042","400021519","W-696321","FED","DOI-WFMI","BLM","USMTMCD","Miles City Field Office","MTMCD","Miles City Field Office","360","","KML4","KELSEY","","","","","","2016","2016/08/17 00:00:00+00","230","1211","Natural","Natural","","2016/08/17 00:00:00+00","230","1435","0.1","A","45.1852","-105.1013","BLM","MT","Powder River","30075","Powder River County"
"-104.420789219","45.404192816","1900043","400021520","W-696139","FED","DOI-WFMI","BLM","USMTMCD","Miles City Field Office","MTMCD","Miles City Field Office","362","","KMS0","BIG PASTURE","2016_4282761_BIG PASTURE","","","","","2016","2016/08/17 00:00:00+00","230","0900","Natural","Natural","","2016/08/18 00:00:00+00","231","1758","752.9","E","45.4042","-104.4208","PRIVATE","MT","Carter","30011","Carter County"
"-104.402489209","45.488292805","1900044","400021521","W-696486","FED","DOI-WFMI","BLM","USMTMCD","Miles City Field Office","MTMCD","Miles City Field Office","364","","KM6P","22","","","","","","2016","2016/08/21 00:00:00+00","234","1500","Natural","Natural","","2016/08/21 00:00:00+00","234","1611","1.2","B","45.4883","-104.4025","BLM","MT","Carter","30011","Carter County"
"-107.639188044","47.538892877","1900045","400021522","W-696732","FED","DOI-WFMI","BLM","USMTMCD","Miles City Field Office","MTMCD","Miles City Field Office","378","","KNT4","HAY COULEE","","","","","","2016","2016/08/26 00:00:00+00","239","1730","Natural","Natural","","2016/08/29 00:00:00+00","242","1545","26.1","C","47.5389","-107.6392","BLM","MT","Garfield","30033","Garfield County"
"-106.680588554","46.088092937","1900046","400021523","W-697462","FED","DOI-WFMI","BLM","USMTMCD","Miles City Field Office","MTMCD","Miles City Field Office","383","","KNX0","SHEEP","","","","","","2016","2016/08/27 00:00:00+00","240","1408","Natural","Natural","","2016/08/28 00:00:00+00","241","1700","72.9","C","46.0881","-106.6806","PRIVATE","MT","Rosebud","30087","Rosebud County"
"-107.611388044","47.566892871","1900047","400021524","W-696859","FED","DOI-WFMI","BLM","USMTMCD","Miles City Field Office","MTMCD","Miles City Field Office","399","","KN9P","DEVILS CREEK","","","","","","2016","2016/09/02 00:00:00+00","246","0500","Natural","Natural","","2016/09/03 00:00:00+00","247","1115","38.8","C","47.5669","-107.6114","PRIVATE","MT","Garfield","30033","Garfield County"
"-106.322188774","45.338092988","1900048","400021525","W-697279","FED","DOI-WFMI","BLM","USMTMCD","Miles City Field Office","MTMCD","Miles City Field Office","401","","KN9S","POND","","","","","","2016","2016/09/02 00:00:00+00","246","0639","Natural","Natural","","2016/09/09 00:00:00+00","253","1518","3.4","B","45.3381","-106.3222","PRIVATE","MT","Rosebud","30087","Rosebud County"
"-106.378588766","45.306092996","1900049","400021526","W-697501","FED","DOI-WFMI","BLM","USMTMCD","Miles City Field Office","MTMCD","Miles City Field Office","402","","KN92","GRIFFIN GULCH","2016_4299758_GRIFFIN GULCH","","MT4530610637920160902","GRIFFIN GULCH","","2016","2016/09/02 00:00:00+00","246","0654","Natural","Natural","","2016/09/09 00:00:00+00","253","1345","1330.2","F","45.3061","-106.3786","USFS","MT","Rosebud","30087","Rosebud County"
"-106.389188762","45.316392996","1900050","400021527","W-698033","FED","DOI-WFMI","BLM","USMTMCD","Miles City Field Office","MTMCD","Miles City Field Office","403","","KN9R","TIMBER CREEK","","","","","","2016","2016/09/02 00:00:00+00","246","0655","Natural","Natural","","2016/09/02 00:00:00+00","246","1149","0.1","A","45.3164","-106.3892","USFS","MT","Rosebud","30087","Rosebud County"
"-106.566088741","45.199393024","1900051","400021528","W-696966","FED","DOI-WFMI","BLM","USMTMCD","Miles City Field Office","MTMCD","Miles City Field Office","405","","KPA8","LACEY GULCH","","","","","","2016","2016/09/02 00:00:00+00","246","1400","Natural","Natural","","2016/09/04 00:00:00+00","248","1020","66.3","C","45.1994","-106.5661","PRIVATE","MT","Rosebud","30087","Rosebud County"
"-105.273588944","45.788092846","1900052","400021529","W-697477","FED","DOI-WFMI","BLM","USMTMCD","Miles City Field Office","MTMCD","Miles City Field Office","408","","KPY6","OYSTER","","","","","","2016","2016/09/02 00:00:00+00","246","1224","Natural","Natural","","2016/09/02 00:00:00+00","246","1600","63.6","C","45.7881","-105.2736","BLM","MT","Powder River","30075","Powder River County"
"-105.588088963","45.249192934","1900053","400021530","W-698031","FED","DOI-WFMI","BLM","USMTMCD","Miles City Field Office","MTMCD","Miles City Field Office","409","","KPB2","ERNEST","","","","","","2016","2016/09/02 00:00:00+00","246","1239","Natural","Natural","","2016/09/03 00:00:00+00","247","0900","0.5","B","45.2492","-105.5881","BLM","MT","Powder River","30075","Powder River County"
"-106.605588728","45.217493026","1900054","400021531","W-700714","FED","DOI-WFMI","BLM","USMTMCD","Miles City Field Office","MTMCD","Miles City Field Office","410","","KPZ2","DIAMOND","","","","","","2016","2016/09/02 00:00:00+00","246","1332","Natural","Natural","","2016/09/04 00:00:00+00","248","0930","11.2","C","45.2175","-106.6056","PRIVATE","MT","Rosebud","30087","Rosebud County"
"-104.956689143","45.082792899","1900055","400021532","W-696984","FED","DOI-WFMI","BLM","USMTMCD","Miles City Field Office","MTMCD","Miles City Field Office","411","","KPC5","THOMPSON CREEK","","","","","","2016","2016/09/02 00:00:00+00","246","1530","Natural","Natural","","2016/09/04 00:00:00+00","248","1200","1.2","B","45.0828","-104.9567","BLM","MT","Carter","30011","Carter County"
"-106.188888719","45.820292923","1900056","400021533","W-698021","FED","DOI-WFMI","BLM","USMTMCD","Miles City Field Office","MTMCD","Miles City Field Office","416","","KPK6","BEAVER CREEK","","","","","","2016","2016/09/04 00:00:00+00","248","0800","Natural","Natural","","2016/09/04 00:00:00+00","248","0830","9.4","B","45.8203","-106.1889","PRIVATE","MT","Custer","30017","Custer County"
"-104.477789126","45.856092769","1900057","400021534","W-698037","FED","DOI-WFMI","BLM","USMTMCD","Miles City Field Office","MTMCD","Miles City Field Office","432","","KQM0","H6","","","","","","2016","2016/06/17 00:00:00+00","169","2200","Natural","Natural","","2016/06/18 00:00:00+00","170","0015","1","B","45.8561","-104.4778","PRIVATE","MT","Carter","30011","Carter County"
"-104.454989137","45.824992771","1900058","400021535","W-697189","FED","DOI-WFMI","BLM","USMTMCD","Miles City Field Office","MTMCD","Miles City Field Office","436","","KP2T","BRONCO SAM","","","","","","2016","2016/09/08 00:00:00+00","252","1500","Natural","Natural","","2016/09/09 00:00:00+00","253","1602","1.7","B","45.825","-104.455","USFS","MT","Carter","30011","Carter County"
"-105.53998876","46.446692796","1900059","400021536","W-697922","FED","DOI-WFMI","BLM","USMTMCD","Miles City Field Office","MTMCD","Miles City Field Office","560","","KQ0T","WOLF CREEK","","","","","","2016","2016/09/18 00:00:00+00","262","1300","Natural","Natural","","2016/09/18 00:00:00+00","262","1948","69.8","C","46.4467","-105.54","PRIVATE","MT","Custer","30017","Custer County"
"-104.213289111","46.301692695","1900060","400021537","W-698331","FED","DOI-WFMI","BLM","USMTMCD","Miles City Field Office","MTMCD","Miles City Field Office","569","","KQ83","PINNOW","","","","","","2016","2016/07/02 00:00:00+00","184","1820","Natural","Natural","","2016/07/02 00:00:00+00","184","2300","0.3","B","46.3017","-104.2133","BLM","MT","Fallon","30025","Fallon County"
"-104.424689077","46.198292725","1900061","400021538","W-700724","FED","DOI-WFMI","BLM","USMTMCD","Miles City Field Office","MTMCD","Miles City Field Office","581","","KSD9","WILLARD","","","","","","2016","2016/07/23 00:00:00+00","205","1945","Natural","Natural","","2016/07/24 00:00:00+00","206","0800","2.2","B","46.1983","-104.4247","BLM","MT","Fallon","30025","Fallon County"
"-105.912488892","45.216092966","1900062","400021539","W-693947","FED","DOI-WFMI","BLM","USMTMCD","Miles City Field Office","MTMCD","Miles City Field Office","1502","","KE2G","BLOOM","","","","","","2016","2016/07/08 00:00:00+00","190","2130","Natural","Natural","","2016/07/09 00:00:00+00","191","1600","4.8","B","45.2161","-105.9125","USFS","MT","Powder River","30075","Powder River County"
"-106.293288773","45.380592981","1900063","400021540","W-694304","FED","DOI-WFMI","BLM","USMTMCD","Miles City Field Office","MTMCD","Miles City Field Office","1502","","KGN4","BLACKS","","","","","","2016","2016/07/19 00:00:00+00","201","1345","Natural","Natural","","2016/07/21 00:00:00+00","203","1135","23.2","C","45.3806","-106.2933","USFS","MT","Rosebud","30087","Rosebud County"
"-105.992668787","45.705972918","1900064","400021541","W-689874","FED","DOI-WFMI","BLM","USMTMCD","Miles City Field Office","MTMCD","Miles City Field Office","","","J62E","BOTTOM CRIB","","","","","","2016","2016/03/21 00:00:00+00","81","0800","Natural","Natural","","2016/03/22 00:00:00+00","82","1500","118.1","D","45.70598","-105.99268","USFS","MT","Powder River","30075","Powder River County"
"-106.171688757","45.631892942","1900065","400021542","W-690577","FED","DOI-WFMI","BLM","USMTMCD","Miles City Field Office","MTMCD","Miles City Field Office","","","J698","COOK MOUNTAIN","","","","","","2016","2016/03/27 00:00:00+00","87","1839","Natural","Natural","","2016/03/28 00:00:00+00","88","1400","22.1","C","45.6319","-106.1717","USFS","MT","Powder River","30075","Powder River County"
"-106.016888901","45.017192997","1900066","400021543","W-689500","FED","DOI-WFMI","BLM","USMTMCD","Miles City Field Office","MTMCD","Miles City Field Office","","","J6LN","LINE CREEK","","","","","","2016","2016/03/05 00:00:00+00","65","1300","Human","Debris and open burning","","2016/03/05 00:00:00+00","65","1839","563.2","E","45.0172","-106.0169","PRIVATE","MT","Powder River","30075","Powder River County"
"-106.750588572","45.900792964","1900067","400021544","W-689544","FED","DOI-WFMI","BLM","USMTMCD","Miles City Field Office","MTMCD","Miles City Field Office","","","J6RX","CHERRY","2016_4343786_CHERRY","","","","","2016","2016/03/10 00:00:00+00","70","1500","Human","Equipment and vehicle use","","2016/03/11 00:00:00+00","71","0900","432","E","45.9008","-106.7506","PRIVATE","MT","Prairie","30079","Prairie County"
"-104.211689172","45.963292734","1900068","400021545","W-690619","FED","DOI-WFMI","BLM","USMTMCD","Miles City Field Office","MTMCD","Miles City Field Office","","","J75M","NET WRAP","","","","","","2016","2016/03/05 00:00:00+00","65","1400","Human","Debris and open burning","","2016/03/05 00:00:00+00","65","2000","174.6","D","45.9633","-104.2117","PRIVATE","MT","Carter","30011","Carter County"
"-106.125588693","46.049992892","1900069","400021546","W-702785","FED","DOI-WFMI","BLM","USMTMCD","Miles City Field Office","MTMCD","Miles City Field Office","17","","KXM3","MILLER CREEK","","","","","","2017","2017/03/24 00:00:00+00","83","1740","Human","Equipment and vehicle use","","2017/03/24 00:00:00+00","83","1810","2","B","46.05","-106.1256","PRIVATE","MT","Custer","30017","Custer County"
"-107.586388058","47.531692872","1900070","400021547","W-703164","FED","DOI-WFMI","BLM","USMTMCD","Miles City Field Office","MTMCD","Miles City Field Office","23","","KZ3M","SPRING","","","","","","2017","2017/04/21 00:00:00+00","111","1430","Human","Debris and open burning","","2017/04/21 00:00:00+00","111","1430","4.4","B","47.5317","-107.5864","PRIVATE","MT","Garfield","30033","Garfield County"
"-106.024688823","45.458592948","1900071","400021548","W-703455","FED","DOI-WFMI","BLM","USMTMCD","Miles City Field Office","MTMCD","Miles City Field Office","28","","K0JU","YAGER","","","","","","2017","2017/05/10 00:00:00+00","130","1323","Human","Recreation and ceremony","","2017/05/10 00:00:00+00","130","1440","0.1","A","45.4586","-106.0247","USFS","MT","Powder River","30075","Powder River County"
"-104.220289251","45.500292788","1900072","400021550","W-704006","FED","DOI-WFMI","BLM","USMTMCD","Miles City Field Office","MTMCD","Miles City Field Office","32","","K0YV","THIRD MOUNTAIN","","","","","","2017","2017/05/23 00:00:00+00","143","0748","Natural","Natural","","2017/05/24 00:00:00+00","144","1100","0.3","B","45.5003","-104.2203","PRIVATE","MT","Carter","30011","Carter County"
"-106.577488316","47.442492786","1900073","400021551","W-703782","FED","DOI-WFMI","BLM","USMTMCD","Miles City Field Office","MTMCD","Miles City Field Office","33","","K01H","FIRST CREEK","","","","","","2017","2017/05/24 00:00:00+00","144","1745","Natural","Natural","","2017/05/24 00:00:00+00","144","2142","13.4","C","47.4425","-106.5775","PRIVATE","MT","Garfield","30033","Garfield County"
"-104.968288856","46.673292721","1900074","400021552","W-704025","FED","DOI-WFMI","BLM","USMTMCD","Miles City Field Office","MTMCD","Miles City Field Office","34","","K02A","MILDRED","","","","","","2017","2017/05/21 00:00:00+00","141","0800","Natural","Natural","","2017/05/22 00:00:00+00","142","1448","0.1","A","46.6733","-104.9683","BLM","MT","Prairie","30079","Prairie County"
"-106.316388771","45.362792985","1900075","400021553","W-703964","FED","DOI-WFMI","BLM","USMTMCD","Miles City Field Office","MTMCD","Miles City Field Office","37","","K09Q","HAY CREEK","","","","","","2017","2017/05/30 00:00:00+00","150","0801","Natural","Natural","","2017/05/31 00:00:00+00","151","1635","1","B","45.3628","-106.3164","USFS","MT","Rosebud","30087","Rosebud County"
"-107.661688048","47.490292883","1900076","400021555","W-704037","FED","DOI-WFMI","BLM","USMTMCD","Miles City Field Office","MTMCD","Miles City Field Office","42","","K1EP","CAP ROCK","","","","","","2017","2017/06/02 00:00:00+00","153","1230","Natural","Natural","","2017/06/03 00:00:00+00","154","1148","57.9","C","47.4903","-107.6617","PRIVATE","MT","Garfield","30033","Garfield County"
"-107.652188069","47.399692892","1900077","400021556","W-704020","FED","DOI-WFMI","BLM","USMTMCD","Miles City Field Office","MTMCD","Miles City Field Office","44","","K1EU","H CROSS","","","","","","2017","2017/06/02 00:00:00+00","153","1400","Natural","Natural","","2017/06/04 00:00:00+00","155","1455","4.4","B","47.3997","-107.6522","BLM","MT","Garfield","30033","Garfield County"
"-106.138588764","45.639392938","1900078","400021557","W-704086","FED","DOI-WFMI","BLM","USMTMCD","Miles City Field Office","MTMCD","Miles City Field Office","46","","K1GL","DAILY","","","","","","2017","2017/06/03 00:00:00+00","154","1545","Natural","Natural","","2017/06/04 00:00:00+00","155","1845","7.7","B","45.6394","-106.1386","USFS","MT","Powder River","30075","Powder River County"
"-106.475588736","45.349193","1900079","400021558","W-704105","FED","DOI-WFMI","BLM","USMTMCD","Miles City Field Office","MTMCD","Miles City Field Office","47","","K1HQ","BLACK EAGLE","","","","","","2017","2017/06/04 00:00:00+00","155","1230","Natural","Natural","","2017/06/07 00:00:00+00","158","1600","28.7","C","45.3492","-106.4756","USFS","MT","Rosebud","30087","Rosebud County"
"-106.233088794","45.344192979","1900080","400021559","W-704039","FED","DOI-WFMI","BLM","USMTMCD","Miles City Field Office","MTMCD","Miles City Field Office","49","","K1KN","PAGET","","","","","","2017","2017/06/05 00:00:00+00","156","0925","Natural","Natural","","2017/06/05 00:00:00+00","156","1030","0.1","A","45.3442","-106.2331","USFS","MT","Powder River","30075","Powder River County"
"-104.266389182","45.830592754","1900081","400021560","W-704106","FED","DOI-WFMI","BLM","USMTMCD","Miles City Field Office","MTMCD","Miles City Field Office","52","","K1SP","ROCK","","","","","","2017","2017/06/08 00:00:00+00","159","1130","Human","Equipment and vehicle use","","2017/06/08 00:00:00+00","159","1230","0.3","B","45.8306","-104.2664","PRIVATE","MT","Carter","30011","Carter County"
"-106.016388829","45.43529295","1900082","400021561","W-704204","FED","DOI-WFMI","BLM","USMTMCD","Miles City Field Office","MTMCD","Miles City Field Office","54","","K1XY","TEN MILE","","","","","","2017","2017/06/10 00:00:00+00","161","1230","Natural","Natural","","2017/06/13 00:00:00+00","164","1107","15.4","C","45.4353","-106.0164","USFS","MT","Powder River","30075","Powder River County"
"-105.83828893","45.094992973","1900083","400021562","W-704242","FED","DOI-WFMI","BLM","USMTMCD","Miles City Field Office","MTMCD","Miles City Field Office","58","","K13A","THOMPSON","","","","","","2017","2017/06/13 00:00:00+00","164","1015","Natural","Natural","","2017/06/13 00:00:00+00","164","1520","0.1","A","45.095","-105.8383","BLM","MT","Powder River","30075","Powder River County"
"-106.556688734","45.251393018","1900084","400021563","W-704326","FED","DOI-WFMI","BLM","USMTMCD","Miles City Field Office","MTMCD","Miles City Field Office","59","","K14B","BATTLE","","","","","","2017","2017/06/13 00:00:00+00","164","1400","Natural","Natural","","2017/06/14 00:00:00+00","165","1710","0.6","B","45.2514","-106.5567","PRIVATE","MT","Rosebud","30087","Rosebud County"
"-105.883088859","45.447792937","1900085","400021564","W-704549","FED","DOI-WFMI","BLM","USMTMCD","Miles City Field Office","MTMCD","Miles City Field Office","60","","K180","SKINNER","","","","","","2017","2017/06/13 00:00:00+00","164","1927","Natural","Natural","","2017/06/16 00:00:00+00","167","0850","10.7","C","45.4478","-105.8831","STATE","MT","Powder River","30075","Powder River County"
"-106.679188719","45.173893037","1900086","400021565","W-704283","FED","DOI-WFMI","BLM","USMTMCD","Miles City Field Office","MTMCD","Miles City Field Office","62","","K16Z","GLENN GULCH","","","","","","2017","2017/06/14 00:00:00+00","165","1500","Natural","Natural","","2017/06/14 00:00:00+00","165","1958","0.7","B","45.1739","-106.6792","PRIVATE","MT","Big Horn","30003","Big Horn County"
"-106.966388435","46.366092934","1900087","400021566","W-704987","FED","DOI-WFMI","BLM","USMTMCD","Miles City Field Office","MTMCD","Miles City Field Office","64","","K3K5","HORSE CREEK","","","","","","2017","2017/06/09 00:00:00+00","160","1437","Natural","Natural","","2017/06/11 00:00:00+00","162","0800","72","C","46.3661","-106.9664","PRIVATE","MT","Rosebud","30087","Rosebud County"
"-105.80168891","45.266692951","1900088","400021567","W-704478","FED","DOI-WFMI","BLM","USMTMCD","Miles City Field Office","MTMCD","Miles City Field Office","67","","K2JQ","PINTO","","","","","","2017","2017/06/19 00:00:00+00","170","1930","Natural","Natural","","2017/06/20 00:00:00+00","171","1703","9.7","B","45.2667","-105.8017","PRIVATE","MT","Powder River","30075","Powder River County"
"-106.008288779","45.728092917","1900089","400021568","W-704548","FED","DOI-WFMI","BLM","USMTMCD","Miles City Field Office","MTMCD","Miles City Field Office","69","","K2LH","SARTIN","","","","","","2017","2017/06/20 00:00:00+00","171","1630","Natural","Natural","","2017/06/22 00:00:00+00","173","1815","57.5","C","45.7281","-106.0083","USFS","MT","Powder River","30075","Powder River County"
"-106.365788681","45.799192941","1900090","400021569","W-704541","FED","DOI-WFMI","BLM","USMTMCD","Miles City Field Office","MTMCD","Miles City Field Office","74","","K2QF","STUART DRAW","","","","","","2017","2017/06/21 00:00:00+00","172","1439","Natural","Natural","","2017/06/22 00:00:00+00","173","1700","3.2","B","45.7992","-106.3658","BLM","MT","Custer","30017","Custer County"
"-106.083088749","45.796692916","1900091","400021570","W-704759","FED","DOI-WFMI","BLM","USMTMCD","Miles City Field Office","MTMCD","Miles City Field Office","77","","K2Y1","BREAKS 2","","","","","","2017","2017/06/24 00:00:00+00","175","1800","Natural","Natural","","2017/06/30 00:00:00+00","181","0800","83.1","C","45.7967","-106.0831","STATE","MT","Custer","30017","Custer County"
"-105.454988681","46.969992732","1900092","400021572","W-704898","FED","DOI-WFMI","BLM","USMTMCD","Miles City Field Office","MTMCD","Miles City Field Office","89","","K3FQ","CEDAR","","","","","","2017","2017/06/28 00:00:00+00","179","1500","Natural","Natural","","2017/06/29 00:00:00+00","180","1530","345.4","E","46.97","-105.455","BLM","MT","Prairie","30079","Prairie County"
"-105.891688558","47.054992763","1900093","400021573","W-704892","FED","DOI-WFMI","BLM","USMTMCD","Miles City Field Office","MTMCD","Miles City Field Office","90","","K3FP","BIG SHEEP","","","","","","2017","2017/06/28 00:00:00+00","179","1500","Natural","Natural","","2017/06/29 00:00:00+00","180","1530","65.5","C","47.055","-105.8917","BLM","MT","Prairie","30079","Prairie County"
"-105.109688893","46.290792775","1900094","400021575","W-705134","FED","DOI-WFMI","BLM","USMTMCD","Miles City Field Office","MTMCD","Miles City Field Office","92","","K3D1","SHEEP CREEK","","","","","","2017","2017/06/28 00:00:00+00","179","1659","Natural","Natural","","2017/06/29 00:00:00+00","180","1600","4.2","B","46.2908","-105.1097","BLM","MT","Custer","30017","Custer County"
"-105.061878904","46.294932771","1900095","400021576","W-704991","FED","DOI-WFMI","BLM","USMTMCD","Miles City Field Office","MTMCD","Miles City Field Office","97","","K3HJ","COW POND","","","","","","2017","2017/06/28 00:00:00+00","179","1630","Natural","Natural","","2017/07/02 00:00:00+00","183","1100","25.7","C","46.29494","-105.06189","BLM","MT","Custer","30017","Custer County"
"-106.041088835","45.37059296","1900096","400021577","W-705006","FED","DOI-WFMI","BLM","USMTMCD","Miles City Field Office","MTMCD","Miles City Field Office","98","","K3H2","ELK","","","","","","2017","2017/06/29 00:00:00+00","180","1728","Natural","Natural","","2017/07/01 00:00:00+00","182","1650","8.5","B","45.3706","-106.0411","USFS","MT","Powder River","30075","Powder River County"
"-104.724989106","45.623892817","1900097","400021578","W-705044","FED","DOI-WFMI","BLM","USMTMCD","Miles City Field Office","MTMCD","Miles City Field Office","110","","K31D","SHEP","","","","","","2017","2017/07/02 00:00:00+00","183","1600","Natural","Natural","","2017/07/03 00:00:00+00","184","1920","0.2","A","45.6239","-104.725","BLM","MT","Carter","30011","Carter County"
"-106.366388681","45.80189294","1900098","400021579","W-705043","FED","DOI-WFMI","BLM","USMTMCD","Miles City Field Office","MTMCD","Miles City Field Office","116","","K3U4","GREENLEAF","","","","","","2017","2017/07/02 00:00:00+00","183","1950","Natural","Natural","","2017/07/03 00:00:00+00","184","1740","0.5","B","45.8019","-106.3664","BLM","MT","Rosebud","30087","Rosebud County"
"-106.296688657","46.02359291","1900099","400021580","W-707227","FED","DOI-WFMI","BLM","USMTMCD","Miles City Field Office","MTMCD","Miles City Field Office","121","","K3XU","EAGLE CREEK","","","","","","2017","2017/07/03 00:00:00+00","184","1243","Natural","Natural","","2017/07/04 00:00:00+00","185","0130","4","B","46.0236","-106.2967","PRIVATE","MT","Rosebud","30087","Rosebud County"
"-106.389388608","46.171092902","1900100","400021581","W-714760","FED","DOI-WFMI","BLM","USMTMCD","Miles City Field Office","MTMCD","Miles City Field Office","129","","K315","HOWARD","2017_7250056_HOWARD","","","","","2017","2017/07/04 00:00:00+00","185","0935","Human","Missing data/not specified/undetermined","","2017/07/05 00:00:00+00","186","1515","371.8","E","46.1711","-106.3894","PRIVATE","MT","Rosebud","30087","Rosebud County"
"-106.408288771","45.239393006","1900101","400021582","W-705559","FED","DOI-WFMI","BLM","USMTMCD","Miles City Field Office","MTMCD","Miles City Field Office","137","","K4EZ","LEE CREEK","2017_7140668_LEE CREEK","2017_7375208_TONGUE RIVER COMPLEX","MT4523910640820170706","LEE CREEK","TONGUE RIVER COMPLEX","2017","2017/07/06 00:00:00+00","187","0500","Natural","Natural","","2017/07/17 00:00:00+00","198","1500","4007.3","F","45.2394","-106.4083","USFS","MT","Rosebud","30087","Rosebud County"
"-105.087018872","46.434162757","1900102","400021583","W-705339","FED","DOI-WFMI","BLM","USMTMCD","Miles City Field Office","MTMCD","Miles City Field Office","141","","K4JX","MONTAGUE FIRE","","","","","","2017","2017/07/06 00:00:00+00","187","1600","Human","Equipment and vehicle use","","2017/07/07 00:00:00+00","188","1240","5","B","46.43417","-105.08703","BLM","MT","Custer","30017","Custer County"
"-106.399688755","45.341092994","1900103","400021584","W-705556","FED","DOI-WFMI","BLM","USMTMCD","Miles City Field Office","MTMCD","Miles City Field Office","144","","K4L5","ROUGH PRONG","","","","","","2017","2017/07/07 00:00:00+00","188","0730","Natural","Natural","","2017/07/08 00:00:00+00","189","1610","0.2","A","45.3411","-106.3997","USFS","MT","Rosebud","30087","Rosebud County"
"-106.090588805","45.472792953","1900104","400021585","W-705400","FED","DOI-WFMI","BLM","USMTMCD","Miles City Field Office","MTMCD","Miles City Field Office","148","","K4PQ","COAL CREEK","","","","","","2017","2017/07/07 00:00:00+00","188","1100","Natural","Natural","","2017/07/08 00:00:00+00","189","1820","34.1","C","45.4728","-106.0906","USFS","MT","Powder River","30075","Powder River County"
"-103.784389402","45.242492781","1900105","400021587","W-705526","FED","DOI-WFMI","BLM","USMTMCD","Miles City Field Office","MTMCD","Miles City Field Office","160","","K4TD","SECREST","","","","","","2017","2017/07/07 00:00:00+00","188","1630","Natural","Natural","","2017/07/08 00:00:00+00","189","1300","426.8","E","45.2425","-103.7844","BLM","SD","Harding","46063","Harding County"
"-106.873588277","47.28239283","1900106","400021588","W-705442","FED","DOI-WFMI","BLM","USMTMCD","Miles City Field Office","MTMCD","Miles City Field Office","164","","K4Y8","SAND","","","","","","2017","2017/07/09 00:00:00+00","190","0945","Human","Equipment and vehicle use","","2017/07/10 00:00:00+00","191","0952","9.7","B","47.2824","-106.8736","PRIVATE","MT","Garfield","30033","Garfield County"
"-107.781088033","47.431692901","1900107","400021589","W-707559","FED","DOI-WFMI","BLM","USMTMCD","Miles City Field Office","MTMCD","Miles City Field Office","170","","K47D","RUSSELL","2017_7163557_RUSSELL","2017_7248803_BLUE RIDGE COMPLEX","","","BLUE RIDGE COMPLEX","2017","2017/07/10 00:00:00+00","191","1601","Natural","Natural","","2017/07/13 00:00:00+00","194","0800","300","E","47.4317","-107.7811","BLM","MT","Garfield","30033","Garfield County"
"-107.762488098","47.134392928","1900108","400021590","W-705672","FED","DOI-WFMI","BLM","USMTMCD","Miles City Field Office","MTMCD","Miles City Field Office","173","","K460","LELIG","2017_7179429_LELIG","","MT4713410776220170710","LELIG","","2017","2017/07/10 00:00:00+00","191","1500","Natural","Natural","","2017/07/12 00:00:00+00","193","1333","2229.4","F","47.1344","-107.7625","PRIVATE","MT","Garfield","30033","Garfield County"
"-105.809688709","46.369192829","1900109","400021591","W-713181","FED","DOI-WFMI","BLM","USMTMCD","Miles City Field Office","MTMCD","Miles City Field Office","174","","K47Q","MILE MARKER 4","2017_7164028_MILE MARKER 4","","MT4636910581020170711","MILE MARKER 4","","2017","2017/07/10 00:00:00+00","191","1813","Natural","Natural","","2017/07/10 00:00:00+00","191","2300","1478.7","F","46.3692","-105.8097","PRIVATE","MT","Custer","30017","Custer County"
"-107.783088029","47.448592899","1900110","400021592","W-712107","FED","DOI-WFMI","BLM","USMTMCD","Miles City Field Office","MTMCD","Miles City Field Office","176","","K472","CURRY","2017_7164546_CURRY","2017_7248803_BLUE RIDGE COMPLEX","MT4744910778120170711","CURRY","BLUE RIDGE COMPLEX","2017","2017/07/10 00:00:00+00","191","1836","Natural","Natural","","2017/07/17 00:00:00+00","198","1835","3772.3","F","47.4486","-107.7831","BLM","MT","Garfield","30033","Garfield County"
"-107.790288036","47.406392904","1900111","400021593","W-713616","FED","DOI-WFMI","BLM","USMTMCD","Miles City Field Office","MTMCD","Miles City Field Office","177","","K47C","WESTHOLDER","2017_7163951_WESTHOLDER","2017_7248803_BLUE RIDGE COMPLEX","","","BLUE RIDGE COMPLEX","2017","2017/07/10 00:00:00+00","191","1840","Natural","Natural","","2017/07/11 00:00:00+00","192","1100","201.2","D","47.4064","-107.7903","BLM","MT","Garfield","30033","Garfield County"
"-105.875588691","46.383092833","1900112","400021594","W-707578","FED","DOI-WFMI","BLM","USMTMCD","Miles City Field Office","MTMCD","Miles City Field Office","179","","K47M","GERMAINE","2017_7164008_GERMAINE","2017_7248803_BLUE RIDGE COMPLEX","","","BLUE RIDGE COMPLEX","2017","2017/07/10 00:00:00+00","191","1916","Natural","Natural","","2017/07/17 00:00:00+00","198","1835","34.1","C","46.3831","-105.8756","BLM","MT","Garfield","30033","Garfield County"
"-107.269988292","46.737792923","1900113","400021595","W-713376","FED","DOI-WFMI","BLM","USMTMCD","Miles City Field Office","MTMCD","Miles City Field Office","183","","K5Z4","MCGINNIS CREEK","","","","","","2017","2017/07/10 00:00:00+00","191","2050","Natural","Natural","","2017/07/15 00:00:00+00","196","1000","628.9","E","46.7378","-107.27","PRIVATE","MT","Rosebud","30087","Rosebud County"
"-107.828888026","47.408892907","1900114","400021596","W-712653","FED","DOI-WFMI","BLM","USMTMCD","Miles City Field Office","MTMCD","Miles City Field Office","186","","K48R","5011","","2017_7248803_BLUE RIDGE COMPLEX","","","BLUE RIDGE COMPLEX","2017","2017/07/11 00:00:00+00","192","0827","Natural","Natural","","2017/07/13 00:00:00+00","194","0800","201","D","47.4089","-107.8289","BLM","MT","Garfield","30033","Garfield County"
"-106.268588784","45.354992981","1900115","400021597","W-705557","FED","DOI-WFMI","BLM","USMTMCD","Miles City Field Office","MTMCD","Miles City Field Office","188","","K497","SOAP","","","","","","2017","2017/07/11 00:00:00+00","192","1300","Natural","Natural","","2017/07/11 00:00:00+00","192","1630","1.6","B","45.355","-106.2686","USFS","MT","Rosebud","30087","Rosebud County"
"-107.792788092","47.125592932","1900116","400021598","W-705673","FED","DOI-WFMI","BLM","USMTMCD","Miles City Field Office","MTMCD","Miles City Field Office","191","","K495","COULEE","2017_7219279_COULEE","","","","","2017","2017/07/10 00:00:00+00","191","1500","Natural","Natural","","2017/07/12 00:00:00+00","193","1400","205.7","D","47.1256","-107.7928","PRIVATE","MT","Garfield","30033","Garfield County"
"-105.893888923","45.064192982","1900117","400021599","W-705655","FED","DOI-WFMI","BLM","USMTMCD","Miles City Field Office","MTMCD","Miles City Field Office","192","","K5CV","MOORHEAD","","","","","","2017","2017/07/11 00:00:00+00","192","1900","Natural","Natural","","2017/07/11 00:00:00+00","192","2100","0.1","A","45.0642","-105.8939","PRIVATE","MT","Powder River","30075","Powder River County"
"-105.910588911","45.107492978","1900118","400021600","W-705737","FED","DOI-WFMI","BLM","USMTMCD","Miles City Field Office","MTMCD","Miles City Field Office","193","","K5CQ","HIGHLINE","","","","","","2017","2017/07/12 00:00:00+00","193","0000","Natural","Natural","","2017/07/12 00:00:00+00","193","1800","0.1","A","45.1075","-105.9106","BLM","MT","Powder River","30075","Powder River County"
"-104.683088879","46.922192668","1900119","400021603","W-708004","FED","DOI-WFMI","BLM","USMTMCD","Miles City Field Office","MTMCD","Miles City Field Office","203","","K5LU","CEDAR CREEK","2017_7136058_CEDAR CREEK","","","","","2017","2017/07/14 00:00:00+00","195","1508","Human","Equipment and vehicle use","","2017/07/16 00:00:00+00","197","1600","479.5","E","46.9222","-104.6831","PRIVATE","MT","Dawson","30021","Dawson County"
"-106.816688581","45.766692984","1900120","400021604","W-707234","FED","DOI-WFMI","BLM","USMTMCD","Miles City Field Office","MTMCD","Miles City Field Office","207","","K5Q9","BASELINE","","","","","","2017","2017/07/15 00:00:00+00","196","1545","Natural","Natural","","2017/07/17 00:00:00+00","198","1503","362.7","E","45.7667","-106.8167","PRIVATE","MT","Rosebud","30087","Rosebud County"
"-106.569688644","45.741692965","1900121","400021605","W-706397","FED","DOI-WFMI","BLM","USMTMCD","Miles City Field Office","MTMCD","Miles City Field Office","210","","K5S3","DOWNEY","","","","","","2017","2017/07/16 00:00:00+00","197","1200","Natural","Natural","","2017/07/18 00:00:00+00","199","1145","8.7","B","45.7417","-106.5697","BLM","MT","Rosebud","30087","Rosebud County"
"-107.950588031","47.246092935","1900122","400021606","W-706292","FED","DOI-WFMI","BLM","USMTMCD","Miles City Field Office","MTMCD","Miles City Field Office","213","","K5S7","BRIDGE","","","","","","2017","2017/07/16 00:00:00+00","197","1330","Natural","Natural","","2017/07/16 00:00:00+00","197","1823","4.5","B","47.2461","-107.9506","PRIVATE","MT","Garfield","30033","Garfield County"
"-106.844388566","45.814992982","1900123","400021607","W-706213","FED","DOI-WFMI","BLM","USMTMCD","Miles City Field Office","MTMCD","Miles City Field Office","215","","K5TR","ROUGH","","","","","","2017","2017/07/16 00:00:00+00","197","1502","Natural","Natural","","2017/07/17 00:00:00+00","198","1916","32","C","45.815","-106.8444","STATE","MT","Rosebud","30087","Rosebud County"
"-106.182488751","45.652792941","1900124","400021608","W-706205","FED","DOI-WFMI","BLM","USMTMCD","Miles City Field Office","MTMCD","Miles City Field Office","216","","K5WH","COOK","","","","","","2017","2017/07/16 00:00:00+00","197","1837","Natural","Natural","","2017/07/18 00:00:00+00","199","1200","2.1","B","45.6528","-106.1825","USFS","MT","Powder River","30075","Powder River County"
"-105.32418891","45.913592836","1900125","400021609","W-707987","FED","DOI-WFMI","BLM","USMTMCD","Miles City Field Office","MTMCD","Miles City Field Office","219","","K5W2","MAXWELL BUTTE","2017_7361519_MAXWELL BUTTE","","","","","2017","2017/07/16 00:00:00+00","197","2005","Natural","Natural","","2017/07/18 00:00:00+00","199","2046","988.2","E","45.9136","-105.3242","PRIVATE","MT","Custer","30017","Custer County"
"-104.139989257","45.579992772","1900126","400021610","W-706165","FED","DOI-WFMI","BLM","USMTMCD","Miles City Field Office","MTMCD","Miles City Field Office","220","","K5VT","BENNY SPRING","","","","","","2017","2017/07/16 00:00:00+00","197","2000","Natural","Natural","","2017/07/17 00:00:00+00","198","1210","0.5","B","45.58","-104.14","USFS","MT","Carter","30011","Carter County"
"-103.841889299","45.761392725","1900127","400021611","W-706546","FED","DOI-WFMI","BLM","USMTMCD","Miles City Field Office","MTMCD","Miles City Field Office","224","","K5W1","ROCK BUTTE","","","","","","2017","2017/07/17 00:00:00+00","198","1030","Natural","Natural","","2017/07/17 00:00:00+00","198","1830","27.2","C","45.7614","-103.8419","PRIVATE","SD","Harding","46063","Harding County"
"-106.875288561","45.803592986","1900128","400021612","W-706376","FED","DOI-WFMI","BLM","USMTMCD","Miles City Field Office","MTMCD","Miles City Field Office","225","","K5Z5","WELL SPRING","","","","","","2017","2017/07/17 00:00:00+00","198","1643","Natural","Natural","","2017/07/17 00:00:00+00","198","1917","16.2","C","45.8036","-106.8753","PRIVATE","MT","Big Horn","30003","Big Horn County"
"-106.245588736","45.653592946","1900129","400021613","W-706325","FED","DOI-WFMI","BLM","USMTMCD","Miles City Field Office","MTMCD","Miles City Field Office","226","","K57D","DOUBLE E","","","","","","2017","2017/07/17 00:00:00+00","198","2000","Natural","Natural","","2017/07/17 00:00:00+00","198","2207","12.9","C","45.6536","-106.2456","PRIVATE","MT","Rosebud","30087","Rosebud County"
"-105.79968895","45.031892977","1900130","400021614","W-706488","FED","DOI-WFMI","BLM","USMTMCD","Miles City Field Office","MTMCD","Miles City Field Office","231","","K50U","DRY CREEK","","","","","","2017","2017/07/18 00:00:00+00","199","1300","Natural","Natural","","2017/07/20 00:00:00+00","201","1310","9.3","B","45.0319","-105.7997","BLM","MT","Powder River","30075","Powder River County"
"-106.302788791","45.265592994","1900131","400021615","W-706458","FED","DOI-WFMI","BLM","USMTMCD","Miles City Field Office","MTMCD","Miles City Field Office","232","","K50V","3X","","","","","","2017","2017/07/18 00:00:00+00","199","1145","Natural","Natural","","2017/07/19 00:00:00+00","200","2045","7.1","B","45.2656","-106.3028","USFS","MT","Rosebud","30087","Rosebud County"
"-106.294688769","45.402792978","1900132","400021616","W-706432","FED","DOI-WFMI","BLM","USMTMCD","Miles City Field Office","MTMCD","Miles City Field Office","233","","K50T","PITTMAN","","","","","","2017","2017/07/18 00:00:00+00","199","1230","Natural","Natural","","2017/07/19 00:00:00+00","200","1250","0.4","B","45.4028","-106.2947","USFS","MT","Rosebud","30087","Rosebud County"
"-106.35388876","45.373592987","1900133","400021617","W-707330","FED","DOI-WFMI","BLM","USMTMCD","Miles City Field Office","MTMCD","Miles City Field Office","234","","K50Y","GREEN","","","","","","2017","2017/07/18 00:00:00+00","199","1340","Natural","Natural","","2017/07/20 00:00:00+00","201","1553","0.7","B","45.3736","-106.3539","USFS","MT","Rosebud","30087","Rosebud County"
"-106.161088818","45.302792978","1900134","400021618","W-707569","FED","DOI-WFMI","BLM","USMTMCD","Miles City Field Office","MTMCD","Miles City Field Office","236","","K509","BRIAN","","","","","","2017","2017/07/18 00:00:00+00","199","1527","Natural","Natural","","2017/07/19 00:00:00+00","200","1830","1","B","45.3028","-106.1611","USFS","MT","Powder River","30075","Powder River County"
"-106.178288797","45.399392968","1900135","400021619","W-707652","FED","DOI-WFMI","BLM","USMTMCD","Miles City Field Office","MTMCD","Miles City Field Office","237","","K51U","DROP TUBE","","","","","","2017","2017/07/18 00:00:00+00","199","1631","Natural","Natural","","2017/07/20 00:00:00+00","201","1601","1.5","B","45.3994","-106.1783","STATE","MT","Powder River","30075","Powder River County"
"-104.776089029","45.99059278","1900136","400021620","W-707535","FED","DOI-WFMI","BLM","USMTMCD","Miles City Field Office","MTMCD","Miles City Field Office","240","","K52B","TRANMOE ISLAND","","","","","","2017","2017/07/18 00:00:00+00","199","1731","Natural","Natural","","2017/07/18 00:00:00+00","199","2114","22.5","C","45.9906","-104.7761","PRIVATE","MT","Dawson","30021","Dawson County"
"-107.649688078","47.359692895","1900137","400021621","W-713538","FED","DOI-WFMI","BLM","USMTMCD","Miles City Field Office","MTMCD","Miles City Field Office","243","","K7BT","SQUARE BUTTE","2017_7224901_SQUARE BUTTE","2017_7269467_LODGEPOLE COMPLEX","","","LODGEPOLE COMPLEX","2017","2017/07/19 00:00:00+00","200","1248","Natural","Natural","","2017/07/20 00:00:00+00","201","0800","800","E","47.3597","-107.6497","BLM","MT","Garfield","30033","Garfield County"
"-107.866388037","47.31329292","1900138","400021622","W-708161","FED","DOI-WFMI","BLM","USMTMCD","Miles City Field Office","MTMCD","Miles City Field Office","246","","K7A1","BARKER","2017_7225264_BARKER","2017_7269467_LODGEPOLE COMPLEX","MT4721710790020170719","BRIDGE COULEE","LODGEPOLE COMPLEX","2017","2017/07/19 00:00:00+00","200","1309","Natural","Natural","","2017/08/11 00:00:00+00","223","1730","9255","G","47.3133","-107.8664","PRIVATE","MT","Garfield","30033","Garfield County"
"-107.616388081","47.38329289","1900139","400021623","W-713531","FED","DOI-WFMI","BLM","USMTMCD","Miles City Field Office","MTMCD","Miles City Field Office","247","","K7BS","SOUTH BREAKS","2017_7226628_SOUTH BREAKS","2017_7269467_LODGEPOLE COMPLEX","MT4738310761620170719","SOUTH BREAKS","LODGEPOLE COMPLEX","2017","2017/07/19 00:00:00+00","200","1451","Natural","Natural","","2017/07/24 00:00:00+00","205","1730","10407.5","G","47.3833","-107.6164","BLM","MT","Garfield","30033","Garfield County"
"-107.899388049","47.216692933","1900140","400021624","W-708014","FED","DOI-WFMI","BLM","USMTMCD","Miles City Field Office","MTMCD","Miles City Field Office","247","","K7CL","BRIDGE COULEE","2017_7227018_BRIDGE COULEE","2017_7269467_LODGEPOLE COMPLEX","MT4721710790020170719","BRIDGE COULEE","LODGEPOLE COMPLEX","2017","2017/07/19 00:00:00+00","200","1500","Natural","Natural","","2017/08/02 00:00:00+00","214","1730","270723.3","G","47.2167","-107.8994","BLM","MT","Garfield","30033","Garfield County"
"-106.799688591","45.736092986","1900141","400021625","W-713334","FED","DOI-WFMI","BLM","USMTMCD","Miles City Field Office","MTMCD","Miles City Field Office","249","","K7C1","COTTONWOOD","2017_7227061_COTTONWOOD - ROSEBUD","","MT4573610679920170719","COTTONWOOD","","2017","2017/07/19 00:00:00+00","200","1523","Natural","Natural","","2017/07/20 00:00:00+00","201","1830","1407.3","F","45.7361","-106.7997","PRIVATE","MT","Rosebud","30087","Rosebud County"
"-105.72918882","45.869192877","1900142","400021626","W-706579","FED","DOI-WFMI","BLM","USMTMCD","Miles City Field Office","MTMCD","Miles City Field Office","253","","K7G9","BASIN CREEK","2017_7253215_BASIN CREEK","","","","","2017","2017/07/20 00:00:00+00","201","1530","Natural","Natural","","2017/07/21 00:00:00+00","202","2123","888.4","E","45.8692","-105.7292","PRIVATE","MT","Custer","30017","Custer County"
"-106.172188769","45.564992949","1900143","400021627","W-707834","FED","DOI-WFMI","BLM","USMTMCD","Miles City Field Office","MTMCD","Miles City Field Office","257","","K7HA","212","","","","","","2017","2017/07/20 00:00:00+00","201","1812","Natural","Natural","","2017/07/20 00:00:00+00","201","2018","11.1","C","45.565","-106.1722","PRIVATE","MT","Powder River","30075","Powder River County"
"-104.73438864","48.06189255","1900144","400021628","W-710277","FED","DOI-WFMI","BLM","USMTMCD","Miles City Field Office","MTMCD","Miles City Field Office","259","","K7PD","YOOPER","2017_7281292_YOOPER","","MT4806210473420170720","YOOPER","","2017","2017/07/20 00:00:00+00","201","1934","Human","Equipment and vehicle use","","2017/07/23 00:00:00+00","204","1700","7816.9","G","48.0619","-104.7344","PRIVATE","MT","Richland","30083","Richland County"
"-106.176088756","45.633892942","1900145","400021629","W-707836","FED","DOI-WFMI","BLM","USMTMCD","Miles City Field Office","MTMCD","Miles City Field Office","263","","K7LJ","COLBERT COULEE","","","","","","2017","2017/07/21 00:00:00+00","202","1435","Natural","Natural","","2017/07/22 00:00:00+00","203","1248","3.4","B","45.6339","-106.1761","USFS","MT","Powder River","30075","Powder River County"
"-104.226889212","45.714192764","1900146","400021631","W-706659","FED","DOI-WFMI","BLM","USMTMCD","Miles City Field Office","MTMCD","Miles City Field Office","266","","K7PM","HALBERT","","","","","","2017","2017/07/22 00:00:00+00","203","1530","Natural","Natural","","2017/07/23 00:00:00+00","204","1800","8.2","B","45.7142","-104.2269","USFS","MT","Carter","30011","Carter County"
"-106.029808853","45.283142968","1900147","400021632","W-706883","FED","DOI-WFMI","BLM","USMTMCD","Miles City Field Office","MTMCD","Miles City Field Office","267","","K7VM","DRY LAKE","","","","","","2017","2017/07/23 00:00:00+00","204","1750","Natural","Natural","","2017/07/25 00:00:00+00","206","0924","38.9","C","45.28315","-106.02982","USFS","MT","Powder River","30075","Powder River County"
"-104.740589173","45.214192866","1900148","400021633","W-706914","FED","DOI-WFMI","BLM","USMTMCD","Miles City Field Office","MTMCD","Miles City Field Office","269","","K7WG","PETERS","","","","","","2017","2017/07/24 00:00:00+00","205","0700","Natural","Natural","","2017/07/24 00:00:00+00","205","1830","4.3","B","45.2142","-104.7406","BLM","MT","Carter","30011","Carter County"
"-105.741088902","45.391692931","1900149","400021634","W-706913","FED","DOI-WFMI","BLM","USMTMCD","Miles City Field Office","MTMCD","Miles City Field Office","270","","K7VV","TWO TREE","","","","","","2017","2017/07/24 00:00:00+00","205","0630","Natural","Natural","","2017/07/24 00:00:00+00","205","1430","1.7","B","45.3917","-105.7411","PRIVATE","MT","Powder River","30075","Powder River County"
"-105.733088965","45.04109297","1900150","400021635","W-708008","FED","DOI-WFMI","BLM","USMTMCD","Miles City Field Office","MTMCD","Miles City Field Office","274","","K7W3","BUFFALO","","","","","","2017","2017/07/24 00:00:00+00","205","1145","Natural","Natural","","2017/07/30 00:00:00+00","211","2359","3071.8","F","45.0411","-105.7331","PRIVATE","WY","Campbell","56005","Campbell County"
"-104.324389145","45.957492744","1900151","400021636","W-706827","FED","DOI-WFMI","BLM","USMTMCD","Miles City Field Office","MTMCD","Miles City Field Office","278","","K70D","BIG SAGE","","","","","","2017","2017/07/24 00:00:00+00","205","2350","Natural","Natural","","2017/07/25 00:00:00+00","206","1320","55.9","C","45.9575","-104.3244","PRIVATE","MT","Carter","30011","Carter County"
"-106.124988767","45.638892937","1900152","400021637","W-707745","FED","DOI-WFMI","BLM","USMTMCD","Miles City Field Office","MTMCD","Miles City Field Office","279","","K70V","DAILY DOUBLE","","","","","","2017","2017/07/25 00:00:00+00","206","0743","Natural","Natural","","2017/07/25 00:00:00+00","206","1345","5.3","B","45.6389","-106.125","USFS","MT","Powder River","30075","Powder River County"
"-106.351688389","47.346092775","1900153","400021638","W-707545","FED","DOI-WFMI","BLM","USMTMCD","Miles City Field Office","MTMCD","Miles City Field Office","282","","K74B","LITTLE DRY CREEK","","","","","","2017","2017/07/25 00:00:00+00","206","0805","Human","Equipment and vehicle use","","2017/07/25 00:00:00+00","206","0856","0.1","A","47.3461","-106.3517","PRIVATE","MT","Garfield","30033","Garfield County"
"-106.046888793","45.595792935","1900154","400021639","W-707573","FED","DOI-WFMI","BLM","USMTMCD","Miles City Field Office","MTMCD","Miles City Field Office","283","","K709","EAST FORK","","","","","","2017","2017/07/25 00:00:00+00","206","0955","Natural","Natural","","2017/07/27 00:00:00+00","208","1408","16.8","C","45.5958","-106.0469","USFS","MT","Powder River","30075","Powder River County"
"-104.833889025","45.930792791","1900155","400021640","W-707023","FED","DOI-WFMI","BLM","USMTMCD","Miles City Field Office","MTMCD","Miles City Field Office","284","","K71J","COFFEE POT","2017_7174565_COFFEE POT","","MT4593110483420170725","COFFEE POT","","2017","2017/07/25 00:00:00+00","206","1030","Natural","Natural","","2017/07/27 00:00:00+00","208","1430","1960.4","F","45.9308","-104.8339","PRIVATE","MT","Carter","30011","Carter County"
"-106.003888839","45.396092954","1900156","400021641","W-706950","FED","DOI-WFMI","BLM","USMTMCD","Miles City Field Office","MTMCD","Miles City Field Office","288","","K71H","JACOBS","","","","","","2017","2017/07/25 00:00:00+00","206","1139","Natural","Natural","","2017/07/26 00:00:00+00","207","1508","0.3","B","45.3961","-106.0039","USFS","MT","Powder River","30075","Powder River County"
"-105.97388854","47.046892771","1900157","400021642","W-707577","FED","DOI-WFMI","BLM","USMTMCD","Miles City Field Office","MTMCD","Miles City Field Office","299","","K79G","SOUTH","","","","","","2017","2017/07/27 00:00:00+00","208","1234","Natural","Natural","","2017/07/27 00:00:00+00","208","2000","74.3","C","47.0469","-105.9739","BLM","MT","Prairie","30079","Prairie County"
"-105.816888578","47.044392757","1900158","400021643","W-708427","FED","DOI-WFMI","BLM","USMTMCD","Miles City Field Office","MTMCD","Miles City Field Office","300","","K787","TIMBER","","","","","","2017","2017/07/27 00:00:00+00","208","1240","Natural","Natural","","2017/07/27 00:00:00+00","208","1958","6.4","B","47.0444","-105.8169","BLM","MT","Prairie","30079","Prairie County"
"-107.843888109","46.982925951","1900159","400021644","W-707004","FED","DOI-WFMI","BLM","USMTMCD","Miles City Field Office","MTMCD","Miles City Field Office","303","","K79F","FORT","","","","","","2017","2017/07/27 00:00:00+00","208","1415","Natural","Natural","","2017/07/27 00:00:00+00","208","1830","0.1","A","46.982933","-107.8439","BLM","MT","Garfield","30033","Garfield County"
"-104.456089135","45.83189277","1900160","400021645","W-707037","FED","DOI-WFMI","BLM","USMTMCD","Miles City Field Office","MTMCD","Miles City Field Office","306","","K8BE","CONGER HILL","","","","","","2017","2017/07/28 00:00:00+00","209","0700","Natural","Natural","","2017/07/28 00:00:00+00","209","1615","0.1","A","45.8319","-104.4561","USFS","MT","Carter","30011","Carter County"
"-106.270588772","45.418092974","1900161","400021646","W-707128","FED","DOI-WFMI","BLM","USMTMCD","Miles City Field Office","MTMCD","Miles City Field Office","309","","K8CV","O DELL CREEK","","","","","","2017","2017/07/28 00:00:00+00","209","1229","Natural","Natural","","2017/07/29 00:00:00+00","210","1341","3.5","B","45.4181","-106.2706","USFS","MT","Rosebud","30087","Rosebud County"
"-106.328288681","45.849992932","1900162","400021647","W-713588","FED","DOI-WFMI","BLM","USMTMCD","Miles City Field Office","MTMCD","Miles City Field Office","320","","K8GH","TREMBLING","2017_7303686_TREMBLING","","","","","2017","2017/07/29 00:00:00+00","210","1743","Natural","Natural","","2017/07/31 00:00:00+00","212","1630","972.5","E","45.85","-106.3283","PRIVATE","MT","Rosebud","30087","Rosebud County"
"-105.967488619","46.643892814","1900163","400021648","W-707643","FED","DOI-WFMI","BLM","USMTMCD","Miles City Field Office","MTMCD","Miles City Field Office","322","","K8KF","LITTLE PUMPKIN","","","","","","2017","2017/07/30 00:00:00+00","211","1600","Human","Power generation/transmission/distribution","","2017/08/01 00:00:00+00","213","2100","30","C","46.6439","-105.9675","USFS","MT","Powder River","30075","Powder River County"
"-103.468889386","45.794692689","1900164","400021649","W-707644","FED","DOI-WFMI","BLM","USMTMCD","Miles City Field Office","MTMCD","Miles City Field Office","325","","K8NU","BULL CREEK","","","","","","2017","2017/07/31 00:00:00+00","212","1705","Natural","Natural","","2017/08/01 00:00:00+00","213","0638","0.3","B","45.7947","-103.4689","USFS","SD","Harding","46063","Harding County"
"-103.511889368","45.834992688","1900165","400021650","W-707396","FED","DOI-WFMI","BLM","USMTMCD","Miles City Field Office","MTMCD","Miles City Field Office","326","","K8NQ","ICE BOX","","","","","","2017","2017/07/31 00:00:00+00","212","1730","Natural","Natural","","2017/08/01 00:00:00+00","213","1200","0.1","A","45.835","-103.5119","USFS","SD","Harding","46063","Harding County"
"-103.442189388","45.822792684","1900166","400021651","W-707393","FED","DOI-WFMI","BLM","USMTMCD","Miles City Field Office","MTMCD","Miles City Field Office","327","","K8NV","DAVID DRAW","","","","","","2017","2017/07/31 00:00:00+00","212","1745","Natural","Natural","","2017/07/31 00:00:00+00","212","2038","0.1","A","45.8228","-103.4422","USFS","SD","Harding","46063","Harding County"
"-104.203289234","45.623292772","1900167","400021652","W-707647","FED","DOI-WFMI","BLM","USMTMCD","Miles City Field Office","MTMCD","Miles City Field Office","330","","K8PG","LOST","","","","","","2017","2017/07/31 00:00:00+00","212","2200","Natural","Natural","","2017/08/01 00:00:00+00","213","1015","0.1","A","45.6233","-104.2033","USFS","MT","Carter","30011","Carter County"
"-104.189989236","45.63139277","1900168","400021653","W-710083","FED","DOI-WFMI","BLM","USMTMCD","Miles City Field Office","MTMCD","Miles City Field Office","331","","K8PF","SPEELMON CREEK","","","","","","2017","2017/07/31 00:00:00+00","212","2243","Natural","Natural","","2017/08/01 00:00:00+00","213","0808","0.1","A","45.6314","-104.19","USFS","MT","Carter","30011","Carter County"
"-105.791388838","45.689992902","1900169","400021655","W-707286","FED","DOI-WFMI","BLM","USMTMCD","Miles City Field Office","MTMCD","Miles City Field Office","333","","K8PS","KIWAH","","","","","","2017","2017/08/01 00:00:00+00","213","0300","Natural","Natural","","2017/08/01 00:00:00+00","213","0630","83.2","C","45.69","-105.7914","PRIVATE","MT","Powder River","30075","Powder River County"
"-105.736688903","45.391092931","1900170","400021656","W-707557","FED","DOI-WFMI","BLM","USMTMCD","Miles City Field Office","MTMCD","Miles City Field Office","334","","K8P2","ANGELWING","","","","","","2017","2017/08/01 00:00:00+00","213","0500","Natural","Natural","","2017/08/01 00:00:00+00","213","1720","30.1","C","45.3911","-105.7367","BLM","MT","Custer","30017","Custer County"
"-104.189389239","45.614692772","1900171","400021657","W-707482","FED","DOI-WFMI","BLM","USMTMCD","Miles City Field Office","MTMCD","Miles City Field Office","335","","K8P3","BIRCH","","","","","","2017","2017/08/01 00:00:00+00","213","0430","Natural","Natural","","2017/08/01 00:00:00+00","213","1010","0.1","A","45.6147","-104.1894","USFS","MT","Carter","30011","Carter County"
"-105.370788857","46.142792815","1900172","400021658","W-708056","FED","DOI-WFMI","BLM","USMTMCD","Miles City Field Office","MTMCD","Miles City Field Office","336","","K8QH","MILES CITY","","","","","","2017","2017/08/01 00:00:00+00","213","0841","Natural","Natural","","2017/08/02 00:00:00+00","214","1500","19.4","C","46.1428","-105.3708","BLM","MT","Custer","30017","Custer County"
"-106.016388787","45.672492924","1900173","400021659","W-707494","FED","DOI-WFMI","BLM","USMTMCD","Miles City Field Office","MTMCD","Miles City Field Office","338","","K8QK","MILLS","","","","","","2017","2017/08/01 00:00:00+00","213","1135","Natural","Natural","","2017/08/02 00:00:00+00","214","1701","22.8","C","45.6725","-106.0164","USFS","MT","Powder River","30075","Powder River County"
"-104.99078913","45.112192899","1900174","400021661","W-707841","FED","DOI-WFMI","BLM","USMTMCD","Miles City Field Office","MTMCD","Miles City Field Office","340","","K8WM","HW BUTTE","","","","","","2017","2017/08/01 00:00:00+00","213","1725","Natural","Natural","","2017/08/01 00:00:00+00","213","1923","5.5","B","45.1122","-104.9908","PRIVATE","MT","Carter","30011","Carter County"
"-105.599688947","45.328592926","1900175","400021662","W-708015","FED","DOI-WFMI","BLM","USMTMCD","Miles City Field Office","MTMCD","Miles City Field Office","344","","K8UN","CACHE CREEK","","","","","","2017","2017/08/02 00:00:00+00","214","1144","Natural","Natural","","2017/08/09 00:00:00+00","221","1505","76.2","C","45.3286","-105.5997","BLM","MT","Powder River","30075","Powder River County"
"-105.72028892","45.318892938","1900176","400021663","W-707489","FED","DOI-WFMI","BLM","USMTMCD","Miles City Field Office","MTMCD","Miles City Field Office","345","","K8UZ","FIRE GULTCH","","","","","","2017","2017/08/02 00:00:00+00","214","1515","Natural","Natural","","2017/08/03 00:00:00+00","215","0956","0.1","A","45.3189","-105.7203","BLM","MT","Powder River","30075","Powder River County"
"-105.733588907","45.376692932","1900177","400021664","W-707478","FED","DOI-WFMI","BLM","USMTMCD","Miles City Field Office","MTMCD","Miles City Field Office","346","","K8UY","BUCK","","","","","","2017","2017/08/02 00:00:00+00","214","1515","Natural","Natural","","2017/08/03 00:00:00+00","215","0834","2.4","B","45.3767","-105.7336","PRIVATE","MT","Powder River","30075","Powder River County"
"-104.368589196","45.605792788","1900178","400021665","W-707641","FED","DOI-WFMI","BLM","USMTMCD","Miles City Field Office","MTMCD","Miles City Field Office","353","","K805","COON","","","","","","2017","2017/08/04 00:00:00+00","216","1600","Human","Equipment and vehicle use","","2017/08/04 00:00:00+00","216","2200","155.5","D","45.6058","-104.3686","PRIVATE","MT","Carter","30011","Carter County"
"-107.609988072","47.433292884","1900179","400021666","W-708413","FED","DOI-WFMI","BLM","USMTMCD","Miles City Field Office","MTMCD","Miles City Field Office","355","","K815","NOON","","","","","","2017","2017/08/05 00:00:00+00","217","1103","Natural","Natural","","2017/08/06 00:00:00+00","218","1318","2","B","47.4333","-107.61","BLM","MT","Garfield","30033","Garfield County"
"-105.4996888","46.283292811","1900180","400021667","W-713476","FED","DOI-WFMI","BLM","USMTMCD","Miles City Field Office","MTMCD","Miles City Field Office","359","","K82D","SMOKEOFF","","","","","","2017","2017/08/05 00:00:00+00","217","1609","Natural","Natural","","2017/08/06 00:00:00+00","218","1540","43.3","C","46.2833","-105.4997","PRIVATE","MT","Custer","30017","Custer County"
"-105.970588816","45.571092931","1900181","400021668","W-707855","FED","DOI-WFMI","BLM","USMTMCD","Miles City Field Office","MTMCD","Miles City Field Office","364","","K844","WILBUR","","","","","","2017","2017/08/07 00:00:00+00","219","1130","Natural","Natural","","2017/08/10 00:00:00+00","222","1215","35","C","45.5711","-105.9706","USFS","MT","Powder River","30075","Powder River County"
"-104.677549079","45.847162787","1900182","400021669","W-707857","FED","DOI-WFMI","BLM","USMTMCD","Miles City Field Office","MTMCD","Miles City Field Office","367","","K88F","BEAVER FLAT","","","","","","2017","2017/08/08 00:00:00+00","220","1350","Natural","Natural","","2017/08/08 00:00:00+00","220","1545","34.9","C","45.84717","-104.67756","PRIVATE","MT","Carter","30011","Carter County"
"-104.649689114","45.684192804","1900183","400021670","W-707794","FED","DOI-WFMI","BLM","USMTMCD","Miles City Field Office","MTMCD","Miles City Field Office","368","","K88K","LONE TREE","","","","","","2017","2017/08/08 00:00:00+00","220","1400","Natural","Natural","","2017/08/09 00:00:00+00","221","1504","163.3","D","45.6842","-104.6497","BLM","MT","Carter","30011","Carter County"
"-106.769988722","45.034693061","1900184","400021671","W-707902","FED","DOI-WFMI","BLM","USMTMCD","Miles City Field Office","MTMCD","Miles City Field Office","369","","K88Q","COAL","2017_7394039_COAL","","","","","2017","2017/08/08 00:00:00+00","220","1418","Human","Equipment and vehicle use","","2017/08/09 00:00:00+00","221","1600","686.1","E","45.0347","-106.77","PRIVATE","MT","Big Horn","30003","Big Horn County"
"-104.549689187","45.404192827","1900185","400021672","W-713456","FED","DOI-WFMI","BLM","USMTMCD","Miles City Field Office","MTMCD","Miles City Field Office","371","","K88Y","POTATO","2017_7400136_POTATO","","MT4535410454920170808","POTATO","","2017","2017/08/08 00:00:00+00","220","1536","Natural","Natural","","2017/08/11 00:00:00+00","223","1800","1094.9","F","45.4042","-104.5497","PRIVATE","MT","Carter","30011","Carter County"
"-104.574689196","45.31499284","1900186","400021673","W-713603","FED","DOI-WFMI","BLM","USMTMCD","Miles City Field Office","MTMCD","Miles City Field Office","372","","K89J","TWIN BUTTES","","","","","","2017","2017/08/08 00:00:00+00","220","1553","Natural","Natural","","2017/08/09 00:00:00+00","221","1600","200.6","D","45.315","-104.5747","PRIVATE","MT","Carter","30011","Carter County"
"-106.188188433","47.324612762","1900187","400021674","W-710673","FED","DOI-WFMI","BLM","USMTMCD","Miles City Field Office","MTMCD","Miles City Field Office","373","","K88X","FLOWING","","","","","","2017","2017/08/08 00:00:00+00","220","1630","Human","Equipment and vehicle use","","2017/08/08 00:00:00+00","220","1839","4.7","B","47.32462","-106.1882","PRIVATE","MT","Garfield","30033","Garfield County"
"-104.346389175","45.758592769","1900188","400021675","W-708055","FED","DOI-WFMI","BLM","USMTMCD","Miles City Field Office","MTMCD","Miles City Field Office","374","","K89Q","MCCABE","","","","","","2017","2017/08/08 00:00:00+00","220","1945","Natural","Natural","","2017/08/09 00:00:00+00","221","2105","2.2","B","45.7586","-104.3464","PRIVATE","MT","Carter","30011","Carter County"
"-106.954188516","45.948292977","1900189","400021676","W-713574","FED","DOI-WFMI","BLM","USMTMCD","Miles City Field Office","MTMCD","Miles City Field Office","397","","K9KK","TRAIL","2017_7281837_TRAIL","","","","","2017","2017/08/12 00:00:00+00","224","1423","Natural","Natural","","2017/08/14 00:00:00+00","226","1030","356.3","E","45.9483","-106.9542","PRIVATE","MT","Treasure","30103","Treasure County"
"-104.954189128","45.175792888","1900190","400021677","W-707954","FED","DOI-WFMI","BLM","USMTMCD","Miles City Field Office","MTMCD","Miles City Field Office","399","","K9KD","HARRINGTON","","","","","","2017","2017/08/12 00:00:00+00","224","1445","Natural","Natural","","2017/08/12 00:00:00+00","224","1940","2.5","B","45.1758","-104.9542","PRIVATE","MT","Carter","30011","Carter County"
"-105.257788726","46.984392713","1900191","400021678","W-708011","FED","DOI-WFMI","BLM","USMTMCD","Miles City Field Office","MTMCD","Miles City Field Office","400","","K9LF","HENDRICKSON COULEE","","","","","","2017","2017/08/12 00:00:00+00","224","1511","Natural","Natural","","2017/08/12 00:00:00+00","224","1844","7.8","B","46.9844","-105.2578","PRIVATE","MT","Prairie","30079","Prairie County"
"-105.541088675","46.890292749","1900192","400021679","W-713364","FED","DOI-WFMI","BLM","USMTMCD","Miles City Field Office","MTMCD","Miles City Field Office","401","","K9KV","JACKSON","","","","","","2017","2017/08/12 00:00:00+00","224","1550","Natural","Natural","","2017/08/12 00:00:00+00","224","2145","14.2","C","46.8903","-105.5411","PRIVATE","MT","Prairie","30079","Prairie County"
"-105.599988657","46.909392752","1900193","400021680","W-708429","FED","DOI-WFMI","BLM","USMTMCD","Miles City Field Office","MTMCD","Miles City Field Office","402","","K9KM","CHERRY","2017_7274291_CHERRY","","","","","2017","2017/08/12 00:00:00+00","224","1557","Natural","Natural","","2017/08/12 00:00:00+00","224","1900","606.1","E","46.9094","-105.6","BLM","MT","Prairie","30079","Prairie County"
"-104.690789159","45.369692843","1900194","400021681","W-707996","FED","DOI-WFMI","BLM","USMTMCD","Miles City Field Office","MTMCD","Miles City Field Office","406","","K9PZ","TAUCK","2017_7302396_TAULK","","","","","2017","2017/08/14 00:00:00+00","226","1715","Natural","Natural","","2017/08/14 00:00:00+00","226","2113","383.5","E","45.3697","-104.6908","PRIVATE","MT","Carter","30011","Carter County"
"-105.921188899","45.164775972","1900195","400021682","W-708268","FED","DOI-WFMI","BLM","USMTMCD","Miles City Field Office","MTMCD","Miles City Field Office","431","","K9W2","SPRING CREEK","","","","","","2017","2017/08/17 00:00:00+00","229","1855","Natural","Natural","","2017/08/17 00:00:00+00","229","2345","44.8","C","45.164783","-105.9212","PRIVATE","MT","Powder River","30075","Powder River County"
"-106.215013747","45.635388945","1900196","400021683","W-708397","FED","DOI-WFMI","BLM","USMTMCD","Miles City Field Office","MTMCD","Miles City Field Office","435","","K912","DUD","2017_7215778_DUD","","MT4562710621720170821","DUD","","2017","2017/08/21 00:00:00+00","233","1419","Natural","Natural","","2017/08/22 00:00:00+00","234","1812","1137.2","F","45.635396","-106.215025","PRIVATE","MT","Powder River","30075","Powder River County"
"-105.846888905","45.233292958","1900197","400021684","W-709011","FED","DOI-WFMI","BLM","USMTMCD","Miles City Field Office","MTMCD","Miles City Field Office","479","","LAC4","PRONG","","","","","","2017","2017/08/24 00:00:00+00","236","1716","Natural","Natural","","2017/08/25 00:00:00+00","237","1704","0.7","B","45.2333","-105.8469","USFS","MT","Powder River","30075","Powder River County"
"-106.294660769","45.401560978","1900198","400021685","W-708704","FED","DOI-WFMI","BLM","USMTMCD","Miles City Field Office","MTMCD","Miles City Field Office","481","","LAB9","GOOSEBERRY","","","","","","2017","2017/08/24 00:00:00+00","236","1744","Natural","Natural","","2017/08/26 00:00:00+00","238","1710","9.7","B","45.401568","-106.294672","USFS","MT","Rosebud","30087","Rosebud County"
"-106.258088671","45.99609291","1900199","400021686","W-710998","FED","DOI-WFMI","BLM","USMTMCD","Miles City Field Office","MTMCD","Miles City Field Office","486","","LAB6","1026","2017_7408776_1026","","MT4599610625820170824","1026","","2017","2017/08/24 00:00:00+00","236","1832","Natural","Natural","","2017/09/03 00:00:00+00","246","0800","8043.3","G","45.9961","-106.2581","PRIVATE","MT","Rosebud","30087","Rosebud County"
"-106.5010886","46.066692924","1900200","400021687","W-713175","FED","DOI-WFMI","BLM","USMTMCD","Miles City Field Office","MTMCD","Miles City Field Office","487","","LAC1","MITCHELL","2017_7407873_MITCHELL","","MT4605110647720170825","MITCHELL","","2017","2017/08/24 00:00:00+00","236","1842","Natural","Natural","","2017/08/27 00:00:00+00","239","1445","1247.3","F","46.0667","-106.5011","PRIVATE","MT","Rosebud","30087","Rosebud County"
"-107.049688306","46.929992883","1900201","400021688","W-713611","FED","DOI-WFMI","BLM","USMTMCD","Miles City Field Office","MTMCD","Miles City Field Office","489","","LAC6","WEST","2017_7408721_WEST","","","","","2017","2017/08/24 00:00:00+00","236","1933","Natural","Natural","","2017/08/25 00:00:00+00","237","0036","308.6","E","46.93","-107.0497","PRIVATE","MT","Garfield","30033","Garfield County"
"-107.221521213","47.190875872","1900202","400021689","W-708617","FED","DOI-WFMI","BLM","USMTMCD","Miles City Field Office","MTMCD","Miles City Field Office","491","","LAC8","BIG DRY","","","","","","2017","2017/08/24 00:00:00+00","236","2000","Human","Equipment and vehicle use","","2017/08/24 00:00:00+00","236","2033","2","B","47.190883","-107.221533","PRIVATE","MT","Garfield","30033","Garfield County"
"-107.363588158","47.296692875","1900203","400021690","W-713357","FED","DOI-WFMI","BLM","USMTMCD","Miles City Field Office","MTMCD","Miles City Field Office","492","","LAC7","EDWARDS","2017_7408753_EDWARDS","","MT4729710736420170825","EDWARDS","","2017","2017/08/24 00:00:00+00","236","2042","Natural","Natural","","2017/08/25 00:00:00+00","237","1520","1052.5","F","47.2967","-107.3636","PRIVATE","MT","Garfield","30033","Garfield County"
"-104.666888897","46.848292674","1900204","400021691","W-708761","FED","DOI-WFMI","BLM","USMTMCD","Miles City Field Office","MTMCD","Miles City Field Office","494","","LAD6","SAGEBRUSH DRAW","2017_7245506_SAGEBRUSH DRAW","","","","","2017","2017/08/25 00:00:00+00","237","0400","Natural","Natural","","2017/08/27 00:00:00+00","239","1900","658.7","E","46.8483","-104.6669","BLM","MT","Prairie","30079","Prairie County"
"-105.985788826","45.494192941","1900205","400021692","W-708774","FED","DOI-WFMI","BLM","USMTMCD","Miles City Field Office","MTMCD","Miles City Field Office","502","","LAF7","THREE","2017_7247401_THREE","","","","","2017","2017/08/25 00:00:00+00","237","1400","Natural","Natural","","2017/08/29 00:00:00+00","241","1823","189.5","D","45.4942","-105.9858","USFS","MT","Powder River","30075","Powder River County"
"-105.93218884","45.485792937","1900206","400021693","W-709237","FED","DOI-WFMI","BLM","USMTMCD","Miles City Field Office","MTMCD","Miles City Field Office","504","","LAH5","DOONAN","2017_7249037_DOONAN","","","","","2017","2017/08/25 00:00:00+00","237","1630","Natural","Natural","","2017/09/07 00:00:00+00","250","1630","864.7","E","45.4858","-105.9322","USFS","MT","Custer","30017","Custer County"
"-105.611088986","45.087192955","1900207","400021694","W-709458","FED","DOI-WFMI","BLM","USMTMCD","Miles City Field Office","MTMCD","Miles City Field Office","508","","LAW1","BAY HORSE","2017_7363235_BAY HORSE","","","","","2017","2017/08/26 00:00:00+00","238","1618","Natural","Natural","","2017/08/27 00:00:00+00","239","1710","724.4","E","45.0872","-105.6111","PRIVATE","MT","Powder River","30075","Powder River County"
"-106.899988571","45.714992997","1900208","400021695","W-713174","FED","DOI-WFMI","BLM","USMTMCD","Miles City Field Office","MTMCD","Miles City Field Office","526","","LA0Q","LYNCH","","","","","","2017","2017/08/28 00:00:00+00","240","1233","Natural","Natural","","2017/08/29 00:00:00+00","241","1700","12.3","C","45.715","-106.9","PRIVATE","MT","Rosebud","30087","Rosebud County"
"-106.008888777","45.738592916","1900209","400021696","W-709027","FED","DOI-WFMI","BLM","USMTMCD","Miles City Field Office","MTMCD","Miles City Field Office","543","","LA4R","SARTIN DRAW","2017_7314071_SARTIN DRAW","","MT4573910600920170830","SARTIN DRAW","","2017","2017/08/30 00:00:00+00","242","0500","Natural","Natural","","2017/09/11 00:00:00+00","254","0800","99714","G","45.7386","-106.0089","USFS","MT","Powder River","30075","Powder River County"
"-104.458589184","45.553592802","1900210","400021697","W-709018","FED","DOI-WFMI","BLM","USMTMCD","Miles City Field Office","MTMCD","Miles City Field Office","544","","LA54","HANSEN","","","","","","2017","2017/08/30 00:00:00+00","242","0830","Human","Other causes","","2017/08/30 00:00:00+00","242","1750","1","B","45.5536","-104.4586","PRIVATE","MT","Carter","30011","Carter County"
"-106.245008761","45.516272961","1900211","400021698","W-709116","FED","DOI-WFMI","BLM","USMTMCD","Miles City Field Office","MTMCD","Miles City Field Office","548","","LA70","PASS","","","","","","2017","2017/08/30 00:00:00+00","242","2130","Natural","Natural","","2017/08/31 00:00:00+00","243","1700","18.5","C","45.51628","-106.24502","PRIVATE","MT","Rosebud","30087","Rosebud County"
"-106.324988825","45.041693021","1900212","400021699","W-709221","FED","DOI-WFMI","BLM","USMTMCD","Miles City Field Office","MTMCD","Miles City Field Office","549","","LA74","TIDWELL","2017_7251037_TIDWELL","","WY4495610647120170831","DEER CREEK","BATTLE COMPLEX","2017","2017/08/30 00:00:00+00","242","1100","Natural","Natural","","2017/09/04 00:00:00+00","247","1700","11285.3","G","45.0417","-106.325","PRIVATE","MT","Big Horn","30003","Big Horn County"
"-106.585788749","45.122793035","1900213","400021700","W-713071","FED","DOI-WFMI","BLM","USMTMCD","Miles City Field Office","MTMCD","Miles City Field Office","552","","LA85","BRUSH FLAT","2017_7218928_BRUSH FLAT","","WY4495610647120170831","DEER CREEK","BATTLE COMPLEX","2017","2017/08/31 00:00:00+00","243","0818","Natural","Natural","","2017/09/04 00:00:00+00","247","1800","39386.9","G","45.1228","-106.5858","PRIVATE","WY","Sheridan","56033","Sheridan County"
"-106.29968868","45.895292924","1900214","400021701","W-713031","FED","DOI-WFMI","BLM","USMTMCD","Miles City Field Office","MTMCD","Miles City Field Office","557","","LA9G","SNIDER","2017_7218828_SNIDER","","MT4589510629920170831","SNIDER","","2017","2017/08/31 00:00:00+00","243","1221","Natural","Natural","","2017/09/01 00:00:00+00","244","1200","6642.8","G","45.8953","-106.2997","PRIVATE","MT","Rosebud","30087","Rosebud County"
"-104.706089077","45.816392793","1900215","400021702","W-709460","FED","DOI-WFMI","BLM","USMTMCD","Miles City Field Office","MTMCD","Miles City Field Office","558","","LBL8","BIG HILL","","","","","","2017","2017/08/31 00:00:00+00","243","1656","Natural","Natural","","2017/08/31 00:00:00+00","243","1918","1","B","45.8164","-104.7061","PRIVATE","MT","Carter","30011","Carter County"
"-104.75998915","45.320292855","1900216","400021703","W-709020","FED","DOI-WFMI","BLM","USMTMCD","Miles City Field Office","MTMCD","Miles City Field Office","559","","LA93","BOXELDER","","","","","","2017","2017/08/31 00:00:00+00","243","1738","Natural","Natural","","2017/08/31 00:00:00+00","243","1947","250","D","45.3203","-104.76","PRIVATE","MT","Carter","30011","Carter County"
"-106.455288557","46.358892888","1900217","400021704","W-710675","FED","DOI-WFMI","BLM","USMTMCD","Miles City Field Office","MTMCD","Miles City Field Office","562","","LBD4","QUARTER","2017_7215308_QUARTER","","","","","2017","2017/09/01 00:00:00+00","244","0814","Natural","Natural","","2017/09/01 00:00:00+00","244","1900","308.1","E","46.3589","-106.4553","PRIVATE","MT","Rosebud","30087","Rosebud County"
"-106.783088583","45.800292978","1900218","400021705","W-709089","FED","DOI-WFMI","BLM","USMTMCD","Miles City Field Office","MTMCD","Miles City Field Office","563","","LBD6","SARPY FORK","2017_7215859_SARPY FORK","","","","","2017","2017/09/01 00:00:00+00","244","1027","Natural","Natural","","2017/09/02 00:00:00+00","245","1856","362","E","45.8003","-106.7831","PRIVATE","MT","Rosebud","30087","Rosebud County"
"-106.720588722","45.097193049","1900219","400021706","W-709461","FED","DOI-WFMI","BLM","USMTMCD","Miles City Field Office","MTMCD","Miles City Field Office","565","","LBE5","BRAVO","","","","","","2017","2017/09/01 00:00:00+00","244","1440","Natural","Natural","","2017/09/03 00:00:00+00","246","1030","1","B","45.0972","-106.7206","PRIVATE","MT","Big Horn","30003","Big Horn County"
"-104.975289127","45.152192893","1900220","400021707","W-712579","FED","DOI-WFMI","BLM","USMTMCD","Miles City Field Office","MTMCD","Miles City Field Office","566","","LB6H","BOGNER","","","","","","2017","2017/09/01 00:00:00+00","244","1547","Natural","Natural","","2017/09/07 00:00:00+00","250","1905","8.3","B","45.1522","-104.9753","PRIVATE","MT","Carter","30011","Carter County"
"-107.789988118","47.000592944","1900221","400021708","W-709340","FED","DOI-WFMI","BLM","USMTMCD","Miles City Field Office","MTMCD","Miles City Field Office","573","","LB0K","DOG CREEK","","","","","","2017","2017/09/04 00:00:00+00","247","2230","Human","Equipment and vehicle use","","2017/09/05 00:00:00+00","248","1000","2","B","47.0006","-107.79","BLM","MT","Garfield","30033","Garfield County"
"-106.333088682","45.836092934","1900222","400021709","W-709408","FED","DOI-WFMI","BLM","USMTMCD","Miles City Field Office","MTMCD","Miles City Field Office","577","","LB57","HART","","","","","","2017","2017/09/07 00:00:00+00","250","1400","Natural","Natural","","2017/09/09 00:00:00+00","252","1130","166.7","D","45.8361","-106.3331","PRIVATE","MT","Rosebud","30087","Rosebud County"
"-106.100288761","45.706892927","1900223","400021710","W-709403","FED","DOI-WFMI","BLM","USMTMCD","Miles City Field Office","MTMCD","Miles City Field Office","580","","LB7F","SCHILLER CREEK","","","","","","2017","2017/09/08 00:00:00+00","251","0530","Natural","Natural","","2017/09/08 00:00:00+00","251","1755","3.2","B","45.7069","-106.1003","STATE","MT","Powder River","30075","Powder River County"
"-105.845788921","45.141092969","1900224","400021711","W-709983","FED","DOI-WFMI","BLM","USMTMCD","Miles City Field Office","MTMCD","Miles City Field Office","591","","LCQ1","DUTCH","","","","","","2017","2017/09/11 00:00:00+00","254","1730","Natural","Natural","","2017/09/13 00:00:00+00","256","1238","48.5","C","45.1411","-105.8458","STATE","MT","Powder River","30075","Powder River County"
"-106.733088591","45.817792971","1900225","400021712","W-713610","FED","DOI-WFMI","BLM","USMTMCD","Miles City Field Office","MTMCD","Miles City Field Office","592","","LCR3","UNIFORM","","","","","","2017","2017/09/11 00:00:00+00","254","1548","Natural","Natural","","2017/09/12 00:00:00+00","255","1530","129.2","D","45.8178","-106.7331","PRIVATE","MT","Rosebud","30087","Rosebud County"
"-104.28138929","45.18749283","1900226","400021713","W-710028","FED","DOI-WFMI","BLM","USMTMCD","Miles City Field Office","MTMCD","Miles City Field Office","596","","LC1R","DANNY","","","","","","2017","2017/09/13 00:00:00+00","256","1200","Human","Equipment and vehicle use","","2017/09/13 00:00:00+00","256","1505","15.9","C","45.1875","-104.2814","PRIVATE","MT","Carter","30011","Carter County"
"-104.28328929","45.182192831","1900227","400021714","W-710030","FED","DOI-WFMI","BLM","USMTMCD","Miles City Field Office","MTMCD","Miles City Field Office","597","","LC1S","DIVIDE","","","","","","2017","2017/09/13 00:00:00+00","256","1230","Human","Equipment and vehicle use","","2017/09/13 00:00:00+00","256","1505","83","C","45.1822","-104.2833","PRIVATE","MT","Carter","30011","Carter County"
"-106.936221251","47.33875983","1900228","400021715","W-712762","FED","DOI-WFMI","BLM","USMTMCD","Miles City Field Office","MTMCD","Miles City Field Office","614","","LGE4","OCTOBER","","","","","","2017","2017/10/25 00:00:00+00","298","2110","Human","Other causes","","2017/10/26 00:00:00+00","299","0012","0.1","A","47.338767","-106.936233","PRIVATE","MT","Garfield","30033","Garfield County"
"-106.344218788","45.225013002","1900229","400021716","W-714194","FED","DOI-WFMI","BLM","USMTMCD","Miles City Field Office","MTMCD","Miles City Field Office","616","","LH4J","HAMILTON DRAW","","","","","","2017","2017/11/30 00:00:00+00","334","1037","Human","Recreation and ceremony","","2017/12/01 00:00:00+00","335","1320","0.5","B","45.22502","-106.34423","USFS","MT","Rosebud","30087","Rosebud County"
"-113.388603923","46.831293501","1900230","400021717","W-700203","FED","DOI-WFMI","BLM","USMTMFD","Missoula Field Office","MTMFD","Missoula Field Office","46","","KR4C","UNION PEAK CAMPFIRE","","","","","","2016","2016/08/22 00:00:00+00","235","1503","Human","Recreation and ceremony","","2016/08/22 00:00:00+00","235","1705","0.1","A","46.8313","-113.388617","BLM","MT","Granite","30039","Granite County"
"-112.84065706","46.720663456","1900231","400021718","W-700198","FED","DOI-WFMI","BLM","USMTMFD","Missoula Field Office","MTMFD","Missoula Field Office","2026","","KN49","COTTONWOOD CREEK","","","","","","2016","2016/08/30 00:00:00+00","243","1450","Natural","Natural","","2016/08/31 00:00:00+00","244","1642","0.3","B","46.72067","-112.84067","BLM","MT","Powell","30077","Powell County"
"-112.878754045","46.751376457","1900232","400021719","W-700200","FED","DOI-WFMI","BLM","USMTMFD","Missoula Field Office","MTMFD","Missoula Field Office","2027","","KR39","WET COTTONWOOD","","","","","","2016","2016/09/01 00:00:00+00","245","1534","Natural","Natural","","2016/09/02 00:00:00+00","246","0857","0.1","A","46.751383","-112.878767","BLM","MT","Powell","30077","Powell County"
"-112.885086999","46.966626439","1900233","400021720","W-700204","FED","DOI-WFMI","BLM","USMTMFD","Missoula Field Office","MTMFD","Missoula Field Office","4036","","KR4D","ARRASTRA CREEK","","","","","","2016","2016/08/06 00:00:00+00","219","1559","Natural","Natural","","2016/08/06 00:00:00+00","219","1718","0.1","A","46.966633","-112.8851","BLM","MT","Powell","30077","Powell County"
"-112.854817056","46.726823457","1900234","400021721","W-713131","FED","DOI-WFMI","BLM","USMTMFD","Missoula Field Office","MTMFD","Missoula Field Office","15","","LG1L","NEVADA CREEK","","","","","","2017","2017/08/25 00:00:00+00","237","1130","Natural","Natural","","2017/08/26 00:00:00+00","238","0830","0.1","A","46.72683","-112.85483","BLM","MT","Powell","30077","Powell County"
"-106.748288623","45.624192994","1900235","400021722","W-690032","FED","DOI-WFMI","BIA","USMTNCA","Northern Cheyenne Agency","MTNCA","Northern Cheyenne Agency","1","","J6K5","MUDDY CLUSTER","","","","","","2016","2016/03/04 00:00:00+00","64","1550","Human","Recreation and ceremony","Minor","2016/03/05 00:00:00+00","65","1445","0.3","B","45.6242","-106.7483","BIA","MT","","",""
"-106.667188642","45.621692987","1900236","400021723","W-690033","FED","DOI-WFMI","BIA","USMTNCA","Northern Cheyenne Agency","MTNCA","Northern Cheyenne Agency","2","","J6MC","TOMMY'S LAGOON","","","","","","2016","2016/03/05 00:00:00+00","65","1300","Human","Misuse of fire by a minor","Minor","2016/03/06 00:00:00+00","66","1739","3","B","45.6217","-106.6672","BIA","MT","","",""
"-106.491088682","45.63309297","1900237","400021724","W-690035","FED","DOI-WFMI","BIA","USMTNCA","Northern Cheyenne Agency","MTNCA","Northern Cheyenne Agency","3","","J6MS","ASHLAND DIVIDE","","","","","","2016","2016/03/06 00:00:00+00","66","1425","Human","Misuse of fire by a minor","Minor","2016/03/07 00:00:00+00","67","1611","13","C","45.6331","-106.4911","BIA","MT","","",""
"-106.95968859","45.534393022","1900238","400021725","W-690036","FED","DOI-WFMI","BIA","USMTNCA","Northern Cheyenne Agency","MTNCA","Northern Cheyenne Agency","4","","J6VT","MAGIC CITY","","","","","","2016","2016/03/13 00:00:00+00","73","1430","Human","Missing data/not specified/undetermined","","2016/03/13 00:00:00+00","73","1630","0.3","B","45.5344","-106.9597","BIA","MT","","",""
"-106.672188642","45.619192988","1900239","400021726","W-690037","FED","DOI-WFMI","BIA","USMTNCA","Northern Cheyenne Agency","MTNCA","Northern Cheyenne Agency","5","","J61Q","CLAYHILL","","","","","","2016","2016/03/20 00:00:00+00","80","1535","Human","Missing data/not specified/undetermined","","2016/03/20 00:00:00+00","80","1714","0.3","B","45.6192","-106.6722","BIA","MT","","",""
"-106.646388648","45.614992986","1900240","400021727","W-689833","FED","DOI-WFMI","BIA","USMTNCA","Northern Cheyenne Agency","MTNCA","Northern Cheyenne Agency","6","","J63M","SOLIDER GULCH","","","","","","2016","2016/03/22 00:00:00+00","82","0720","Human","Missing data/not specified/undetermined","","2016/03/23 00:00:00+00","83","1200","1","B","45.615","-106.6464","BIA","MT","","",""
"-106.673588642","45.616912988","1900241","400021728","W-690171","FED","DOI-WFMI","BIA","USMTNCA","Northern Cheyenne Agency","MTNCA","Northern Cheyenne Agency","7","","J7N8","WESTSIDE","","","","","","2016","2016/04/03 00:00:00+00","94","1500","Human","Misuse of fire by a minor","Minor","2016/04/03 00:00:00+00","94","1525","0.3","B","45.61692","-106.6736","BIA","MT","","",""
"-106.536088687","45.544692984","1900242","400021729","W-690683","FED","DOI-WFMI","BIA","USMTNCA","Northern Cheyenne Agency","MTNCA","Northern Cheyenne Agency","8","","J73Z","TALL BULL","","","","","","2016","2016/04/13 00:00:00+00","104","1737","Human","Missing data/not specified/undetermined","","2016/04/13 00:00:00+00","104","1849","0.3","B","45.5447","-106.5361","BIA","MT","","",""
"-106.683588641","45.60859299","1900243","400021730","W-690686","FED","DOI-WFMI","BIA","USMTNCA","Northern Cheyenne Agency","MTNCA","Northern Cheyenne Agency","9","","J74T","TAHOE","","","","","","2016","2016/04/14 00:00:00+00","105","1610","Human","Missing data/not specified/undetermined","","2016/04/14 00:00:00+00","105","1705","0.3","B","45.6086","-106.6836","BIA","MT","","",""
"-107.002818591","45.467603033","1900244","400021731","W-691145","FED","DOI-WFMI","BIA","USMTNCA","Northern Cheyenne Agency","MTNCA","Northern Cheyenne Agency","10","","J8WH","FORTY","","","","","","2016","2016/05/06 00:00:00+00","127","1433","Human","Missing data/not specified/undetermined","","2016/05/07 00:00:00+00","128","1200","2.5","B","45.46761","-107.00283","BIA","MT","","",""
"-106.513288682","45.599692976","1900245","400021732","W-692002","FED","DOI-WFMI","BIA","USMTNCA","Northern Cheyenne Agency","MTNCA","Northern Cheyenne Agency","11","","J96M","LOGGING CREEK","","","","","","2016","2016/06/10 00:00:00+00","162","1322","Natural","Natural","","2016/06/11 00:00:00+00","163","1701","0.3","B","45.5997","-106.5133","BIA","MT","","",""
"-106.549988662","45.666892971","1900246","400021733","W-692091","FED","DOI-WFMI","BIA","USMTNCA","Northern Cheyenne Agency","MTNCA","Northern Cheyenne Agency","12","","KAP1","CBUTTE","","","","","","2016","2016/06/13 00:00:00+00","165","1909","Natural","Natural","","2016/06/14 00:00:00+00","166","1000","0.3","B","45.6669","-106.55","BIA","MT","","",""
"-106.608288648","45.665792977","1900247","400021734","W-692323","FED","DOI-WFMI","BIA","USMTNCA","Northern Cheyenne Agency","MTNCA","Northern Cheyenne Agency","13","","KA0X","SWEET MEDICINE","","","","","","2016","2016/06/15 00:00:00+00","167","2330","Human","Recreation and ceremony","","2016/06/16 00:00:00+00","168","0200","0.3","B","45.6658","-106.6083","BIA","MT","","",""
"-106.71188863","45.634392989","1900248","400021735","W-692327","FED","DOI-WFMI","BIA","USMTNCA","Northern Cheyenne Agency","MTNCA","Northern Cheyenne Agency","14","","KA61","LULU","","","","","","2016","2016/06/19 00:00:00+00","171","1419","Natural","Natural","","2016/06/20 00:00:00+00","172","1500","2","B","45.6344","-106.7119","BIA","MT","","",""
"-106.699388635","45.61999299","1900249","400021736","W-692552","FED","DOI-WFMI","BIA","USMTNCA","Northern Cheyenne Agency","MTNCA","Northern Cheyenne Agency","15","","KBN2","MEDICINEBIRD","","","","","","2016","2016/06/22 00:00:00+00","174","1520","Human","Equipment and vehicle use","","2016/06/23 00:00:00+00","175","2043","5","B","45.62","-106.6994","BIA","MT","","",""
