"ï»¿X","Y","OBJECTID","FOD_ID","FPA_ID","SOURCE_SYSTEM_TYPE","SOURCE_SYSTEM","NWCG_REPORTING_AGENCY","NWCG_REPORTING_UNIT_ID","NWCG_REPORTING_UNIT_NAME","SOURCE_REPORTING_UNIT","SOURCE_REPORTING_UNIT_NAME","LOCAL_FIRE_REPORT_ID","LOCAL_INCIDENT_ID","FIRE_CODE","FIRE_NAME","ICS_209_PLUS_INCIDENT_JOIN_ID","ICS_209_PLUS_COMPLEX_JOIN_ID","MTBS_ID","MTBS_FIRE_NAME","COMPLEX_NAME","FIRE_YEAR","DISCOVERY_DATE","DISCOVERY_DOY","DISCOVERY_TIME","NWCG_CAUSE_CLASSIFICATION","NWCG_GENERAL_CAUSE","NWCG_CAUSE_AGE_CATEGORY","CONT_DATE","CONT_DOY","CONT_TIME","FIRE_SIZE","FIRE_SIZE_CLASS","LATITUDE","LONGITUDE","OWNER_DESCR","STATE","COUNTY","FIPS_CODE","FIPS_NAME"
"-121.541275942","44.285674498","770001","872432","ODF-18254","NONFED","ST-ORORS","ST/C&L","USOR955S","Sisters Unit","ORODF-955","Sisters Unit","067","18254","","SCALE HOUSE #1","","","","","","1998","1998/08/15 00:00:00+00","227","","Human","Smoking","","1998/08/15 00:00:00+00","227","","0.2","A","44.28568","-121.54129","PRIVATE","OR","17","41017","Deschutes County"
"-124.210145673","43.543754802","770002","872433","ODF-19462","NONFED","ST-ORORS","ST/C&L","USOR721S","Coos Forest Protective Association","ORODF-721","Coos Bay","047","19462","","WILDWOOD DRIVE #1","","","","","","1999","1999/05/27 00:00:00+00","147","","Human","Debris and open burning","","1999/05/27 00:00:00+00","147","","0.01","A","43.54376","-124.21016","PRIVATE","OR","6","41011","Coos County"
"-121.878186239","42.293764665","770003","872434","ODF-19446","NONFED","ST-ORORS","ST/C&L","USOR981S","Klamath Unit","ORODF-981","Klamath Unit","151","19446","","SKILLET HANDLE","","","","","","1999","1999/05/20 00:00:00+00","140","","Human","Debris and open burning","","1999/05/20 00:00:00+00","140","","11","C","42.29377","-121.8782","PRIVATE","OR","18","41035","Klamath County"
"-123.224245358","45.879734572","770004","872435","ODF-19447","NONFED","ST-ORORS","ST/C&L","USOR532S","Columbia City Unit","ORODF-532","Colombia City Unit","059","19447","","FLACK ROAD #1","","","","","","1999","1999/05/21 00:00:00+00","141","","Human","Recreation and ceremony","","1999/05/21 00:00:00+00","141","","0.01","A","45.87974","-123.22426","PRIVATE","OR","9","41009","Columbia County"
"-122.139916222","42.148444699","770005","872436","ODF-19464","NONFED","ST-ORORS","ST/C&L","USOR981S","Klamath Unit","ORODF-981","Klamath Unit","155","19464","","LITTLE","","","","","","1999","1999/05/24 00:00:00+00","144","","Human","Recreation and ceremony","","1999/05/24 00:00:00+00","144","","0.01","A","42.14845","-122.13993","PRIVATE","OR","18","41035","Klamath County"
"-121.381895808","45.105094429","770006","872437","ODF-19456","NONFED","ST-ORORS","ST/C&L","USOR954S","The Dalles Unit","ORODF-954","The Dalles Unit","075","19456","","PINE GROVE","","","","","","1999","1999/05/23 00:00:00+00","143","","Human","Debris and open burning","","1999/05/23 00:00:00+00","143","","0.3","B","45.1051","-121.38191","PRIVATE","OR","65","41065","Wasco County"
"-123.8865352","46.146404627","770007","872438","ODF-19460","NONFED","ST-ORORS","ST/C&L","USOR520S","Astoria District","ORODF-521","Astoria District","068","19460","","AIRPORT HILL","","","","","","1999","1999/05/26 00:00:00+00","146","","Human","Missing data/not specified/undetermined","","1999/05/26 00:00:00+00","146","","0.1","A","46.14641","-123.88655","PRIVATE","OR","4","41007","Clatsop County"
"-122.233706212","42.125214709","770008","872439","ODF-19445","NONFED","ST-ORORS","ST/C&L","USOR981S","Klamath Unit","ORODF-981","Klamath Unit","150","19445","","LONG","","","","","","1999","1999/05/19 00:00:00+00","139","","Human","Recreation and ceremony","","1999/05/19 00:00:00+00","139","","1","B","42.12522","-122.23372","PRIVATE","OR","18","41035","Klamath County"
"-121.548196051","43.687144538","770009","872440","ODF-19475","NONFED","ST-ORORS","ST/C&L","USOR955S","Sisters Unit","ORODF-955","Sisters Unit","172","19475","","LACAR","","","","","","1999","1999/05/29 00:00:00+00","149","","Human","Misuse of fire by a minor","Minor","1999/05/29 00:00:00+00","149","","1","B","43.68715","-121.54821","PRIVATE","OR","17","41017","Deschutes County"
"-123.319115809","43.513314719","770010","872441","ODF-61152","NONFED","ST-ORORS","ST/C&L","USOR730S","Douglas Forest Protective Association","ORODF-731","Douglas North","069","61152","","MAJESTIC LANE","","","","","","2001","2001/07/13 00:00:00+00","194","","Human","Equipment and vehicle use","","2001/07/13 00:00:00+00","194","","0.01","A","43.51332","-123.31913","PRIVATE","OR","10","41019","Douglas County"
"-124.191545717","43.310194814","770011","872442","ODF-61157","NONFED","ST-ORORS","ST/C&L","USOR721S","Coos Forest Protective Association","ORODF-721","Coos Bay","008","61157","","ISTHMUS SLOUGH","","","","","","2001","2001/07/14 00:00:00+00","195","","Human","Arson/incendiarism","","2001/07/14 00:00:00+00","195","","0.01","A","43.3102","-124.19156","COUNTY","OR","6","41011","Coos County"
"-123.33943601","42.333904795","770012","872446","ODF-19495","NONFED","ST-ORORS","ST/C&L","USOR712S","Grants Pass Unit","ORODF-712","Grants Pass Unit","290","19495","","LONG ACRES","","","","","","1999","1999/06/01 00:00:00+00","152","","Human","Smoking","Minor","1999/06/02 00:00:00+00","153","","0.1","A","42.33391","-123.33945","PRIVATE","OR","33","41033","Josephine County"
"-122.629365713","44.586794586","770013","872447","ODF-61122","NONFED","ST-ORORS","ST/C&L","USOR772S","Sweet Home Unit - ODF","ORODF-772","Sweet Home Unit","016","61122","","HAMMOND 25 FIRE","","","","","","2001","2001/07/15 00:00:00+00","196","","Natural","Natural","","2001/07/15 00:00:00+00","196","","0.1","A","44.5868","-122.62938","PRIVATE","OR","22","41043","Linn County"
"-123.647685809","43.241874767","770014","872449","ODF-61146","NONFED","ST-ORORS","ST/C&L","USOR730S","Douglas Forest Protective Association","ORODF-732","Douglas South","059","61146","","LONG RIDGE","","","","","","2001","2001/07/11 00:00:00+00","192","","Natural","Natural","","2001/07/11 00:00:00+00","192","","0.01","A","43.24188","-123.6477","PRIVATE","OR","10","41019","Douglas County"
"-123.443325986","42.387464801","770015","872450","ODF-19490","NONFED","ST-ORORS","ST/C&L","USOR712S","Grants Pass Unit","ORODF-712","Grants Pass Unit","286","19490","","SLEEPY HOLLOW LOOP","","","","","","1999","1999/05/30 00:00:00+00","150","","Human","Debris and open burning","","1999/05/30 00:00:00+00","150","","1","B","42.38747","-123.44334","PRIVATE","OR","33","41033","Josephine County"
"-123.235825946","42.805804755","770016","872451","ODF-61150","NONFED","ST-ORORS","ST/C&L","USOR730S","Douglas Forest Protective Association","ORODF-732","Douglas South","068","61150","","BAIT AND TACKLE","","","","","","2001","2001/07/14 00:00:00+00","195","","Human","Smoking","","2001/07/14 00:00:00+00","195","","0.01","A","42.80581","-123.23584","PRIVATE","OR","10","41019","Douglas County"
"-123.959995184","46.171414633","770017","872453","ODF-61116","NONFED","ST-ORORS","ST/C&L","USOR520S","Astoria District","ORODF-521","Astoria District","011","61116","","COFFENBURY LAKE FIRE","","","","","","2001","2001/07/14 00:00:00+00","195","","Human","Misuse of fire by a minor","Minor","2001/07/14 00:00:00+00","195","","0.01","A","46.17142","-123.96001","STATE","OR","4","41007","Clatsop County"
"-120.87338641","42.22500458","770018","872454","ODF-61145","NONFED","ST-ORORS","ST/C&L","USOR982S","Lake Unit","ORODF-982","Lake Unit","040","61145","","LAPHAM # 248","","","","","","2001","2001/07/14 00:00:00+00","195","","Natural","Natural","","2001/07/15 00:00:00+00","196","","0.1","A","42.22501","-120.8734","PRIVATE","OR","37","41037","Lake County"
"-118.109076308","45.396454083","770019","872456","ODF-61225","NONFED","ST-ORORS","ST/C&L","USOR971S","LaGrande District","ORODF-971","LaGrande District","006","61225","","OWSLEY CANYON","","","","","","2001","2001/07/17 00:00:00+00","198","","Human","Recreation and ceremony","","2001/07/17 00:00:00+00","198","","0.1","A","45.39646","-118.10909","PRIVATE","OR","61","41061","Union County"
"-123.350915467","45.267274619","770020","872458","ODF-19498","NONFED","ST-ORORS","ST/C&L","USOR530S","Forest Grove District","ORODF-531","Forest Grove District","083","19498","","4-5-6 ROAD FIRE","","","","","","1999","1999/05/30 00:00:00+00","150","","Human","Recreation and ceremony","","1999/05/30 00:00:00+00","150","","0.15","A","45.26728","-123.35093","BLM","OR","36","41071","Yamhill County"
"-121.577096044","43.70148454","770021","872459","ODF-19499","NONFED","ST-ORORS","ST/C&L","USOR955S","Sisters Unit","ORODF-955","Sisters Unit","173","19499","","POWERLINE #1","","","","","","1999","1999/06/04 00:00:00+00","155","","Human","Debris and open burning","","1999/06/04 00:00:00+00","155","","0.25","A","43.70149","-121.57711","PRIVATE","OR","17","41017","Deschutes County"
"-123.501815968","42.445724803","770022","872461","ODF-19492","NONFED","ST-ORORS","ST/C&L","USOR712S","Grants Pass Unit","ORODF-712","Grants Pass Unit","288","19492","","PP # D 3858","","","","","","1999","1999/05/31 00:00:00+00","151","","Human","Power generation/transmission/distribution","","1999/05/31 00:00:00+00","151","","0.1","A","42.44573","-123.50183","BLM","OR","33","41033","Josephine County"
"-122.852985797","43.962374646","770023","872463","ODF-61188","NONFED","ST-ORORS","ST/C&L","USOR771S","East Lane Unit - ODF","ORODF-771","East Lane Unit","011","61188","","PENGRA RIDGE","","","","","","2001","2001/07/18 00:00:00+00","199","","Human","Debris and open burning","","2001/07/18 00:00:00+00","199","","0.01","A","43.96238","-122.853","PRIVATE","OR","20","41039","Lane County"
"-122.62800615","42.136344744","770024","872464","ODF-61229","NONFED","ST-ORORS","ST/C&L","USOR711S","Medford Unit","ORODF-711","Medford Unit","079","61229","","HWY. 99","","","","","","2001","2001/07/19 00:00:00+00","200","","Natural","Natural","","2001/07/19 00:00:00+00","200","","0.25","A","42.13635","-122.62802","PRIVATE","OR","29","41029","Jackson County"
"-123.020445971","42.847624733","770025","872465","ODF-61183","NONFED","ST-ORORS","ST/C&L","USOR730S","Douglas Forest Protective Association","ORODF-732","Douglas South","067","61183","","FRENCH CREEK","","","","","","2001","2001/07/10 00:00:00+00","191","","Natural","Natural","","2001/07/10 00:00:00+00","191","","0.01","A","42.84763","-123.02046","PRIVATE","OR","10","41019","Douglas County"
"-123.498995757","43.650534728","770026","872466","ODF-19451","NONFED","ST-ORORS","ST/C&L","USOR730S","Douglas Forest Protective Association","ORODF-731","Douglas North","122","19451","","HANCOCK MOUNTAIN","","","","","","1999","1999/05/22 00:00:00+00","142","","Human","Power generation/transmission/distribution","","1999/05/22 00:00:00+00","142","","5.38","B","43.65054","-123.49901","PRIVATE","OR","10","41019","Douglas County"
"-123.588005777","43.470554747","770027","872469","ODF-61189","NONFED","ST-ORORS","ST/C&L","USOR730S","Douglas Forest Protective Association","ORODF-731","Douglas North","057","61189","","WOLF CREEK","","","","","","2001","2001/07/10 00:00:00+00","191","","Natural","Natural","","2001/07/10 00:00:00+00","191","","0.01","A","43.47056","-123.58802","PRIVATE","OR","10","41019","Douglas County"
"-121.454236043","43.813974521","770028","872470","ODF-61233","NONFED","ST-ORORS","ST/C&L","USOR955S","Sisters Unit","ORODF-955","Sisters Unit","031","61233","","MEADOW # 1","","","","","","2001","2001/07/19 00:00:00+00","200","","Human","Recreation and ceremony","","2001/07/19 00:00:00+00","200","","0.01","A","43.81398","-121.45425","PRIVATE","OR","17","41017","Deschutes County"
"-123.51108598","42.361664809","770029","872471","ODF-19470","NONFED","ST-ORORS","ST/C&L","USOR712S","Grants Pass Unit","ORODF-712","Grants Pass Unit","284","19470","","ELLIOTT CREEK","","","","","","1999","1999/05/28 00:00:00+00","148","","Human","Debris and open burning","","1999/05/28 00:00:00+00","148","","0.25","A","42.36167","-123.5111","PRIVATE","OR","33","41033","Josephine County"
"-123.340295936","42.773744767","770030","872472","ODF-61165","NONFED","ST-ORORS","ST/C&L","USOR730S","Douglas Forest Protective Association","ORODF-732","Douglas South","026","61165","","AZALEA GLEN #1","","","","","","2001","2001/07/10 00:00:00+00","191","","Natural","Natural","","2001/07/10 00:00:00+00","191","","0.01","A","42.77375","-123.34031","PRIVATE","OR","10","41019","Douglas County"
"-123.365025936","42.755624771","770031","872473","ODF-61166","NONFED","ST-ORORS","ST/C&L","USOR730S","Douglas Forest Protective Association","ORODF-732","Douglas South","031","61166","","AZALEA GLEN #2","","","","","","2001","2001/07/10 00:00:00+00","191","","Natural","Natural","","2001/07/10 00:00:00+00","191","","0.01","A","42.75563","-123.36504","PRIVATE","OR","10","41019","Douglas County"
"-121.650365643","45.701444419","770032","872474","ODF-61201","NONFED","ST-ORORS","ST/C&L","USOR954S","The Dalles Unit","ORODF-954","The Dalles Unit","016","61201","","MP 56","","","","","","2001","2001/07/18 00:00:00+00","199","","Human","Railroad operations and maintenance","","2001/07/18 00:00:00+00","199","","0.01","A","45.70145","-121.65038","MISSING/NOT SPECIFIED","OR","14","41027","Hood River County"
"-123.519135246","46.190144586","770033","872475","ODF-3722","NONFED","ST-ORORS","ST/C&L","USOR520S","Astoria District","ORODF-521","Astoria District","036","3722","","DAVIS BOTTOM","","","","","","1993","1993/10/03 00:00:00+00","276","","Human","Misuse of fire by a minor","Minor","1993/10/03 00:00:00+00","276","","0.01","A","46.19015","-123.51915","PRIVATE","OR","4","41007","Clatsop County"
"-122.922766038","42.540154744","770034","872476","ODF-61266","NONFED","ST-ORORS","ST/C&L","USOR711S","Medford Unit","ORODF-711","Medford Unit","084","61266","","SWEET","","","","","","2001","2001/07/21 00:00:00+00","202","","Human","Misuse of fire by a minor","Minor","2001/07/21 00:00:00+00","202","","3","B","42.54016","-122.92278","PRIVATE","OR","29","41029","Jackson County"
"-121.539856147","43.154314574","770035","872478","ODF-61245","NONFED","ST-ORORS","ST/C&L","USOR981S","Klamath Unit","ORODF-981","Klamath Unit","086","61245","","O'CONNER","","","","","","2001","2001/07/20 00:00:00+00","201","","Natural","Natural","","2001/07/20 00:00:00+00","201","","0.01","A","43.15432","-121.53987","PRIVATE","OR","18","41035","Klamath County"
"-123.015825971","42.854974732","770036","872479","ODF-61181","NONFED","ST-ORORS","ST/C&L","USOR730S","Douglas Forest Protective Association","ORODF-732","Douglas South","060","61181","","GREEN BUTTE","","","","","","2001","2001/07/11 00:00:00+00","192","","Natural","Natural","","2001/07/11 00:00:00+00","192","","0.02","A","42.85498","-123.01584","BLM","OR","10","41019","Douglas County"
"-121.204556226","43.008444553","770037","872480","ODF-61248","NONFED","ST-ORORS","ST/C&L","USOR982S","Lake Unit","ORODF-982","Lake Unit","046","61248","","BRIDGE  #271","","","","","","2001","2001/07/20 00:00:00+00","201","","Natural","Natural","","2001/07/20 00:00:00+00","201","","0.2","A","43.00845","-121.20457","PRIVATE","OR","37","41037","Lake County"
"-123.481735859","43.09995476","770038","872481","ODF-61151","NONFED","ST-ORORS","ST/C&L","USOR730S","Douglas Forest Protective Association","ORODF-732","Douglas South","071","61151","","HWY 42 COMPLEX","","","","","HWY 42 COMPLEX","2001","2001/07/14 00:00:00+00","195","","Human","Equipment and vehicle use","","2001/07/14 00:00:00+00","195","","0.01","A","43.09996","-123.48175","STATE","OR","10","41019","Douglas County"
"-123.829365222","46.083974624","770039","872483","ODF-3739","NONFED","ST-ORORS","ST/C&L","USOR520S","Astoria District","ORODF-521","Astoria District","053","3739","","STAVEBOLT","","","","","","1993","1993/12/06 00:00:00+00","340","","Human","Recreation and ceremony","","1993/12/06 00:00:00+00","340","","0.01","A","46.08398","-123.82938","PRIVATE","OR","4","41007","Clatsop County"
"-123.624946007","42.102244836","770040","872484","ODF-61235","NONFED","ST-ORORS","ST/C&L","USOR712S","Grants Pass Unit","ORODF-712","Grants Pass Unit","098","61235","","SHERIER","","","","","","2001","2001/07/16 00:00:00+00","197","","Human","Equipment and vehicle use","","2001/07/16 00:00:00+00","197","","0.01","A","42.10225","-123.62496","COUNTY","OR","33","41033","Josephine County"
"-123.167885954","42.821094748","770041","872485","ODF-61168","NONFED","ST-ORORS","ST/C&L","USOR730S","Douglas Forest Protective Association","ORODF-732","Douglas South","037","61168","","EAST WHITEHORSE","","","","","","2001","2001/07/10 00:00:00+00","191","","Natural","Natural","","2001/07/10 00:00:00+00","191","","0.25","A","42.8211","-123.1679","BLM","OR","10","41019","Douglas County"
"-124.1063256","44.019254765","770042","872486","ODF-61250","NONFED","ST-ORORS","ST/C&L","USOR781S","Western Lane District","ORODF-781","Western Lane District","015","61250","","HECETA BEACH RD 720","","","","","","2001","2001/07/20 00:00:00+00","201","","Human","Missing data/not specified/undetermined","","2001/07/20 00:00:00+00","201","","0.01","A","44.01926","-124.10634","PRIVATE","OR","20","41039","Lane County"
"-124.387225719","43.141464843","770043","872487","ODF-61262","NONFED","ST-ORORS","ST/C&L","USOR723S","Gold Beach Unit","ORODF-723","Gold Beach Unit","011","61262","","LOST VALLEY ROAD","","","","","","2001","2001/07/21 00:00:00+00","202","","Human","Debris and open burning","","2001/07/21 00:00:00+00","202","","0.25","A","43.14147","-124.38724","PRIVATE","OR","6","41011","Coos County"
"-123.707655252","46.029744614","770044","872488","ODF-61260","NONFED","ST-ORORS","ST/C&L","USOR520S","Astoria District","ORODF-521","Astoria District","012","61260","","GREEN MOUNTAIN LAKE","","","","","","2001","2001/07/21 00:00:00+00","202","","Human","Smoking","","2001/07/21 00:00:00+00","202","","0.01","A","46.02975","-123.70767","PRIVATE","OR","4","41007","Clatsop County"
"-123.722785234","46.102384612","770045","872489","ODF-3742","NONFED","ST-ORORS","ST/C&L","USOR520S","Astoria District","ORODF-521","Astoria District","204","3742","","LILLENAS REVISITED","","","","","","1993","1993/02/04 00:00:00+00","35","","Human","Debris and open burning","","1993/02/04 00:00:00+00","35","","0.3","B","46.10239","-123.7228","PRIVATE","OR","4","41007","Clatsop County"
"-122.839355471","45.625854546","770046","872490","ODF-3785","NONFED","ST-ORORS","ST/C&L","USOR530S","Forest Grove District","ORODF-531","Forest Grove District","024","3785","","MCNAMEE RD","","","","","","1993","1993/08/30 00:00:00+00","242","","Human","Debris and open burning","","1993/08/30 00:00:00+00","242","","0.35","B","45.62586","-122.83937","PRIVATE","OR","26","41051","Multnomah County"
"-123.974345722","43.458264785","770047","872491","ODF-61185","NONFED","ST-ORORS","ST/C&L","USOR721S","Coos Forest Protective Association","ORODF-721","Coos Bay","009","61185","","EAST FORK MILLICOMA","","","","","","2001","2001/07/17 00:00:00+00","198","","Human","Smoking","","2001/07/17 00:00:00+00","198","","0.01","A","43.45827","-123.97436","PRIVATE","OR","6","41011","Coos County"
"-123.42520533","45.864484593","770048","872492","ODF-3736","NONFED","ST-ORORS","ST/C&L","USOR520S","Astoria District","ORODF-521","Astoria District","050","3736","","MCGREGOR-OLSON","","","","","","1993","1993/11/10 00:00:00+00","314","","Human","Debris and open burning","","1993/11/10 00:00:00+00","314","","0.5","B","45.86449","-123.42522","PRIVATE","OR","4","41007","Clatsop County"
"-122.890575831","43.746604663","770049","872493","ODF-61280","NONFED","ST-ORORS","ST/C&L","USOR771S","East Lane Unit - ODF","ORODF-771","East Lane Unit","013","61280","","ROW RIVER","","","","","","2001","2001/07/22 00:00:00+00","203","","Human","Equipment and vehicle use","","2001/07/22 00:00:00+00","203","","2","B","43.74661","-122.89059","PRIVATE","OR","20","41039","Lane County"
"-123.347965718","43.988124693","770050","872494","ODF-61164","NONFED","ST-ORORS","ST/C&L","USOR781S","Western Lane District","ORODF-781","Western Lane District","013","61164","","BLACKBERRY POND FIRE","","","","","","2001","2001/07/17 00:00:00+00","198","","Human","Equipment and vehicle use","","2001/07/17 00:00:00+00","198","","1.5","B","43.98813","-123.34798","PRIVATE","OR","20","41039","Lane County"
"-124.097795595","44.051074762","770051","872495","ODF-61257","NONFED","ST-ORORS","ST/C&L","USOR781S","Western Lane District","ORODF-781","Western Lane District","016","61257","","OTTER WAY 721","","","","","","2001","2001/07/21 00:00:00+00","202","","Human","Equipment and vehicle use","","2001/07/24 00:00:00+00","205","","0.01","A","44.05108","-124.09781","COUNTY","OR","20","41039","Lane County"
"-123.536875355","45.670974615","770052","872496","ODF-3838","NONFED","ST-ORORS","ST/C&L","USOR530S","Forest Grove District","ORODF-531","Forest Grove District","077","3838","","GUTBAG","","","","","","1993","1993/11/17 00:00:00+00","321","","Human","Recreation and ceremony","","1993/11/18 00:00:00+00","322","","0.01","A","45.67098","-123.53689","PRIVATE","OR","57","41057","Tillamook County"
"-123.018395345","46.086144539","770053","872497","ODF-3857","NONFED","ST-ORORS","ST/C&L","USOR532S","Columbia City Unit","ORODF-532","Colombia City Unit","663","3857","","CANNON ROAD","","","","","","1993","1993/02/07 00:00:00+00","38","","Human","Debris and open burning","","1993/02/07 00:00:00+00","38","","0.75","B","46.08615","-123.01841","PRIVATE","OR","9","41009","Columbia County"
"-119.035186325","44.466884242","770054","872498","ODF-61258","NONFED","ST-ORORS","ST/C&L","USOR952S","John Day Unit","ORODF-952","John Day Unit","021","61258","","GIBSON GULCH","","","","","","2001","2001/07/21 00:00:00+00","202","","Human","Missing data/not specified/undetermined","","2001/07/21 00:00:00+00","202","","0.5","B","44.46689","-119.0352","PRIVATE","OR","12","41023","Grant County"
"-123.289315817","43.495434717","770055","872499","ODF-61155","NONFED","ST-ORORS","ST/C&L","USOR730S","Douglas Forest Protective Association","ORODF-731","Douglas North","075","61155","","TERRI COURT","","","","","","2001","2001/07/02 00:00:00+00","183","","Human","Debris and open burning","","2001/07/02 00:00:00+00","183","","0.25","A","43.49544","-123.28933","PRIVATE","OR","10","41019","Douglas County"
"-123.254105911","42.992634745","770056","872500","ODF-61167","NONFED","ST-ORORS","ST/C&L","USOR730S","Douglas Forest Protective Association","ORODF-732","Douglas South","032","61167","","BEAR PEN","","","","","","2001","2001/07/10 00:00:00+00","191","","Natural","Natural","","2001/07/10 00:00:00+00","191","","0.1","A","42.99264","-123.25412","PRIVATE","OR","10","41019","Douglas County"
"-123.646845311","45.79743462","770057","872501","ODF-3737","NONFED","ST-ORORS","ST/C&L","USOR520S","Astoria District","ORODF-521","Astoria District","051","3737","","SPUR 27","","","","","","1993","1993/11/14 00:00:00+00","318","","Human","Recreation and ceremony","","1993/11/14 00:00:00+00","318","","0.01","A","45.79744","-123.64686","STATE","OR","4","41007","Clatsop County"
"-123.905305373","45.320224672","770058","872502","ODF-61255","NONFED","ST-ORORS","ST/C&L","USOR510S","Tillamook District","ORODF-511","Tillamook District","014","61255","","CAPE LOOKOUT ROAD","","","","","","2001","2001/07/20 00:00:00+00","201","","Human","Misuse of fire by a minor","Minor","2001/07/20 00:00:00+00","201","","0.01","A","45.32023","-123.90532","PRIVATE","OR","57","41057","Tillamook County"
"-123.614215292","45.911374611","770059","872503","ODF-3744","NONFED","ST-ORORS","ST/C&L","USOR520S","Astoria District","ORODF-521","Astoria District","206","3744","","EAST HUMBUG","","","","","","1993","1993/02/13 00:00:00+00","44","","Human","Recreation and ceremony","","1993/02/13 00:00:00+00","44","","0.09","A","45.91138","-123.61423","STATE","OR","4","41007","Clatsop County"
"-123.321325376","45.72490459","770060","872504","ODF-3779","NONFED","ST-ORORS","ST/C&L","USOR530S","Forest Grove District","ORODF-531","Forest Grove District","018","3779","","CHICKEN CAMP #1","","","","","","1993","1993/08/25 00:00:00+00","237","","Human","Fireworks","","1993/08/25 00:00:00+00","237","","0.01","A","45.72491","-123.32134","STATE","OR","34","41067","Washington County"
"-123.905905244","45.93106464","770061","872505","ODF-3740","NONFED","ST-ORORS","ST/C&L","USOR520S","Astoria District","ORODF-521","Astoria District","054","3740","","WINDY FLATS","","","","","","1993","1993/12/28 00:00:00+00","362","","Human","Misuse of fire by a minor","Minor","1993/12/28 00:00:00+00","362","","0.02","A","45.93107","-123.90592","PRIVATE","OR","4","41007","Clatsop County"
"-123.317335473","45.261554615","770062","872506","ODF-3816","NONFED","ST-ORORS","ST/C&L","USOR530S","Forest Grove District","ORODF-531","Forest Grove District","055","3816","","HIGH HEAVEN RD.","","","","","","1993","1993/09/29 00:00:00+00","272","","Human","Recreation and ceremony","","1993/09/29 00:00:00+00","272","","0.2","A","45.26156","-123.31735","PRIVATE","OR","36","41071","Yamhill County"
"-123.071105341","46.067374545","770063","872507","ODF-3858","NONFED","ST-ORORS","ST/C&L","USOR532S","Columbia City Unit","ORODF-532","Colombia City Unit","664","3858","","LOST CREEK","","","","","","1993","1993/02/15 00:00:00+00","46","","Human","Debris and open burning","","1993/02/15 00:00:00+00","46","","1","B","46.06738","-123.07112","PRIVATE","OR","9","41009","Columbia County"
"-123.601695244","46.139704597","770064","872508","ODF-3756","NONFED","ST-ORORS","ST/C&L","USOR520S","Astoria District","ORODF-521","Astoria District","218","3756","","HAGLUND ROAD","","","","","","1993","1993/03/12 00:00:00+00","71","","Human","Debris and open burning","","1993/03/12 00:00:00+00","71","","23","C","46.13971","-123.60171","PRIVATE","OR","4","41007","Clatsop County"
"-123.528905245","46.186854587","770065","872509","ODF-3758","NONFED","ST-ORORS","ST/C&L","USOR520S","Astoria District","ORODF-521","Astoria District","221","3758","","FISH","","","","","","1993","1993/05/19 00:00:00+00","139","","Human","Arson/incendiarism","","1993/05/19 00:00:00+00","139","","0.01","A","46.18686","-123.52892","PRIVATE","OR","4","41007","Clatsop County"
"-122.793705426","45.869894527","770066","872510","ODF-3893","NONFED","ST-ORORS","ST/C&L","USOR532S","Columbia City Unit","ORODF-532","Colombia City Unit","722","3893","","5TH/LEMONT ST. #1","","","","","","1993","1993/09/01 00:00:00+00","244","","Human","Misuse of fire by a minor","Minor","1993/09/01 00:00:00+00","244","","0.6","B","45.8699","-122.79372","PRIVATE","OR","9","41009","Columbia County"
"-123.261215392","45.691964586","770067","872511","ODF-3841","NONFED","ST-ORORS","ST/C&L","USOR530S","Forest Grove District","ORODF-531","Forest Grove District","080","3841","","STRASSEL #2","","","","","","1993","1993/11/27 00:00:00+00","331","","Human","Smoking","","1993/11/27 00:00:00+00","331","","0.1","A","45.69197","-123.26123","PRIVATE","OR","34","41067","Washington County"
"-123.412305599","44.557734665","770068","872512","ODF-3933","NONFED","ST-ORORS","ST/C&L","USOR551S","Philomath Unit","ORODF-551","Philomath Unit","111","3933","","LONE STAR","","","","","","1993","1993/10/01 00:00:00+00","274","","Human","Power generation/transmission/distribution","","1993/10/01 00:00:00+00","274","","0.25","A","44.55774","-123.41232","PRIVATE","OR","2","41003","Benton County"
"-123.260695394","45.681114586","770069","872514","ODF-3852","NONFED","ST-ORORS","ST/C&L","USOR530S","Forest Grove District","ORODF-531","Forest Grove District","243","3852","","STRASSEL RD. HOUSE","","","","","","1993","1993/06/11 00:00:00+00","162","","Human","Arson/incendiarism","","1993/06/11 00:00:00+00","162","","0.01","A","45.68112","-123.26071","PRIVATE","OR","34","41067","Washington County"
"-122.961955391","45.911904542","770070","872515","ODF-3917","NONFED","ST-ORORS","ST/C&L","USOR532S","Columbia City Unit","ORODF-532","Colombia City Unit","746","3917","","S. CANAAN ROAD #1","","","","","","1993","1993/10/19 00:00:00+00","292","","Human","Arson/incendiarism","","1993/10/19 00:00:00+00","292","","0.2","A","45.91191","-122.96197","PRIVATE","OR","9","41009","Columbia County"
"-123.322635459","45.323914612","770071","872516","ODF-3828","NONFED","ST-ORORS","ST/C&L","USOR530S","Forest Grove District","ORODF-531","Forest Grove District","067","3828","","MEADOW VIEW STUMP","","","","","","1993","1993/10/09 00:00:00+00","282","","Human","Smoking","","1993/10/09 00:00:00+00","282","","0.01","A","45.32392","-123.32265","PRIVATE","OR","36","41071","Yamhill County"
"-123.203425367","45.853764571","770072","872517","ODF-3883","NONFED","ST-ORORS","ST/C&L","USOR532S","Columbia City Unit","ORODF-532","Colombia City Unit","712","3883","","N. 2ND ST. #1","","","","","","1993","1993/08/25 00:00:00+00","237","","Human","Misuse of fire by a minor","Minor","1993/08/25 00:00:00+00","237","","0.01","A","45.85377","-123.20344","PRIVATE","OR","9","41009","Columbia County"
"-123.055665336","46.101174542","770073","872518","ODF-3859","NONFED","ST-ORORS","ST/C&L","USOR532S","Columbia City Unit","ORODF-532","Colombia City Unit","665","3859","","76856 DELENA-MAYGER RD","","","","","","1993","1993/02/16 00:00:00+00","47","","Human","Debris and open burning","","1993/02/16 00:00:00+00","47","","1.5","B","46.10118","-123.05568","PRIVATE","OR","9","41009","Columbia County"
"-123.954445432","44.993004695","770074","872519","ODF-3978","NONFED","ST-ORORS","ST/C&L","USOR553S","Toledo Unit","ORODF-553","Toledo Unit","309","3978","","DEVILS LAKE","","","","","","1993","1993/07/15 00:00:00+00","196","","Human","Recreation and ceremony","","1993/07/16 00:00:00+00","197","","0.5","B","44.99301","-123.95446","PRIVATE","OR","21","41041","Lincoln County"
"-123.209375442","45.493284591","770075","872520","ODF-3813","NONFED","ST-ORORS","ST/C&L","USOR530S","Forest Grove District","ORODF-531","Forest Grove District","052","3813","","NELSON COVE","","","","","","1993","1993/09/25 00:00:00+00","268","","Human","Arson/incendiarism","","1993/09/25 00:00:00+00","268","","0.02","A","45.49329","-123.20939","COUNTY","OR","34","41067","Washington County"
"-123.141305407","45.710174572","770076","872521","ODF-3834","NONFED","ST-ORORS","ST/C&L","USOR530S","Forest Grove District","ORODF-531","Forest Grove District","073","3834","","PIHL ROAD SLASH","","","","","","1993","1993/10/25 00:00:00+00","298","","Human","Debris and open burning","","1993/10/25 00:00:00+00","298","","0.03","A","45.71018","-123.14132","PRIVATE","OR","34","41067","Washington County"
"-123.070405417","45.713434565","770077","872522","ODF-3844","NONFED","ST-ORORS","ST/C&L","USOR530S","Forest Grove District","ORODF-531","Forest Grove District","235","3844","","MEACHAM GRASS","","","","","","1993","1993/01/18 00:00:00+00","18","","Human","Missing data/not specified/undetermined","","1993/01/18 00:00:00+00","18","","1.5","B","45.71344","-123.07042","PRIVATE","OR","34","41067","Washington County"
"-123.353365386","45.656234597","770078","872523","ODF-3842","NONFED","ST-ORORS","ST/C&L","USOR530S","Forest Grove District","ORODF-531","Forest Grove District","081","3842","","ROUND TOP","","","","","","1993","1993/11/27 00:00:00+00","331","","Human","Debris and open burning","","1993/11/27 00:00:00+00","331","","0.1","A","45.65624","-123.35338","PRIVATE","OR","34","41067","Washington County"
"-123.039605418","45.728004561","770079","872524","ODF-3848","NONFED","ST-ORORS","ST/C&L","USOR530S","Forest Grove District","ORODF-531","Forest Grove District","239","3848","","WILDERNESS TRUCK","","","","","","1993","1993/03/26 00:00:00+00","85","","Human","Equipment and vehicle use","","1993/03/26 00:00:00+00","85","","0.01","A","45.72801","-123.03962","PRIVATE","OR","34","41067","Washington County"
"-123.553455331","45.769924612","770080","872525","ODF-3837","NONFED","ST-ORORS","ST/C&L","USOR530S","Forest Grove District","ORODF-531","Forest Grove District","076","3837","","WINDY GAP","","","","","","1993","1993/11/15 00:00:00+00","319","","Human","Recreation and ceremony","","1993/11/15 00:00:00+00","319","","0.01","A","45.76993","-123.55347","PRIVATE","OR","57","41057","Tillamook County"
"-123.380545535","44.907514642","770081","872527","ODF-3960","NONFED","ST-ORORS","ST/C&L","USOR552S","Dallas Unit","ORODF-552","Dallas Unit","207","3960","","OAKDALE ROAD","","","","","","1993","1993/09/16 00:00:00+00","259","","Human","Misuse of fire by a minor","Minor","1993/09/16 00:00:00+00","259","","0.25","A","44.90752","-123.38056","PRIVATE","OR","53","41053","Polk County"
"-123.209535466","45.377414598","770082","872528","ODF-3783","NONFED","ST-ORORS","ST/C&L","USOR530S","Forest Grove District","ORODF-531","Forest Grove District","022","3783","","OAK HILL RD. #2","","","","","","1993","1993/08/29 00:00:00+00","241","","Human","Equipment and vehicle use","","1993/08/29 00:00:00+00","241","","6.5","B","45.37742","-123.20955","PRIVATE","OR","36","41071","Yamhill County"
"-122.982665399","45.860524547","770083","872529","ODF-3880","NONFED","ST-ORORS","ST/C&L","USOR532S","Columbia City Unit","ORODF-532","Colombia City Unit","709","3880","","HIT & RUN ROAD #1","","","","","","1993","1993/08/24 00:00:00+00","236","","Natural","Natural","","1993/08/24 00:00:00+00","236","","0.01","A","45.86053","-122.98268","PRIVATE","OR","9","41009","Columbia County"
"-123.854495499","44.7331547","770084","872530","ODF-3987","NONFED","ST-ORORS","ST/C&L","USOR553S","Toledo Unit","ORODF-553","Toledo Unit","318","3987","","SILETZ RIVER","","","","","","1993","1993/09/23 00:00:00+00","266","","Human","Debris and open burning","","1993/09/23 00:00:00+00","266","","0.01","A","44.73316","-123.85451","PRIVATE","OR","21","41041","Lincoln County"
"-123.733115586","44.377034708","770085","872531","ODF-3923","NONFED","ST-ORORS","ST/C&L","USOR551S","Philomath Unit","ORODF-551","Philomath Unit","101","3923","","FALL CREEK HATCHERY","","","","","","1993","1993/08/12 00:00:00+00","224","","Human","Debris and open burning","","1993/08/12 00:00:00+00","224","","0.25","A","44.37704","-123.73313","PRIVATE","OR","21","41041","Lincoln County"
"-123.033925358","46.017244544","770086","872533","ODF-3876","NONFED","ST-ORORS","ST/C&L","USOR532S","Columbia City Unit","ORODF-532","Colombia City Unit","705","3876","","SIMMONS ROAD #1","","","","","","1993","1993/08/20 00:00:00+00","232","","Natural","Natural","","1993/08/20 00:00:00+00","232","","0.01","A","46.01725","-123.03394","PRIVATE","OR","9","41009","Columbia County"
"-122.94328576","44.086134647","770087","872534","ODF-5241","NONFED","ST-ORORS","ST/C&L","USOR771S","East Lane Unit - ODF","ORODF-771","East Lane Unit","015","5241","","CAMP CREEK RIDGE","","","","","","1993","1993/08/21 00:00:00+00","233","","Natural","Natural","","1993/08/21 00:00:00+00","233","","0.01","A","44.08614","-122.9433","PRIVATE","OR","20","41039","Lane County"
"-121.874676188","42.604374643","770088","872535","ODF-62129","NONFED","ST-ORORS","ST/C&L","USOR981S","Klamath Unit","ORODF-981","Klamath Unit","121","62129","","TINY","","","","","","2001","2001/08/30 00:00:00+00","242","","Human","Misuse of fire by a minor","Minor","2001/08/30 00:00:00+00","242","","0.1","A","42.60438","-121.87469","PRIVATE","OR","18","41035","Klamath County"
"-122.901035422","45.810134542","770089","872536","ODF-3910","NONFED","ST-ORORS","ST/C&L","USOR532S","Columbia City Unit","ORODF-532","Colombia City Unit","739","3910","","TURLEY ROAD #1","","","","","","1993","1993/09/28 00:00:00+00","271","","Human","Equipment and vehicle use","","1993/09/28 00:00:00+00","271","","0.2","A","45.81014","-122.90105","PRIVATE","OR","9","41009","Columbia County"
"-124.287595689","43.393294819","770090","872538","ODF-62073","NONFED","ST-ORORS","ST/C&L","USOR721S","Coos Forest Protective Association","ORODF-721","Coos Bay","020","62073","","NORTH SPIT","","","","","","2001","2001/08/27 00:00:00+00","239","","Human","Recreation and ceremony","","2001/08/27 00:00:00+00","239","","0.01","A","43.3933","-124.28761","MUNICIPAL/LOCAL","OR","6","41011","Coos County"
"-123.045516021","42.536134755","770091","872539","ODF-68311","NONFED","ST-ORORS","ST/C&L","USOR711S","Medford Unit","ORODF-711","Medford Unit","151","68311","","MCCONVILLE PEAK #3","","","","","","2003","2003/09/05 00:00:00+00","248","","Natural","Natural","","2003/09/05 00:00:00+00","248","","0.25","A","42.53614","-123.04553","PRIVATE","OR","29","41029","Jackson County"
"-122.489605771","44.396774584","770092","872540","ODF-68327","NONFED","ST-ORORS","ST/C&L","USOR772S","Sweet Home Unit - ODF","ORODF-772","Sweet Home Unit","085","68327","","CASCADIA POST OFFICE","","","","","","2003","2003/09/06 00:00:00+00","249","","Human","Missing data/not specified/undetermined","","2003/09/06 00:00:00+00","249","","0.01","A","44.39678","-122.48962","PRIVATE","OR","22","41043","Linn County"
"-123.501385966","42.456444802","770093","872541","ODF-62117","NONFED","ST-ORORS","ST/C&L","USOR712S","Grants Pass Unit","ORODF-712","Grants Pass Unit","165","62117","","RIVERBANKS # 2","","","","","","2001","2001/08/30 00:00:00+00","242","","Human","Smoking","","2001/08/30 00:00:00+00","242","","0.5","B","42.45645","-123.5014","PRIVATE","OR","33","41033","Josephine County"
"-123.175125787","43.75225469","770094","872542","ODF-62144","NONFED","ST-ORORS","ST/C&L","USOR730S","Douglas Forest Protective Association","ORODF-731","Douglas North","181","62144","","I-5 NB MP 166","","","","","","2001","2001/08/31 00:00:00+00","243","","Human","Arson/incendiarism","","2001/08/31 00:00:00+00","243","","0.75","B","43.75226","-123.17514","STATE","OR","10","41019","Douglas County"
"-123.511505843","43.161884759","770095","872543","ODF-62146","NONFED","ST-ORORS","ST/C&L","USOR730S","Douglas Forest Protective Association","ORODF-732","Douglas South","180","62146","","DAIRY LOOP","","","","","","2001","2001/08/31 00:00:00+00","243","","Human","Equipment and vehicle use","","2001/08/31 00:00:00+00","243","","39.8","C","43.16189","-123.51152","COUNTY","OR","10","41019","Douglas County"
"-122.95185538","45.969984538","770096","872545","ODF-3860","NONFED","ST-ORORS","ST/C&L","USOR532S","Columbia City Unit","ORODF-532","Colombia City Unit","666","3860","","SHILOH BASIN","","","","","","1993","1993/02/17 00:00:00+00","48","","Human","Debris and open burning","","1993/02/17 00:00:00+00","48","","0.75","B","45.96999","-122.95187","PRIVATE","OR","9","41009","Columbia County"
"-123.208375377","45.799314574","770097","872546","ODF-3887","NONFED","ST-ORORS","ST/C&L","USOR532S","Columbia City Unit","ORODF-532","Colombia City Unit","716","3887","","MCDONALD ROAD #1","","","","","","1993","1993/08/29 00:00:00+00","241","","Human","Equipment and vehicle use","","1993/08/29 00:00:00+00","241","","0.01","A","45.79932","-123.20839","PRIVATE","OR","9","41009","Columbia County"
"-122.982955378","45.959124542","770098","872547","ODF-3905","NONFED","ST-ORORS","ST/C&L","USOR532S","Columbia City Unit","ORODF-532","Colombia City Unit","734","3905","","ANLIKER ROAD #1","","","","","","1993","1993/09/18 00:00:00+00","261","","Human","Recreation and ceremony","","1993/09/18 00:00:00+00","261","","0.1","A","45.95913","-122.98297","PRIVATE","OR","9","41009","Columbia County"
"-122.937345418","45.803074546","770099","872548","ODF-3913","NONFED","ST-ORORS","ST/C&L","USOR532S","Columbia City Unit","ORODF-532","Colombia City Unit","742","3913","","SCAP/VERN HWY #1","","","","","","1993","1993/10/02 00:00:00+00","275","","Human","Misuse of fire by a minor","Minor","1993/10/02 00:00:00+00","275","","0.01","A","45.80308","-122.93736","PRIVATE","OR","9","41009","Columbia County"
"-123.985665542","44.412754731","770100","872549","ODF-3976","NONFED","ST-ORORS","ST/C&L","USOR553S","Toledo Unit","ORODF-553","Toledo Unit","307","3976","","DARKEY CR #2","","","","","","1993","1993/07/11 00:00:00+00","192","","Human","Debris and open burning","","1993/07/11 00:00:00+00","192","","0.5","B","44.41276","-123.98568","PRIVATE","OR","21","41041","Lincoln County"
"-123.839405495","44.762634696","770101","872550","ODF-3971","NONFED","ST-ORORS","ST/C&L","USOR553S","Toledo Unit","ORODF-553","Toledo Unit","302","3971","","BENNIE HEMMIE","","","","","","1993","1993/07/04 00:00:00+00","185","","Human","Debris and open burning","","1993/07/04 00:00:00+00","185","","4","B","44.76264","-123.83942","PRIVATE","OR","21","41041","Lincoln County"
"-122.980625807","43.803224668","770102","872551","ODF-62195","NONFED","ST-ORORS","ST/C&L","USOR771S","East Lane Unit - ODF","ORODF-771","East Lane Unit","040","62195","","DOWENS ROAD","","","","","","2001","2001/09/03 00:00:00+00","246","","Human","Misuse of fire by a minor","Minor","2001/09/03 00:00:00+00","246","","0.01","A","43.80323","-122.98064","PRIVATE","OR","20","41039","Lane County"
"-123.13894601","42.514834765","770103","872552","ODF-68397","NONFED","ST-ORORS","ST/C&L","USOR712S","Grants Pass Unit","ORODF-712","Grants Pass Unit","205","68397","","WILCOX PEAK","","","","","","2003","2003/09/06 00:00:00+00","249","","Natural","Natural","","2003/09/06 00:00:00+00","249","","0.25","A","42.51484","-123.13896","PRIVATE","OR","29","41029","Jackson County"
"-121.291986155","43.333684538","770104","872553","ODF-68466","NONFED","ST-ORORS","ST/C&L","USORGILN","Gilchrist Fire Department","ORODF-991","Gilchrist","234","68466","","LIFC 277","","","","","","2003","2003/09/04 00:00:00+00","247","","Natural","Natural","","2003/09/04 00:00:00+00","247","","0.01","A","43.33369","-121.292","PRIVATE","OR","18","41035","Klamath County"
"-120.505476441","42.395154534","770105","872555","ODF-68459","NONFED","ST-ORORS","ST/C&L","USOR982S","Lake Unit","ORODF-982","Lake Unit","052","68459","","MAX","","","","","","2003","2003/09/04 00:00:00+00","247","","Natural","Natural","","2003/09/04 00:00:00+00","247","","0.1","A","42.39516","-120.50549","PRIVATE","OR","37","41037","Lake County"
"-120.960706298","42.814284545","770106","872557","ODF-68449","NONFED","ST-ORORS","ST/C&L","USOR982S","Lake Unit","ORODF-982","Lake Unit","049","68449","","NARROW","","","","","","2003","2003/09/04 00:00:00+00","247","","Natural","Natural","","2003/09/04 00:00:00+00","247","","0.1","A","42.81429","-120.96072","PRIVATE","OR","37","41037","Lake County"
"-122.837615804","43.940624646","770107","872558","ODF-68484","NONFED","ST-ORORS","ST/C&L","USOR771S","East Lane Unit - ODF","ORODF-771","East Lane Unit","035","68484","","ELIJAH BRISTOW","","","","","","2003","2003/08/28 00:00:00+00","240","","Human","Equipment and vehicle use","","2003/08/28 00:00:00+00","240","","0.01","A","43.94063","-122.83763","STATE","OR","20","41039","Lane County"
"-122.346615685","44.950764535","770108","872559","ODF-68522","NONFED","ST-ORORS","ST/C&L","USOR581S","Molalla Unit","ORODF-581","Molalla Unit","072","68522","","ROOSTER ROCK RD FIRE","","","","","","2003","2003/09/14 00:00:00+00","257","","Human","Recreation and ceremony","","2003/09/14 00:00:00+00","257","","0.01","A","44.95077","-122.34663","BLM","OR","5","41005","Clackamas County"
"-120.921226313","42.763444545","770109","872560","ODF-68457","NONFED","ST-ORORS","ST/C&L","USOR982S","Lake Unit","ORODF-982","Lake Unit","050","68457","","SQUIRREL","","","","","","2003","2003/09/04 00:00:00+00","247","","Natural","Natural","","2003/09/04 00:00:00+00","247","","0.1","A","42.76345","-120.92124","PRIVATE","OR","37","41037","Lake County"
"-120.51043644","42.398464534","770110","872561","ODF-68458","NONFED","ST-ORORS","ST/C&L","USOR982S","Lake Unit","ORODF-982","Lake Unit","051","68458","","SAWMILL","","","","","","2003","2003/09/04 00:00:00+00","247","","Natural","Natural","","2003/09/04 00:00:00+00","247","","0.1","A","42.39847","-120.51045","PRIVATE","OR","37","41037","Lake County"
"-121.281585708","45.676874383","770111","872562","ODF-68460","NONFED","ST-ORORS","ST/C&L","USOR954S","The Dalles Unit","ORODF-954","The Dalles Unit","040","68460","","CADDY","","","","","","2003","2003/09/11 00:00:00+00","254","","Human","Equipment and vehicle use","","2003/09/11 00:00:00+00","254","","0.25","A","45.67688","-121.2816","STATE","OR","65","41065","Wasco County"
"-123.605316005","42.131384833","770112","872563","ODF-68498","NONFED","ST-ORORS","ST/C&L","USOR712S","Grants Pass Unit","ORODF-712","Grants Pass Unit","232","68498","","SUCKER CRK BRIDGE","","","","","","2003","2003/09/14 00:00:00+00","257","","Human","Arson/incendiarism","","2003/09/14 00:00:00+00","257","","0.01","A","42.13139","-123.60533","COUNTY","OR","33","41033","Josephine County"
"-120.69016638","42.582944537","770113","872564","ODF-68448","NONFED","ST-ORORS","ST/C&L","USOR982S","Lake Unit","ORODF-982","Lake Unit","048","68448","","SPLINTER","","","","","","2003","2003/09/04 00:00:00+00","247","","Natural","Natural","","2003/09/04 00:00:00+00","247","","0.1","A","42.58295","-120.69018","PRIVATE","OR","37","41037","Lake County"
"-118.032786293","45.542024065","770114","872565","ODF-68509","NONFED","ST-ORORS","ST/C&L","USOR971S","LaGrande District","ORODF-971","LaGrande District","035","68509","","CRAIG LOOP","","","","","","2003","2003/09/13 00:00:00+00","256","","Human","Debris and open burning","","2003/09/13 00:00:00+00","256","","45","C","45.54203","-118.0328","PRIVATE","OR","61","41061","Union County"
"-120.779426016","44.542644406","770115","872567","ODF-68416","NONFED","ST-ORORS","ST/C&L","USOR951S","Prineville Unit","ORODF-951","Prineville Unit","025","68416","","EAST FORK","","","","","","2003","2003/09/07 00:00:00+00","250","","Natural","Natural","","2003/09/08 00:00:00+00","251","","0.01","A","44.54265","-120.77944","PRIVATE","OR","7","41013","Crook County"
"-124.213995684","43.479004807","770116","872568","ODF-68413","NONFED","ST-ORORS","ST/C&L","USOR721S","Coos Forest Protective Association","ORODF-721","Coos Bay","045","68413","","OLD MILL ROAD","","","","","","2003","2003/09/07 00:00:00+00","250","","Human","Recreation and ceremony","","2003/09/07 00:00:00+00","250","","0.25","A","43.47901","-124.21401","PRIVATE","OR","6","41011","Coos County"
"-123.600306008","42.112714833","770117","872569","ODF-68499","NONFED","ST-ORORS","ST/C&L","USOR712S","Grants Pass Unit","ORODF-712","Grants Pass Unit","233","68499","","5210 DICK GEORGE","","","","","","2003","2003/09/14 00:00:00+00","257","","Human","Arson/incendiarism","","2003/09/14 00:00:00+00","257","","0.01","A","42.11272","-123.60032","PRIVATE","OR","33","41033","Josephine County"
"-123.078065855","43.459324699","770118","872570","ODF-68510","NONFED","ST-ORORS","ST/C&L","USOR730S","Douglas Forest Protective Association","ORODF-731","Douglas North","095","68510","","NONPAREIL ROAD","","","","","","2003","2003/08/25 00:00:00+00","237","","Human","Misuse of fire by a minor","Minor","2003/08/25 00:00:00+00","237","","0.01","A","43.45933","-123.07808","PRIVATE","OR","10","41019","Douglas County"
"-122.749686043","42.666154719","770119","872571","ODF-68496","NONFED","ST-ORORS","ST/C&L","USOR711S","Medford Unit","ORODF-711","Medford Unit","158","68496","","ROGUE ELK","","","","","","2003","2003/09/14 00:00:00+00","257","","Human","Equipment and vehicle use","","2003/09/14 00:00:00+00","257","","0.1","A","42.66616","-122.7497","PRIVATE","OR","29","41029","Jackson County"
"-120.945976298","42.828924542","770120","872572","ODF-68491","NONFED","ST-ORORS","ST/C&L","USOR982S","Lake Unit","ORODF-982","Lake Unit","065","68491","","DRENCHED","","","","","","2003","2003/09/04 00:00:00+00","247","","Natural","Natural","","2003/09/05 00:00:00+00","248","","0.1","A","42.82893","-120.94599","PRIVATE","OR","37","41037","Lake County"
"-123.42729587","43.082944756","770121","872573","ODF-68523","NONFED","ST-ORORS","ST/C&L","USOR730S","Douglas Forest Protective Association","ORODF-732","Douglas South","118","68523","","WILLIS- RICE CR","","","","","","2003","2003/09/12 00:00:00+00","255","","Human","Debris and open burning","","2003/09/12 00:00:00+00","255","","1.71","B","43.08295","-123.42731","PRIVATE","OR","10","41019","Douglas County"
"-121.451576116","43.412794548","770122","872574","ODF-68468","NONFED","ST-ORORS","ST/C&L","USORGILN","Gilchrist Fire Department","ORODF-991","Gilchrist","236","68468","","RIM","","","","","","2003","2003/09/05 00:00:00+00","248","","Natural","Natural","","2003/09/05 00:00:00+00","248","","0.01","A","43.4128","-121.45159","PRIVATE","OR","18","41035","Klamath County"
"-119.96306605","45.06814429","770123","872575","ODF-68485","NONFED","ST-ORORS","ST/C&L","USOR952S","John Day Unit","ORODF-952","John Day Unit","046","68485","","LOST VALLEY","","","","","","2003","2003/09/12 00:00:00+00","255","","Natural","Natural","","2003/09/12 00:00:00+00","255","","0.8","B","45.06815","-119.96308","PRIVATE","OR","","",""
"-123.364065978","42.507504786","770124","872576","ODF-68494","NONFED","ST-ORORS","ST/C&L","USOR712S","Grants Pass Unit","ORODF-712","Grants Pass Unit","231","68494","","420 SAN FRANCISCO","","","","","","2003","2003/09/13 00:00:00+00","256","","Human","Equipment and vehicle use","","2003/09/13 00:00:00+00","256","","0.01","A","42.50751","-123.36408","PRIVATE","OR","33","41033","Josephine County"
"-123.096145422","45.67053457","770125","872577","ODF-68547","NONFED","ST-ORORS","ST/C&L","USOR530S","Forest Grove District","ORODF-531","Forest Grove District","109","68547","","VISION RIDGE #2","","","","","","2003","2003/09/17 00:00:00+00","260","","Human","Debris and open burning","","2003/09/17 00:00:00+00","260","","0.01","A","45.67054","-123.09616","PRIVATE","OR","34","41067","Washington County"
"-120.881896304","42.854224534","770126","872578","ODF-68483","NONFED","ST-ORORS","ST/C&L","USOR982S","Lake Unit","ORODF-982","Lake Unit","060","68483","","PECK SPRINGS","","","","","","2003","2003/09/06 00:00:00+00","249","","Natural","Natural","","2003/09/06 00:00:00+00","249","","0.1","A","42.85423","-120.88191","PRIVATE","OR","37","41037","Lake County"
"-122.119145634","45.379934486","770127","872580","ODF-68533","NONFED","ST-ORORS","ST/C&L","USOR581S","Molalla Unit","ORODF-581","Molalla Unit","073","68533","","BROWN ROOST","","","","","","2003","2003/09/16 00:00:00+00","259","","Human","Arson/incendiarism","","2003/09/16 00:00:00+00","259","","0.01","A","45.37994","-122.11916","PRIVATE","OR","5","41005","Clackamas County"
"-122.765206073","42.474684734","770128","872581","ODF-68453","NONFED","ST-ORORS","ST/C&L","USOR711S","Medford Unit","ORODF-711","Medford Unit","156","68453","","BROWNSBORO HWY","","","","","","2003","2003/09/10 00:00:00+00","253","","Human","Firearms and explosives use","","2003/09/10 00:00:00+00","253","","0.25","A","42.47469","-122.76522","PRIVATE","OR","29","41029","Jackson County"
"-122.450805666","44.963614545","770129","872582","ODF-68516","NONFED","ST-ORORS","ST/C&L","USOR581S","Molalla Unit","ORODF-581","Molalla Unit","070","68516","","GOLD ROCK","","","","","","2003","2003/09/14 00:00:00+00","257","","Human","Recreation and ceremony","","2003/09/14 00:00:00+00","257","","0.01","A","44.96362","-122.45082","BLM","OR","5","41005","Clackamas County"
"-123.634305976","42.277174826","770130","872583","ODF-68538","NONFED","ST-ORORS","ST/C&L","USOR712S","Grants Pass Unit","ORODF-712","Grants Pass Unit","239","68538","","114 WARREN ROAD","","","","","","2003","2003/09/16 00:00:00+00","259","","Human","Other causes","","2003/09/16 00:00:00+00","259","","0.01","A","42.27718","-123.63432","PRIVATE","OR","33","41033","Josephine County"
"-120.690496473","42.01326458","770131","872584","ODF-68477","NONFED","ST-ORORS","ST/C&L","USOR982S","Lake Unit","ORODF-982","Lake Unit","056","68477","","FALL CREEK","","","","","","2003","2003/09/05 00:00:00+00","248","","Natural","Natural","","2003/09/05 00:00:00+00","248","","0.25","A","42.01327","-120.69051","PRIVATE","OR","37","41037","Lake County"
"-121.137836345","42.360054594","770132","872585","ODF-68478","NONFED","ST-ORORS","ST/C&L","USOR982S","Lake Unit","ORODF-982","Lake Unit","057","68478","","MANHATTAN","","","","","","2003","2003/09/05 00:00:00+00","248","","Natural","Natural","","2003/09/05 00:00:00+00","248","","0.1","A","42.36006","-121.13785","PRIVATE","OR","37","41037","Lake County"
"-122.776225625","44.916744581","770133","872586","ODF-68586","NONFED","ST-ORORS","ST/C&L","USOR582S","Santiam Unit","ORODF-582","Santiam Unit","153","68586","","DOERFLER RD #2","","","","","","2003","2003/09/20 00:00:00+00","263","","Human","Debris and open burning","","2003/09/20 00:00:00+00","263","","0.25","A","44.91675","-122.77624","PRIVATE","OR","24","41047","Marion County"
"-123.942055298","45.650874659","770134","872587","ODF-68487","NONFED","ST-ORORS","ST/C&L","USOR510S","Tillamook District","ORODF-511","Tillamook District","052","68487","","NEDONNA BEACH 3","","","","","","2003","2003/09/13 00:00:00+00","256","","Human","Recreation and ceremony","","2003/09/13 00:00:00+00","256","","0.01","A","45.65088","-123.94207","MISSING/NOT SPECIFIED","OR","57","41057","Tillamook County"
"-123.9808358","43.015154812","770135","872588","ODF-68577","NONFED","ST-ORORS","ST/C&L","USOR722S","Bridge Unit","ORODF-722","Bridge Unit","049","68577","","PLUM PRAIRIE","","","","","","2003","2003/09/21 00:00:00+00","264","","Human","Equipment and vehicle use","","2003/09/21 00:00:00+00","264","","0.01","A","43.01516","-123.98085","PRIVATE","OR","6","41011","Coos County"
"-122.409665674","44.959894541","770136","872589","ODF-68521","NONFED","ST-ORORS","ST/C&L","USOR581S","Molalla Unit","ORODF-581","Molalla Unit","071","68521","","OLD BRIDGE","","","","","","2003","2003/09/14 00:00:00+00","257","","Human","Recreation and ceremony","","2003/09/14 00:00:00+00","257","","0.01","A","44.9599","-122.40968","BLM","OR","5","41005","Clackamas County"
"-123.551116008","42.160234826","770137","872590","ODF-68398","NONFED","ST-ORORS","ST/C&L","USOR712S","Grants Pass Unit","ORODF-712","Grants Pass Unit","206","68398","","BEAR FIRE","","","","","","2003","2003/09/05 00:00:00+00","248","","Natural","Natural","","2003/09/05 00:00:00+00","248","","0.01","A","42.16024","-123.55113","PRIVATE","OR","33","41033","Josephine County"
"-123.615196015","42.058104838","770138","872591","ODF-68401","NONFED","ST-ORORS","ST/C&L","USOR712S","Grants Pass Unit","ORODF-712","Grants Pass Unit","209","68401","","4 CORNERS","","","","","","2003","2003/09/06 00:00:00+00","249","","Natural","Natural","","2003/09/06 00:00:00+00","249","","0.01","A","42.05811","-123.61521","PRIVATE","OR","33","41033","Josephine County"
"-122.721136114","42.267374744","770139","872592","ODF-68545","NONFED","ST-ORORS","ST/C&L","USOR711S","Medford Unit","ORODF-711","Medford Unit","159","68545","","JEFFERY CREEK","","","","","","2003","2003/09/17 00:00:00+00","260","","Human","Power generation/transmission/distribution","","2003/09/17 00:00:00+00","260","","32.7","C","42.26738","-122.72115","PRIVATE","OR","29","41029","Jackson County"
"-124.382865727","43.102484845","770140","872593","ODF-68548","NONFED","ST-ORORS","ST/C&L","USOR723S","Gold Beach Unit","ORODF-723","Gold Beach Unit","046","68548","","BILLS CREEK #2","","","","","","2003","2003/09/17 00:00:00+00","260","","Human","Debris and open burning","","2003/09/17 00:00:00+00","260","","0.1","A","43.10249","-124.38288","PRIVATE","OR","6","41011","Coos County"
"-123.332525371","45.738284591","770141","872594","ODF-68616","NONFED","ST-ORORS","ST/C&L","USOR530S","Forest Grove District","ORODF-531","Forest Grove District","110","68616","","MORGAN CRK X-OVER BURN","","","","","","2003","2003/09/23 00:00:00+00","266","","Human","Equipment and vehicle use","","2003/09/23 00:00:00+00","266","","0.01","A","45.73829","-123.33254","STATE","OR","34","41067","Washington County"
"-123.158666004","42.533234766","770142","872595","ODF-68630","NONFED","ST-ORORS","ST/C&L","USOR712S","Grants Pass Unit","ORODF-712","Grants Pass Unit","283","68630","","PP # R-8150","","","","","","2003","2003/09/25 00:00:00+00","268","","Human","Power generation/transmission/distribution","","2003/09/25 00:00:00+00","268","","0.01","A","42.53324","-123.15868","MISSING/NOT SPECIFIED","OR","29","41029","Jackson County"
"-120.548826109","44.251914404","770143","872596","ODF-18283","NONFED","ST-ORORS","ST/C&L","USOR951S","Prineville Unit","ORODF-951","Prineville Unit","019","18283","","DIXIE BUTTE","","","","","","1998","1998/08/20 00:00:00+00","232","","Natural","Natural","","1998/08/20 00:00:00+00","232","","0.01","A","44.25192","-120.54884","PRIVATE","OR","7","41013","Crook County"
"-122.820806003","42.841334714","770144","872597","ODF-18242","NONFED","ST-ORORS","ST/C&L","USOR730S","Douglas Forest Protective Association","ORODF-732","Douglas South","092","18242","","SECTION CREEK","","","","","","1998","1998/08/21 00:00:00+00","233","","Human","Equipment and vehicle use","","1998/08/21 00:00:00+00","233","","0.01","A","42.84134","-122.82082","PRIVATE","OR","10","41019","Douglas County"
"-119.493356225","44.579994278","770145","872598","ODF-18298","NONFED","ST-ORORS","ST/C&L","USOR952S","John Day Unit","ORODF-952","John Day Unit","059","18298","","TIMBER BASIN","","","","","","1998","1998/08/25 00:00:00+00","237","","Human","Debris and open burning","","1998/08/25 00:00:00+00","237","","0.01","A","44.58","-119.49337","PRIVATE","OR","12","41023","Grant County"
"-119.141256277","44.621794241","770146","872599","ODF-18330","NONFED","ST-ORORS","ST/C&L","USOR952S","John Day Unit","ORODF-952","John Day Unit","061","18330","","FOX","","","","","","1998","1998/08/26 00:00:00+00","238","","Natural","Natural","","1998/08/26 00:00:00+00","238","","3","B","44.6218","-119.14127","PRIVATE","OR","12","41023","Grant County"
"-118.425756245","45.426944112","770147","872600","ODF-18396","NONFED","ST-ORORS","ST/C&L","USOR971S","LaGrande District","ORODF-971","LaGrande District","035","18396","","CONNEL RESPONSE","","","","","","1998","1998/08/29 00:00:00+00","241","","Natural","Natural","","1998/08/29 00:00:00+00","241","","0.25","A","45.42695","-118.42577","PRIVATE","OR","61","41061","Union County"
"-121.538976333","42.040594653","770148","872601","ODF-18337","NONFED","ST-ORORS","ST/C&L","USOR981S","Klamath Unit","ORODF-981","Klamath Unit","067","18337","","BAM BAM","","","","","","1998","1998/08/13 00:00:00+00","225","","Natural","Natural","","1998/08/13 00:00:00+00","225","","1","B","42.0406","-121.53899","PRIVATE","OR","18","41035","Klamath County"
"-121.513236057","43.683594535","770149","872602","ODF-18256","NONFED","ST-ORORS","ST/C&L","USOR955S","Sisters Unit","ORODF-955","Sisters Unit","068","18256","","C.T. RANCH","","","","","","1998","1998/08/19 00:00:00+00","231","","Human","Recreation and ceremony","","1998/08/19 00:00:00+00","231","","0.01","A","43.6836","-121.51325","PRIVATE","OR","17","41017","Deschutes County"
"-121.812046127","43.024654608","770150","872603","ODF-18351","NONFED","ST-ORORS","ST/C&L","USOR981S","Klamath Unit","ORODF-981","Klamath Unit","080","18351","","SUGAR PINE","","","","","","1998","1998/08/23 00:00:00+00","235","","Natural","Natural","","1998/08/23 00:00:00+00","235","","0.1","A","43.02466","-121.81206","PRIVATE","OR","18","41035","Klamath County"
"-123.198366042","42.267954787","770151","872604","ODF-18375","NONFED","ST-ORORS","ST/C&L","USOR712S","Grants Pass Unit","ORODF-712","Grants Pass Unit","142","18375","","POWER POLE # 124","","","","","","1998","1998/08/28 00:00:00+00","240","","Human","Power generation/transmission/distribution","","1998/08/28 00:00:00+00","240","","0.01","A","42.26796","-123.19838","COUNTY","OR","29","41029","Jackson County"
"-121.894586193","42.556904648","770152","872605","ODF-18345","NONFED","ST-ORORS","ST/C&L","USOR981S","Klamath Unit","ORODF-981","Klamath Unit","075","18345","","TRAIN","","","","","","1998","1998/08/22 00:00:00+00","234","","Natural","Natural","","1998/08/22 00:00:00+00","234","","0.01","A","42.55691","-121.8946","PRIVATE","OR","18","41035","Klamath County"
"-123.804445221","46.10589462","770153","872606","ODF-18382","NONFED","ST-ORORS","ST/C&L","USOR520S","Astoria District","ORODF-521","Astoria District","029","18382","","HOWARD JOHNSON ROAD","","","","","","1998","1998/08/28 00:00:00+00","240","","Human","Equipment and vehicle use","","1998/08/28 00:00:00+00","240","","0.01","A","46.1059","-123.80446","PRIVATE","OR","4","41007","Clatsop County"
"-121.782406099","43.209234593","770154","872607","ODF-18347","NONFED","ST-ORORS","ST/C&L","USOR981S","Klamath Unit","ORODF-981","Klamath Unit","076","18347","","RUMBLE","","","","","","1998","1998/08/22 00:00:00+00","234","","Human","Missing data/not specified/undetermined","","1998/08/22 00:00:00+00","234","","0.01","A","43.20924","-121.78242","PRIVATE","OR","18","41035","Klamath County"
"-123.596935248","46.125544597","770155","872608","ODF-18378","NONFED","ST-ORORS","ST/C&L","USOR520S","Astoria District","ORODF-521","Astoria District","030","18378","","HAGLUND HOMESTEAD","","","","","","1998","1998/08/28 00:00:00+00","240","","Human","Equipment and vehicle use","","1998/08/28 00:00:00+00","240","","2","B","46.12555","-123.59695","PRIVATE","OR","4","41007","Clatsop County"
"-123.648825992","42.171314834","770156","872609","ODF-68493","NONFED","ST-ORORS","ST/C&L","USOR712S","Grants Pass Unit","ORODF-712","Grants Pass Unit","230","68493","","HUSSEY LANE","","","","","","2003","2003/09/13 00:00:00+00","256","","Human","Smoking","","2003/09/13 00:00:00+00","256","","0.01","A","42.17132","-123.64884","PRIVATE","OR","33","41033","Josephine County"
"-124.028815435","44.925514706","770157","872610","ODF-18364","NONFED","ST-ORORS","ST/C&L","USOR553S","Toledo Unit","ORODF-553","Toledo Unit","018","18364","","SILETZ BAY","","","","","","1998","1998/08/27 00:00:00+00","239","","Human","Recreation and ceremony","","1998/08/27 00:00:00+00","239","","0.01","A","44.92552","-124.02883","MISSING/NOT SPECIFIED","OR","21","41041","Lincoln County"
"-123.374605859","43.190684744","770158","872611","ODF-18406","NONFED","ST-ORORS","ST/C&L","USOR730S","Douglas Forest Protective Association","ORODF-732","Douglas South","098","18406","","I-5 MILE POST 122","","","","","","1998","1998/08/29 00:00:00+00","241","","Human","Smoking","","1998/08/29 00:00:00+00","241","","0.01","A","43.19069","-123.37462","STATE","OR","10","41019","Douglas County"
"-123.567415756","43.604454737","770159","872612","ODF-68592","NONFED","ST-ORORS","ST/C&L","USOR730S","Douglas Forest Protective Association","ORODF-731","Douglas North","131","68592","","HWY 138W MP 2","","","","","","2003","2003/09/22 00:00:00+00","265","","Human","Debris and open burning","","2003/09/22 00:00:00+00","265","","15","C","43.60446","-123.56743","PRIVATE","OR","10","41019","Douglas County"
"-123.383635438","45.384374615","770160","872613","ODF-18387","NONFED","ST-ORORS","ST/C&L","USOR530S","Forest Grove District","ORODF-531","Forest Grove District","036","18387","","TOLL FIRE","","","","","","1998","1998/08/29 00:00:00+00","241","","Human","Recreation and ceremony","","1998/08/29 00:00:00+00","241","","0.09","A","45.38438","-123.38365","PRIVATE","OR","36","41071","Yamhill County"
"-122.572535665","44.877154562","770161","872614","ODF-18409","NONFED","ST-ORORS","ST/C&L","USOR582S","Santiam Unit","ORODF-582","Santiam Unit","018","18409","","NORTH FORK # 4","","","","","","1998","1998/08/30 00:00:00+00","242","","Human","Smoking","","1998/08/30 00:00:00+00","242","","0.1","A","44.87716","-122.57255","STATE","OR","24","41047","Marion County"
"-121.66617626","42.368494641","770162","872615","ODF-18342","NONFED","ST-ORORS","ST/C&L","USOR981S","Klamath Unit","ORODF-981","Klamath Unit","072","18342","","GARBAGE","","","","","","1998","1998/08/19 00:00:00+00","231","","Human","Recreation and ceremony","","1998/08/19 00:00:00+00","231","","0.1","A","42.3685","-121.66619","PRIVATE","OR","18","41035","Klamath County"
"-123.394095953","42.628274781","770163","872616","ODF-18383","NONFED","ST-ORORS","ST/C&L","USOR712S","Grants Pass Unit","ORODF-712","Grants Pass Unit","143","18383","","SUNNY GLEN WAY","","","","","","1998","1998/08/28 00:00:00+00","240","","Human","Equipment and vehicle use","","1998/08/28 00:00:00+00","240","","1","B","42.62828","-123.39411","PRIVATE","OR","33","41033","Josephine County"
"-123.271445479","45.265104611","770164","872617","ODF-18418","NONFED","ST-ORORS","ST/C&L","USOR530S","Forest Grove District","ORODF-531","Forest Grove District","037","18418","","WILLIS ROAD","","","","","","1998","1998/08/31 00:00:00+00","243","","Human","Other causes","","1998/08/31 00:00:00+00","243","","0.01","A","45.26511","-123.27146","PRIVATE","OR","36","41071","Yamhill County"
"-121.352026031","43.966404501","770165","872618","ODF-18446","NONFED","ST-ORORS","ST/C&L","USOR955S","Sisters Unit","ORODF-955","Sisters Unit","114","18446","","NAVAJO","","","","","","1998","1998/08/31 00:00:00+00","243","","Human","Smoking","Minor","1998/08/31 00:00:00+00","243","","0.5","B","43.96641","-121.35204","PRIVATE","OR","17","41017","Deschutes County"
"-123.379335974","42.514794787","770166","872620","ODF-18449","NONFED","ST-ORORS","ST/C&L","USOR712S","Grants Pass Unit","ORODF-712","Grants Pass Unit","152","18449","","MONUMENT DRIVE # 2","","","","","","1998","1998/09/01 00:00:00+00","244","","Human","Smoking","","1998/09/01 00:00:00+00","244","","0.01","A","42.5148","-123.37935","COUNTY","OR","33","41033","Josephine County"
"-121.836346153","42.847914623","770167","872621","ODF-18353","NONFED","ST-ORORS","ST/C&L","USOR981S","Klamath Unit","ORODF-981","Klamath Unit","082","18353","","SAND CREEK","","","","","","1998","1998/08/24 00:00:00+00","236","","Human","Recreation and ceremony","","1998/08/24 00:00:00+00","236","","0.57","B","42.84792","-121.83636","PRIVATE","OR","18","41035","Klamath County"
"-122.654415628","44.996364564","770168","872622","ODF-18373","NONFED","ST-ORORS","ST/C&L","USOR582S","Santiam Unit","ORODF-582","Santiam Unit","017","18373","","ABIQUA RD. NE #1","","","","","","1998","1998/08/28 00:00:00+00","240","","Human","Debris and open burning","","1998/08/28 00:00:00+00","240","","0.01","A","44.99637","-122.65443","PRIVATE","OR","24","41047","Marion County"
"-123.364735998","42.387794794","770169","872623","ODF-18401","NONFED","ST-ORORS","ST/C&L","USOR712S","Grants Pass Unit","ORODF-712","Grants Pass Unit","147","18401","","ADELINE DRIVE","","","","","","1998","1998/08/29 00:00:00+00","241","","Human","Equipment and vehicle use","","1998/08/29 00:00:00+00","241","","0.01","A","42.3878","-123.36475","PRIVATE","OR","33","41033","Josephine County"
"-122.812115422","45.878774529","770170","872625","ODF-18386","NONFED","ST-ORORS","ST/C&L","USOR532S","Columbia City Unit","ORODF-532","Colombia City Unit","027","18386","","BIKE PATH FIRE","","","","","","1998","1998/08/28 00:00:00+00","240","","Human","Misuse of fire by a minor","Minor","1998/08/28 00:00:00+00","240","","0.16","A","45.87878","-122.81213","MUNICIPAL/LOCAL","OR","9","41009","Columbia County"
"-123.049675739","44.111714656","770171","872626","ODF-18429","NONFED","ST-ORORS","ST/C&L","USOR771S","East Lane Unit - ODF","ORODF-771","East Lane Unit","046","18429","","ARMITAGE PARK","","","","","","1998","1998/08/31 00:00:00+00","243","","Human","Other causes","","1998/08/31 00:00:00+00","243","","0.01","A","44.11172","-123.04969","COUNTY","OR","20","41039","Lane County"
"-122.253175631","45.293604505","770172","872627","ODF-18388","NONFED","ST-ORORS","ST/C&L","USOR581S","Molalla Unit","ORODF-581","Molalla Unit","034","18388","","DELPH CRK # 1","","","","","","1998","1998/08/29 00:00:00+00","241","","Human","Recreation and ceremony","","1998/08/29 00:00:00+00","241","","0.01","A","45.29361","-122.25319","PRIVATE","OR","5","41005","Clackamas County"
"-123.280936023","42.311874791","770173","872628","ODF-18489","NONFED","ST-ORORS","ST/C&L","USOR712S","Grants Pass Unit","ORODF-712","Grants Pass Unit","159","18489","","PP # C-668","","","","","","1998","1998/09/02 00:00:00+00","245","","Human","Power generation/transmission/distribution","","1998/09/03 00:00:00+00","246","","0.25","A","42.31188","-123.28095","PRIVATE","OR","33","41033","Josephine County"
"-123.203385969","42.700604759","770174","872629","ODF-61040","NONFED","ST-ORORS","ST/C&L","USOR712S","Grants Pass Unit","ORODF-712","Grants Pass Unit","030","61040","","DITCH CREEK","","","","","","2001","2001/07/10 00:00:00+00","191","","Natural","Natural","","2001/07/11 00:00:00+00","192","","0.01","A","42.70061","-123.2034","BLM","OR","29","41029","Jackson County"
"-124.112375619","43.913184772","770175","872630","ODF-18419","NONFED","ST-ORORS","ST/C&L","USOR781S","Western Lane District","ORODF-781","Western Lane District","029","18419","","WOAHINK #1 FIRE","","","","","","1998","1998/08/28 00:00:00+00","240","","Human","Equipment and vehicle use","","1998/08/28 00:00:00+00","240","","0.15","A","43.91319","-124.11239","PRIVATE","OR","20","41039","Lane County"
"-117.544436306","45.913823988","770176","872631","ODF-2976","NONFED","ST-ORORS","ST/C&L","USOR974S","Wallowa Unit","ORODF-974","Wallowa Unit","788","2976","","EDEN RIDGE","","","","","","1992","1992/07/20 00:00:00+00","202","","Natural","Natural","","1992/07/20 00:00:00+00","202","","0.5","B","45.91383","-117.54445","STATE","OR","32","41063","Wallowa County"
"-122.858195805","43.915014649","770177","872632","ODF-18495","NONFED","ST-ORORS","ST/C&L","USOR771S","East Lane Unit - ODF","ORODF-771","East Lane Unit","048","18495","","RATTLESNAKE","","","","","","1998","1998/09/02 00:00:00+00","245","","Human","Equipment and vehicle use","","1998/09/02 00:00:00+00","245","","0.5","B","43.91502","-122.85821","PRIVATE","OR","20","41039","Lane County"
"-117.320706366","45.818623973","770178","872633","ODF-2958","NONFED","ST-ORORS","ST/C&L","USOR974S","Wallowa Unit","ORODF-974","Wallowa Unit","770","2958","","RAILROAD GRADE","","","","","","1992","1992/06/26 00:00:00+00","178","","Natural","Natural","","1992/06/26 00:00:00+00","178","","0.1","A","45.81863","-117.32072","PRIVATE","OR","32","41063","Wallowa County"
"-123.3645957","44.068704689","770179","872634","ODF-18421","NONFED","ST-ORORS","ST/C&L","USOR781S","Western Lane District","ORODF-781","Western Lane District","034","18421","","HORN ROAD FIRE","","","","","","1998","1998/08/29 00:00:00+00","241","","Human","Equipment and vehicle use","","1998/08/29 00:00:00+00","241","","0.01","A","44.06871","-123.36461","PRIVATE","OR","20","41039","Lane County"
"-118.463876233","45.455324114","770180","872636","ODF-2935","NONFED","ST-ORORS","ST/C&L","USOR973S","Pendleton Unit","ORODF-973","Pendleton Unit","628","2935","","LITTLE BEAVER CR","","","","","","1992","1992/10/26 00:00:00+00","300","","Human","Recreation and ceremony","","1992/10/26 00:00:00+00","300","","0.3","B","45.45533","-118.46389","PRIVATE","OR","30","41059","Umatilla County"
"-122.278195736","44.750174541","770181","872637","ODF-18473","NONFED","ST-ORORS","ST/C&L","USOR582S","Santiam Unit","ORODF-582","Santiam Unit","020","18473","","BIG CLIFF DAM","","","","","","1998","1998/09/02 00:00:00+00","245","","Human","Missing data/not specified/undetermined","","1998/09/02 00:00:00+00","245","","0.08","A","44.75018","-122.27821","MISSING/NOT SPECIFIED","OR","24","41047","Marion County"
"-117.729496296","45.797824015","770182","872638","ODF-2965","NONFED","ST-ORORS","ST/C&L","USOR974S","Wallowa Unit","ORODF-974","Wallowa Unit","777","2965","","CLEAR CREEK","","","","","","1992","1992/07/19 00:00:00+00","201","","Natural","Natural","","1992/07/20 00:00:00+00","202","","15","C","45.79783","-117.72951","PRIVATE","OR","32","41063","Wallowa County"
"-123.630085842","43.067674776","770183","872639","ODF-18496","NONFED","ST-ORORS","ST/C&L","USOR730S","Douglas Forest Protective Association","ORODF-732","Douglas South","096","18496","","CAMAS MOUNTAIN","","","","","","1998","1998/08/28 00:00:00+00","240","","Human","Equipment and vehicle use","","1998/08/28 00:00:00+00","240","","3.5","B","43.06768","-123.6301","STATE","OR","10","41019","Douglas County"
"-117.56633636","45.627674012","770184","872640","ODF-2952","NONFED","ST-ORORS","ST/C&L","USOR974S","Wallowa Unit","ORODF-974","Wallowa Unit","764","2952","","VALENTINE HILL","","","","","","1992","1992/06/25 00:00:00+00","177","","Natural","Natural","","1992/06/25 00:00:00+00","177","","0.25","A","45.62768","-117.56635","PRIVATE","OR","32","41063","Wallowa County"
"-122.749816043","42.669784719","770185","872641","ODF-18464","NONFED","ST-ORORS","ST/C&L","USOR711S","Medford Unit","ORODF-711","Medford Unit","053","18464","","ELK CREEK","","","","","","1998","1998/09/01 00:00:00+00","244","","Human","Power generation/transmission/distribution","","1998/09/01 00:00:00+00","244","","0.01","A","42.66979","-122.74983","PRIVATE","OR","29","41029","Jackson County"
"-117.698686348","45.568954029","770186","872642","ODF-2978","NONFED","ST-ORORS","ST/C&L","USOR974S","Wallowa Unit","ORODF-974","Wallowa Unit","790","2978","","CAMEL'S BACK","","","","","","1992","1992/07/20 00:00:00+00","202","","Natural","Natural","","1992/07/20 00:00:00+00","202","","0.01","A","45.56896","-117.6987","PRIVATE","OR","32","41063","Wallowa County"
"-117.734896298","45.779984017","770187","872643","ODF-2983","NONFED","ST-ORORS","ST/C&L","USOR974S","Wallowa Unit","ORODF-974","Wallowa Unit","795","2983","","SKYLER","","","","","","1992","1992/07/22 00:00:00+00","204","","Natural","Natural","","1992/07/23 00:00:00+00","205","","0.15","A","45.77999","-117.73491","PRIVATE","OR","32","41063","Wallowa County"
"-117.698856348","45.56533403","770188","872644","ODF-2995","NONFED","ST-ORORS","ST/C&L","USOR974S","Wallowa Unit","ORODF-974","Wallowa Unit","807","2995","","CAMEL'S BACK KNO","","","","","","1992","1992/08/16 00:00:00+00","229","","Human","Recreation and ceremony","","1992/08/16 00:00:00+00","229","","3","B","45.56534","-117.69887","PRIVATE","OR","32","41063","Wallowa County"
"-123.413955977","42.471404793","770189","872645","ODF-18424","NONFED","ST-ORORS","ST/C&L","USOR712S","Grants Pass Unit","ORODF-712","Grants Pass Unit","150","18424","","AZALEA DRIVE","","","","","","1998","1998/08/31 00:00:00+00","243","","Human","Smoking","","1998/08/31 00:00:00+00","243","","0.01","A","42.47141","-123.41397","PRIVATE","OR","33","41033","Josephine County"
"-117.577176328","45.773464002","770190","872646","ODF-3000","NONFED","ST-ORORS","ST/C&L","USOR974S","Wallowa Unit","ORODF-974","Wallowa Unit","812","3000","","LLOYD ROAD","","","","","","1992","1992/08/25 00:00:00+00","238","","Natural","Natural","","1992/08/25 00:00:00+00","238","","0.25","A","45.77347","-117.57719","PRIVATE","OR","32","41063","Wallowa County"
"-117.703286297","45.816554011","770191","872647","ODF-2981","NONFED","ST-ORORS","ST/C&L","USOR974S","Wallowa Unit","ORODF-974","Wallowa Unit","793","2981","","GROVE MEADOW","","","","","","1992","1992/07/22 00:00:00+00","204","","Natural","Natural","","1992/07/22 00:00:00+00","204","","0.2","A","45.81656","-117.7033","PRIVATE","OR","32","41063","Wallowa County"
"-121.586346066","43.57145455","770192","872648","ODF-18360","NONFED","ST-ORORS","ST/C&L","USORGILN","Gilchrist Fire Department","ORODF-991","Gilchrist","226","18360","","COIDC 1165","","","","","","1998","1998/08/25 00:00:00+00","237","","Human","Power generation/transmission/distribution","","1998/08/25 00:00:00+00","237","","0.02","A","43.57146","-121.58636","PRIVATE","OR","18","41035","Klamath County"
"-123.549555541","44.751194668","770193","872649","ODF-18460","NONFED","ST-ORORS","ST/C&L","USOR552S","Dallas Unit","ORODF-552","Dallas Unit","014","18460","","FISH CAMP","","","","","","1998","1998/09/01 00:00:00+00","244","","Human","Recreation and ceremony","","1998/09/01 00:00:00+00","244","","0.01","A","44.7512","-123.54957","PRIVATE","OR","53","41053","Polk County"
"-117.471266325","45.885123983","770194","872650","ODF-2971","NONFED","ST-ORORS","ST/C&L","USOR974S","Wallowa Unit","ORODF-974","Wallowa Unit","783","2971","","DAY RIDGE","","","","","","1992","1992/07/19 00:00:00+00","201","","Natural","Natural","","1992/07/20 00:00:00+00","202","","0.1","A","45.88513","-117.47128","PRIVATE","OR","32","41063","Wallowa County"
"-117.256746366","45.878143962","770195","872651","ODF-2996","NONFED","ST-ORORS","ST/C&L","USOR974S","Wallowa Unit","ORODF-974","Wallowa Unit","808","2996","","GRAVEL PIT","","","","","","1992","1992/08/17 00:00:00+00","230","","Natural","Natural","","1992/08/17 00:00:00+00","230","","0.01","A","45.87815","-117.25676","PRIVATE","OR","32","41063","Wallowa County"
"-117.346176449","45.383674009","770196","872652","ODF-2960","NONFED","ST-ORORS","ST/C&L","USOR974S","Wallowa Unit","ORODF-974","Wallowa Unit","772","2960","","LIME QUARRY ROAD","","","","","","1992","1992/07/05 00:00:00+00","187","","Human","Recreation and ceremony","","1992/07/05 00:00:00+00","187","","0.1","A","45.38368","-117.34619","PRIVATE","OR","32","41063","Wallowa County"
"-117.414556376","45.687223992","770197","872653","ODF-2998","NONFED","ST-ORORS","ST/C&L","USOR974S","Wallowa Unit","ORODF-974","Wallowa Unit","810","2998","","TOPE CREEK","","","","","","1992","1992/08/19 00:00:00+00","232","","Natural","Natural","","1992/08/19 00:00:00+00","232","","0.25","A","45.68723","-117.41457","PRIVATE","OR","32","41063","Wallowa County"
"-117.029856529","45.273213986","770198","872654","ODF-3007","NONFED","ST-ORORS","ST/C&L","USOR974S","Wallowa Unit","ORODF-974","Wallowa Unit","819","3007","","AIRPLANE RIDGE","","","","","","1992","1992/10/20 00:00:00+00","294","","Human","Debris and open burning","","1992/10/20 00:00:00+00","294","","3","B","45.27322","-117.02987","PRIVATE","OR","32","41063","Wallowa County"
"-117.625756323","45.754354008","770199","872655","ODF-2969","NONFED","ST-ORORS","ST/C&L","USOR974S","Wallowa Unit","ORODF-974","Wallowa Unit","781","2969","","CAMP TEN","","","","","","1992","1992/07/19 00:00:00+00","201","","Natural","Natural","","1992/07/19 00:00:00+00","201","","0.01","A","45.75436","-117.62577","PRIVATE","OR","32","41063","Wallowa County"
"-116.764106555","45.390103951","770200","872657","ODF-2959","NONFED","ST-ORORS","ST/C&L","USOR974S","Wallowa Unit","ORODF-974","Wallowa Unit","771","2959","","FREEZEOUT","","","","","","1992","1992/06/28 00:00:00+00","180","","Natural","Natural","","1992/06/28 00:00:00+00","180","","0.1","A","45.39011","-116.76412","PRIVATE","OR","32","41063","Wallowa County"
"-117.475626336","45.829403988","770201","872658","ODF-2972","NONFED","ST-ORORS","ST/C&L","USOR974S","Wallowa Unit","ORODF-974","Wallowa Unit","784","2972","","POWWATKA SIDE DR","","","","","","1992","1992/07/19 00:00:00+00","201","","Natural","Natural","","1992/07/20 00:00:00+00","202","","0.01","A","45.82941","-117.47564","PRIVATE","OR","32","41063","Wallowa County"
"-117.582356315","45.835283998","770202","872659","ODF-2973","NONFED","ST-ORORS","ST/C&L","USOR974S","Wallowa Unit","ORODF-974","Wallowa Unit","785","2973","","SICKFOOT","","","","","","1992","1992/07/19 00:00:00+00","201","","Natural","Natural","","1992/07/20 00:00:00+00","202","","0.01","A","45.83529","-117.58237","PRIVATE","OR","32","41063","Wallowa County"
"-117.713466319","45.699854021","770203","872660","ODF-2986","NONFED","ST-ORORS","ST/C&L","USOR974S","Wallowa Unit","ORODF-974","Wallowa Unit","798","2986","","HOWARD CREEK","","","","","","1992","1992/07/28 00:00:00+00","210","","Natural","Natural","","1992/07/28 00:00:00+00","210","","0.2","A","45.69986","-117.71348","PRIVATE","OR","32","41063","Wallowa County"
"-117.630896365","45.543014025","770204","872661","ODF-2979","NONFED","ST-ORORS","ST/C&L","USOR974S","Wallowa Unit","ORODF-974","Wallowa Unit","791","2979","","CHESNUT SPRINGS","","","","","","1992","1992/07/20 00:00:00+00","202","","Natural","Natural","","1992/07/20 00:00:00+00","202","","0.1","A","45.54302","-117.63091","PRIVATE","OR","32","41063","Wallowa County"
"-123.23664602","42.366184784","770205","872663","ODF-61054","NONFED","ST-ORORS","ST/C&L","USOR712S","Grants Pass Unit","ORODF-712","Grants Pass Unit","044","61054","","SAVAGE CREEK # 2","","","","","","2001","2001/07/11 00:00:00+00","192","","Natural","Natural","","2001/07/12 00:00:00+00","193","","0.01","A","42.36619","-123.23666","COUNTY","OR","33","41033","Josephine County"
"-119.427216167","44.938494246","770206","872665","ODF-67541","NONFED","ST-ORORS","ST/C&L","USOR952S","John Day Unit","ORODF-952","John Day Unit","028","67541","","BLACK ROCK CANYON","","","","","","2003","2003/08/04 00:00:00+00","216","","Natural","Natural","","2003/08/05 00:00:00+00","217","","0.1","A","44.9385","-119.42723","BLM","OR","12","41023","Grant County"
"-121.926346268","42.073584685","770207","872666","ODF-3094","NONFED","ST-ORORS","ST/C&L","USOR981S","Klamath Unit","ORODF-981","Klamath Unit","288","3094","","SCRATCH","","","","","","1992","1992/06/23 00:00:00+00","175","","Natural","Natural","","1992/06/23 00:00:00+00","175","","0.01","A","42.07359","-121.92636","MISSING/NOT SPECIFIED","OR","18","41035","Klamath County"
"-122.277396207","42.114374714","770208","872668","ODF-3088","NONFED","ST-ORORS","ST/C&L","USOR981S","Klamath Unit","ORODF-981","Klamath Unit","281","3088","","THIN","","","","","","1992","1992/06/23 00:00:00+00","175","","Natural","Natural","","1992/06/23 00:00:00+00","175","","0.3","B","42.11438","-122.27741","PRIVATE","OR","18","41035","Klamath County"
"-123.903545798","43.0918048","770209","872669","ODF-67601","NONFED","ST-ORORS","ST/C&L","USOR722S","Bridge Unit","ORODF-722","Bridge Unit","025","67601","","BIG CREEK","","","","","","2003","2003/08/05 00:00:00+00","217","","Natural","Natural","","2003/08/05 00:00:00+00","217","","0.01","A","43.09181","-123.90356","PRIVATE","OR","6","41011","Coos County"
"-118.33516645","44.450274176","770210","872672","ODF-2839","NONFED","ST-ORORS","ST/C&L","USOR972S","Baker Unit","ORODF-972","Baker City Unit","372","2839","","POWELL GULCH","","","","","","1992","1992/07/22 00:00:00+00","204","","Natural","Natural","","1992/07/22 00:00:00+00","204","","0.1","A","44.45028","-118.33518","PRIVATE","OR","1","41001","Baker County"
"-118.687756199","45.425174138","770211","872673","ODF-2899","NONFED","ST-ORORS","ST/C&L","USOR973S","Pendleton Unit","ORODF-973","Pendleton Unit","592","2899","","ROCKY RIDGE","","","","","","1992","1992/06/30 00:00:00+00","182","","Natural","Natural","","1992/06/30 00:00:00+00","182","","5","B","45.42518","-118.68777","PRIVATE","OR","30","41059","Umatilla County"
"-123.070636034","42.431354764","770212","872674","ODF-18248","NONFED","ST-ORORS","ST/C&L","USOR711S","Medford Unit","ORODF-711","Medford Unit","051","18248","","I-5 MM 43","","","","","","1998","1998/08/24 00:00:00+00","236","","Human","Equipment and vehicle use","","1998/08/24 00:00:00+00","236","","0.01","A","42.43136","-123.07065","STATE","OR","29","41029","Jackson County"
"-123.798685577","44.376194714","770213","872675","ODF-19471","NONFED","ST-ORORS","ST/C&L","USOR955S","Sisters Unit","ORODF-955","Sisters Unit","168","19471","","BLACK  BUTTE PIT","","","","","","1999","1999/05/25 00:00:00+00","145","","Human","Debris and open burning","","1999/05/25 00:00:00+00","145","","0.2","A","44.3762","-123.7987","PRIVATE","OR","17","41017","Deschutes County"
"-123.595145986","42.251474824","770214","872676","ODF-19458","NONFED","ST-ORORS","ST/C&L","USOR712S","Grants Pass Unit","ORODF-712","Grants Pass Unit","281","19458","","REEVES CREEK","","","","","","1999","1999/05/26 00:00:00+00","146","","Human","Debris and open burning","","1999/05/26 00:00:00+00","146","","2","B","42.25148","-123.59516","PRIVATE","OR","33","41033","Josephine County"
"-117.455616315","45.946933977","770215","872677","ODF-61246","NONFED","ST-ORORS","ST/C&L","USOR974S","Wallowa Unit","ORODF-974","Wallowa Unit","011","61246","","WENAHA RIVER","","","","","","2001","2001/07/12 00:00:00+00","193","","Natural","Natural","","2001/07/13 00:00:00+00","194","","0.1","A","45.94694","-117.45563","STATE","OR","32","41063","Wallowa County"
"-121.33674619","43.09176456","770216","872678","ODF-61264","NONFED","ST-ORORS","ST/C&L","USOR982S","Lake Unit","ORODF-982","Lake Unit","048","61264","","BUMP #276","","","","","","2001","2001/07/21 00:00:00+00","202","","Natural","Natural","","2001/07/21 00:00:00+00","202","","0.1","A","43.09177","-121.33676","PRIVATE","OR","37","41037","Lake County"
"-122.702875823","43.947454632","770217","872679","ODF-61307","NONFED","ST-ORORS","ST/C&L","USOR771S","East Lane Unit - ODF","ORODF-771","East Lane Unit","015","61307","","WINBERRY","","","","","","2001","2001/07/22 00:00:00+00","203","","Human","Recreation and ceremony","","2001/07/22 00:00:00+00","203","","1.5","B","43.94746","-122.70289","PRIVATE","OR","20","41039","Lane County"
"-122.980395418","45.772054552","770218","872680","ODF-19512","NONFED","ST-ORORS","ST/C&L","USOR532S","Columbia City Unit","ORODF-532","Colombia City Unit","061","19512","","RABINSKY ROAD #1","","","","","","1999","1999/06/05 00:00:00+00","156","","Human","Recreation and ceremony","","1999/06/05 00:00:00+00","156","","0.1","A","45.77206","-122.98041","PRIVATE","OR","9","41009","Columbia County"
"-123.344366007","42.348474795","770219","872681","ODF-19516","NONFED","ST-ORORS","ST/C&L","USOR712S","Grants Pass Unit","ORODF-712","Grants Pass Unit","296","19516","","NEW HOPE ROAD","","","","","","1999","1999/06/08 00:00:00+00","159","","Human","Recreation and ceremony","","1999/06/08 00:00:00+00","159","","0.01","A","42.34848","-123.34438","PRIVATE","OR","33","41033","Josephine County"
"-121.850876153","42.836964625","770220","872682","ODF-19449","NONFED","ST-ORORS","ST/C&L","USOR981S","Klamath Unit","ORODF-981","Klamath Unit","153","19449","","SAND CREEK","","","","","","1999","1999/05/22 00:00:00+00","142","","Human","Smoking","","1999/05/22 00:00:00+00","142","","30.5","C","42.83697","-121.85089","PRIVATE","OR","18","41035","Klamath County"
"-123.531606016","42.127294826","770221","872683","ODF-19493","NONFED","ST-ORORS","ST/C&L","USOR712S","Grants Pass Unit","ORODF-712","Grants Pass Unit","289","19493","","PP # B 8305","","","","","","1999","1999/06/01 00:00:00+00","152","","Human","Power generation/transmission/distribution","","1999/06/01 00:00:00+00","152","","1.5","B","42.1273","-123.53162","PRIVATE","OR","33","41033","Josephine County"
"-117.662686335","45.663854019","770222","872684","ODF-61263","NONFED","ST-ORORS","ST/C&L","USOR974S","Wallowa Unit","ORODF-974","Wallowa Unit","023","61263","","WISE MEADOW","","","","","","2001","2001/07/21 00:00:00+00","202","","Natural","Natural","","2001/07/21 00:00:00+00","202","","23","C","45.66386","-117.6627","PRIVATE","OR","32","41063","Wallowa County"
"-122.25478585","44.174934575","770223","872685","ODF-61284","NONFED","ST-ORORS","ST/C&L","USOR771S","East Lane Unit - ODF","ORODF-771","East Lane Unit","014","61284","","SADDLE","","","","","","2001","2001/07/22 00:00:00+00","203","","Human","Recreation and ceremony","","2001/07/22 00:00:00+00","203","","0.25","A","44.17494","-122.2548","PRIVATE","OR","20","41039","Lane County"
"-121.483286032","43.850094521","770224","872686","ODF-19472","NONFED","ST-ORORS","ST/C&L","USOR955S","Sisters Unit","ORODF-955","Sisters Unit","169","19472","","JACINTO","","","","","","1999","1999/05/28 00:00:00+00","148","","Human","Debris and open burning","","1999/05/28 00:00:00+00","148","","0.15","A","43.8501","-121.4833","PRIVATE","OR","17","41017","Deschutes County"
"-123.49692598","42.379804807","770225","872687","ODF-19529","NONFED","ST-ORORS","ST/C&L","USOR712S","Grants Pass Unit","ORODF-712","Grants Pass Unit","302","19529","","FIRVIEW","","","","","","1999","1999/06/10 00:00:00+00","161","","Human","Debris and open burning","","1999/06/10 00:00:00+00","161","","0.1","A","42.37981","-123.49694","PRIVATE","OR","33","41033","Josephine County"
"-122.617785803","44.122104613","770226","872688","ODF-61279","NONFED","ST-ORORS","ST/C&L","USOR771S","East Lane Unit - ODF","ORODF-771","East Lane Unit","012","61279","","GREENWOOD","","","","","","2001","2001/07/22 00:00:00+00","203","","Human","Recreation and ceremony","","2001/07/22 00:00:00+00","203","","0.01","A","44.12211","-122.6178","PRIVATE","OR","20","41039","Lane County"
"-123.432765968","42.507814793","770227","872690","ODF-19486","NONFED","ST-ORORS","ST/C&L","USOR712S","Grants Pass Unit","ORODF-712","Grants Pass Unit","285","19486","","ROBERTSON BRIDGE RD.","","","","","","1999","1999/05/28 00:00:00+00","148","","Human","Missing data/not specified/undetermined","","1999/05/28 00:00:00+00","148","","0.01","A","42.50782","-123.43278","PRIVATE","OR","33","41033","Josephine County"
"-123.094616032","42.424714767","770228","872691","ODF-61287","NONFED","ST-ORORS","ST/C&L","USOR711S","Medford Unit","ORODF-711","Medford Unit","088","61287","","PROFETTA","","","","","","2001","2001/07/22 00:00:00+00","203","","Human","Arson/incendiarism","","2001/07/22 00:00:00+00","203","","20","C","42.42472","-123.09463","COUNTY","OR","29","41029","Jackson County"
"-122.53794566","44.927934556","770229","872692","ODF-61256","NONFED","ST-ORORS","ST/C&L","USOR582S","Santiam Unit","ORODF-582","Santiam Unit","005","61256","","BUTTE CREEK 410","","","","","","2001","2001/07/21 00:00:00+00","202","","Human","Equipment and vehicle use","","2001/07/21 00:00:00+00","202","","0.01","A","44.92794","-122.53796","PRIVATE","OR","24","41047","Marion County"
"-124.086075617","43.944104767","770230","872694","ODF-19482","NONFED","ST-ORORS","ST/C&L","USOR781S","Western Lane District","ORODF-781","Western Lane District","078","19482","","OLD MILL FIRE","","","","","","1999","1999/05/30 00:00:00+00","150","","Human","Equipment and vehicle use","","1999/05/30 00:00:00+00","150","","0.01","A","43.94411","-124.08609","PRIVATE","OR","20","41039","Lane County"
"-118.944356362","44.351174242","770231","872695","ODF-19484","NONFED","ST-ORORS","ST/C&L","USOR952S","John Day Unit","ORODF-952","John Day Unit","078","19484","","BYRAM GULCH","","","","","","1999","1999/05/22 00:00:00+00","142","","Human","Debris and open burning","","1999/05/22 00:00:00+00","142","","217","D","44.35118","-118.94437","PRIVATE","OR","12","41023","Grant County"
"-122.097416227","42.160804695","770232","872696","ODF-61241","NONFED","ST-ORORS","ST/C&L","USOR981S","Klamath Unit","ORODF-981","Klamath Unit","083","61241","","LITTLE BUCK","","","","","","2001","2001/07/19 00:00:00+00","200","","Natural","Natural","","2001/07/19 00:00:00+00","200","","0.1","A","42.16081","-122.09743","PRIVATE","OR","18","41035","Klamath County"
"-123.379375859","43.186934745","770233","872697","ODF-61275","NONFED","ST-ORORS","ST/C&L","USOR730S","Douglas Forest Protective Association","ORODF-732","Douglas South","076","61275","","MCCLAINE AVENUE","","","","","","2001","2001/07/18 00:00:00+00","199","","Human","Missing data/not specified/undetermined","","2001/07/18 00:00:00+00","199","","1","B","43.18694","-123.37939","COUNTY","OR","10","41019","Douglas County"
"-123.426945866","43.103844754","770234","872698","ODF-61312","NONFED","ST-ORORS","ST/C&L","USOR730S","Douglas Forest Protective Association","ORODF-732","Douglas South","088","61312","","PATCHEN DRIVE","","","","","","2001","2001/07/23 00:00:00+00","204","","Human","Railroad operations and maintenance","","2001/07/23 00:00:00+00","204","","3","B","43.10385","-123.42696","PRIVATE","OR","10","41019","Douglas County"
"-121.533666046","43.730764534","770235","872699","ODF-19473","NONFED","ST-ORORS","ST/C&L","USOR955S","Sisters Unit","ORODF-955","Sisters Unit","170","19473","","YELLOW WOOD","","","","","","1999","1999/05/28 00:00:00+00","148","","Human","Debris and open burning","","1999/05/28 00:00:00+00","148","","0.2","A","43.73077","-121.53368","PRIVATE","OR","17","41017","Deschutes County"
"-123.379255955","42.63171478","770236","872700","ODF-19519","NONFED","ST-ORORS","ST/C&L","USOR712S","Grants Pass Unit","ORODF-712","Grants Pass Unit","297","19519","","SUNNY VALLEY LOOP","","","","","","1999","1999/06/08 00:00:00+00","159","","Human","Misuse of fire by a minor","Minor","1999/06/08 00:00:00+00","159","","0.01","A","42.63172","-123.37927","PRIVATE","OR","33","41033","Josephine County"
"-118.938006422","44.030804266","770237","872701","ODF-61305","NONFED","ST-ORORS","ST/C&L","USOR952S","John Day Unit","ORODF-952","John Day Unit","022","61305","","SILVIES","","","","","","2001","2001/07/23 00:00:00+00","204","","Human","Debris and open burning","","2001/07/23 00:00:00+00","204","","0.25","A","44.03081","-118.93802","PRIVATE","OR","12","41023","Grant County"
"-122.804436077","42.412744741","770238","872703","ODF-61299","NONFED","ST-ORORS","ST/C&L","USOR711S","Medford Unit","ORODF-711","Medford Unit","074","61299","","GUN RANGE","","","","","","2001","2001/07/17 00:00:00+00","198","","Human","Recreation and ceremony","","2001/07/17 00:00:00+00","198","","0.5","B","42.41275","-122.80445","COUNTY","OR","29","41029","Jackson County"
"-123.375035532","44.92887464","770239","872705","ODF-61282","NONFED","ST-ORORS","ST/C&L","USOR552S","Dallas Unit","ORODF-552","Dallas Unit","006","61282","","PIT","","","","","","2001","2001/07/22 00:00:00+00","203","","Human","Recreation and ceremony","","2001/07/22 00:00:00+00","203","","2","B","44.92888","-123.37505","PRIVATE","OR","53","41053","Polk County"
"-122.976096067","42.318344763","770240","872706","ODF-61285","NONFED","ST-ORORS","ST/C&L","USOR711S","Medford Unit","ORODF-711","Medford Unit","086","61285","","JACKSONVILLE","","","","","","2001","2001/07/22 00:00:00+00","203","","Human","Smoking","","2001/07/22 00:00:00+00","203","","2","B","42.31835","-122.97611","MUNICIPAL/LOCAL","OR","29","41029","Jackson County"
"-121.587676095","43.404644561","770241","872707","ODF-61298","NONFED","ST-ORORS","ST/C&L","USORGILN","Gilchrist Fire Department","ORODF-991","Gilchrist","230","61298","","COIDC 849","","","","","","2001","2001/07/20 00:00:00+00","201","","Natural","Natural","","2001/07/20 00:00:00+00","201","","0.02","A","43.40465","-121.58769","PRIVATE","OR","18","41035","Klamath County"
"-123.589985978","42.30623482","770242","872708","ODF-19491","NONFED","ST-ORORS","ST/C&L","USOR712S","Grants Pass Unit","ORODF-712","Grants Pass Unit","287","19491","","INDIAN CREEK","","","","","","1999","1999/05/31 00:00:00+00","151","","Human","Debris and open burning","","1999/05/31 00:00:00+00","151","","0.25","A","42.30624","-123.59","PRIVATE","OR","33","41033","Josephine County"
"-123.427725958","42.566724788","770243","872709","ODF-19501","NONFED","ST-ORORS","ST/C&L","USOR712S","Grants Pass Unit","ORODF-712","Grants Pass Unit","292","19501","","HUGO ROAD","","","","","","1999","1999/06/05 00:00:00+00","156","","Human","Debris and open burning","","1999/06/05 00:00:00+00","156","","0.1","A","42.56673","-123.42774","PRIVATE","OR","33","41033","Josephine County"
"-123.427475743","43.785354713","770244","872710","ODF-61325","NONFED","ST-ORORS","ST/C&L","USOR781S","Western Lane District","ORODF-781","Western Lane District","018","61325","","BEAVER CREEK FIRE","","","","","","2001","2001/07/24 00:00:00+00","205","","Human","Equipment and vehicle use","","2001/07/24 00:00:00+00","205","","0.25","A","43.78536","-123.42749","PRIVATE","OR","10","41019","Douglas County"
"-123.104696029","42.431724768","770245","872711","ODF-61286","NONFED","ST-ORORS","ST/C&L","USOR711S","Medford Unit","ORODF-711","Medford Unit","087","61286","","SILICA PLANT","","","","","","2001","2001/07/22 00:00:00+00","203","","Human","Arson/incendiarism","","","","","1.25","B","42.43173","-123.10471","COUNTY","OR","29","41029","Jackson County"
"-122.878006105","42.176564764","770246","872712","ODF-61316","NONFED","ST-ORORS","ST/C&L","USOR711S","Medford Unit","ORODF-711","Medford Unit","090","61316","","OLD PINE TREE","","","","","","2001","2001/07/23 00:00:00+00","204","","Human","Firearms and explosives use","","2001/07/23 00:00:00+00","204","","0.01","A","42.17657","-122.87802","BLM","OR","29","41029","Jackson County"
"-123.575105846","43.096104769","770247","872713","ODF-61339","NONFED","ST-ORORS","ST/C&L","USOR730S","Douglas Forest Protective Association","ORODF-732","Douglas South","057","61339","","RESTON ROAD #1","","","","","","2001","2001/06/27 00:00:00+00","178","","Human","Debris and open burning","","2001/06/27 00:00:00+00","178","","0.25","A","43.09611","-123.57512","PRIVATE","OR","10","41019","Douglas County"
"-117.465896309","45.968303976","770248","872714","ODF-61291","NONFED","ST-ORORS","ST/C&L","USOR974S","Wallowa Unit","ORODF-974","Wallowa Unit","024","61291","","GRUMPY OLD MAN","","","","","","2001","2001/07/21 00:00:00+00","202","","Natural","Natural","","2001/07/21 00:00:00+00","202","","0.01","A","45.96831","-117.46591","PRIVATE","OR","32","41063","Wallowa County"
"-122.62352567","44.811734572","770249","872715","ODF-19494","NONFED","ST-ORORS","ST/C&L","USOR582S","Santiam Unit","ORODF-582","Santiam Unit","039","19494","","JOE STOUT COMBO","","","","","","1999","1999/05/30 00:00:00+00","150","","Human","Debris and open burning","","1999/05/31 00:00:00+00","151","","7","B","44.81174","-122.62354","PRIVATE","OR","24","41047","Marion County"
"-123.084806032","42.435224765","770250","872716","ODF-61288","NONFED","ST-ORORS","ST/C&L","USOR711S","Medford Unit","ORODF-711","Medford Unit","089","61288","","ROCK PT. CEMETERY","","","","","","2001","2001/07/22 00:00:00+00","203","","Human","Arson/incendiarism","","2001/07/22 00:00:00+00","203","","0.1","A","42.43523","-123.08482","COUNTY","OR","29","41029","Jackson County"
"-123.080106021","42.499864761","770251","872717","ODF-61373","NONFED","ST-ORORS","ST/C&L","USOR711S","Medford Unit","ORODF-711","Medford Unit","093","61373","","MYSTERY","","","","","","2001","2001/07/26 00:00:00+00","207","","Human","Smoking","","2001/07/26 00:00:00+00","207","","0.1","A","42.49987","-123.08012","PRIVATE","OR","29","41029","Jackson County"
"-123.271576039","42.220074797","770252","872718","ODF-19520","NONFED","ST-ORORS","ST/C&L","USOR712S","Grants Pass Unit","ORODF-712","Grants Pass Unit","298","19520","","RED BARN","","","","","","1999","1999/06/09 00:00:00+00","160","","Human","Debris and open burning","","1999/06/09 00:00:00+00","160","","0.25","A","42.22008","-123.27159","PRIVATE","OR","33","41033","Josephine County"
"-123.37722587","43.121594749","770253","872719","ODF-61311","NONFED","ST-ORORS","ST/C&L","USOR730S","Douglas Forest Protective Association","ORODF-732","Douglas South","087","61311","","ROBERTS MOUNTAIN #2","","","","","","2001","2001/07/23 00:00:00+00","204","","Human","Railroad operations and maintenance","","2001/07/23 00:00:00+00","204","","10","C","43.1216","-123.37724","PRIVATE","OR","10","41019","Douglas County"
"-123.634605985","42.226054829","770254","872720","ODF-61349","NONFED","ST-ORORS","ST/C&L","USOR712S","Grants Pass Unit","ORODF-712","Grants Pass Unit","107","61349","","REEVES CREEK","","","","","","2001","2001/07/25 00:00:00+00","206","","Human","Missing data/not specified/undetermined","","2001/07/25 00:00:00+00","206","","0.01","A","42.22606","-123.63462","PRIVATE","OR","33","41033","Josephine County"
"-122.566536058","42.742114697","770255","872721","ODF-19507","NONFED","ST-ORORS","ST/C&L","USOR711S","Medford Unit","ORODF-711","Medford Unit","092","19507","","ULRICH ROAD","","","","","","1999","1999/06/06 00:00:00+00","157","","Human","Missing data/not specified/undetermined","","1999/06/06 00:00:00+00","157","","0.1","A","42.74212","-122.56655","PRIVATE","OR","29","41029","Jackson County"
"-124.475995767","42.794284872","770256","872722","ODF-19506","NONFED","ST-ORORS","ST/C&L","USOR723S","Gold Beach Unit","ORODF-723","Gold Beach Unit","049","19506","","ELK RIVER","","","","","","1999","1999/06/06 00:00:00+00","157","","Human","Debris and open burning","","1999/06/06 00:00:00+00","157","","1","B","42.79429","-124.47601","PRIVATE","OR","8","41015","Curry County"
"-122.73088613","42.161784752","770257","872723","ODF-19544","NONFED","ST-ORORS","ST/C&L","USOR711S","Medford Unit","ORODF-711","Medford Unit","097","19544","","WILSON","","","","","","1999","1999/06/13 00:00:00+00","164","","Human","Debris and open burning","","1999/06/13 00:00:00+00","164","","0.25","A","42.16179","-122.7309","PRIVATE","OR","29","41029","Jackson County"
