"ï»¿X","Y","OBJECTID","FOD_ID","FPA_ID","SOURCE_SYSTEM_TYPE","SOURCE_SYSTEM","NWCG_REPORTING_AGENCY","NWCG_REPORTING_UNIT_ID","NWCG_REPORTING_UNIT_NAME","SOURCE_REPORTING_UNIT","SOURCE_REPORTING_UNIT_NAME","LOCAL_FIRE_REPORT_ID","LOCAL_INCIDENT_ID","FIRE_CODE","FIRE_NAME","ICS_209_PLUS_INCIDENT_JOIN_ID","ICS_209_PLUS_COMPLEX_JOIN_ID","MTBS_ID","MTBS_FIRE_NAME","COMPLEX_NAME","FIRE_YEAR","DISCOVERY_DATE","DISCOVERY_DOY","DISCOVERY_TIME","NWCG_CAUSE_CLASSIFICATION","NWCG_GENERAL_CAUSE","NWCG_CAUSE_AGE_CATEGORY","CONT_DATE","CONT_DOY","CONT_TIME","FIRE_SIZE","FIRE_SIZE_CLASS","LATITUDE","LONGITUDE","OWNER_DESCR","STATE","COUNTY","FIPS_CODE","FIPS_NAME"
"-108.19721202","33.032772526","1565001","201432431","FS-1510472","FED","FS-FIRESTAT","FS","USNMGNF","Gila National Forest","0306","Gila National Forest","092","21","EKV5","VALLEY TROUT","","","","","","2012","2012/09/29 00:00:00+00","273","0946","Human","Missing data/not specified/undetermined","","2012/09/29 00:00:00+00","273","1025","0.1","A","33.03277778","-108.19722222","USFS","NM","017","35017","Grant County"
"-108.537211894","33.795272429","1565002","201432433","FS-1510384","FED","FS-FIRESTAT","FS","USNMGNF","Gila National Forest","0306","Gila National Forest","059","14","EKV5","JOHN KERR","","","","","","2012","2012/07/19 00:00:00+00","201","0700","Natural","Natural","","2012/07/19 00:00:00+00","201","1300","0.1","A","33.79527778","-108.53722222","USFS","NM","003","35003","Catron County"
"-108.139712047","32.814994777","1565003","201432434","FS-1510479","FED","FS-FIRESTAT","FS","USNMGNF","Gila National Forest","0306","Gila National Forest","095","23","G9YK","FT. BAYARD","","","","","","2012","2012/10/20 00:00:00+00","294","0824","Natural","Natural","","2012/10/20 00:00:00+00","294","0930","0.25","A","32.815","-108.13972222","USFS","NM","017","35017","Grant County"
"-108.95443403","33.748605788","1565004","201432435","FS-1504679","FED","FS-FIRESTAT","FS","USNMGNF","Gila National Forest","0306","Gila National Forest","054","011","EKV5","HIGHWAY","","","","","","2012","2012/07/16 00:00:00+00","198","1630","Natural","Natural","","2012/07/16 00:00:00+00","198","2031","0.1","A","33.74861111","-108.95444444","USFS","NM","003","35003","Catron County"
"-108.961934033","33.680828018","1565005","201432436","FS-1505571","FED","FS-FIRESTAT","FS","USNMGNF","Gila National Forest","0306","Gila National Forest","053","008","EKV5","BULL PEAK","","","","","","2012","2012/07/13 00:00:00+00","195","1030","Natural","Natural","","2012/07/13 00:00:00+00","195","1801","0.12","A","33.68083333","-108.96194444","USFS","NM","003","35003","Catron County"
"-108.885545175","33.600550256","1565006","201432437","FS-1504476","FED","FS-FIRESTAT","FS","USNMGNF","Gila National Forest","0306","Gila National Forest","056","010","EKV5","COTTONWOOD","","","","","","2012","2012/07/17 00:00:00+00","199","1400","Natural","Natural","","2012/07/17 00:00:00+00","199","1601","0.1","A","33.60055556","-108.88555556","USFS","NM","003","35003","Catron County"
"-108.602211906","33.434439146","1565007","201432438","FS-1510377","FED","FS-FIRESTAT","FS","USNMGNF","Gila National Forest","0306","Gila National Forest","057","13","EKV5","ADAM","","","","","","2012","2012/07/17 00:00:00+00","199","1300","Natural","Natural","","2012/07/19 00:00:00+00","201","1600","0.1","A","33.43444444","-108.60222222","USFS","NM","003","35003","Catron County"
"-107.756101009","32.950828067","1565008","201432439","FS-1504631","FED","FS-FIRESTAT","FS","USNMGNF","Gila National Forest","0306","Gila National Forest","042","003","EKV5","CARBONATE","","","","","","2012","2012/07/05 00:00:00+00","187","1500","Natural","Natural","","2012/07/05 00:00:00+00","187","1600","0.1","A","32.95083333","-107.75611111","USFS","NM","051","35051","Sierra County"
"-108.923322936","33.618050255","1565009","201432440","FS-1505566","FED","FS-FIRESTAT","FS","USNMGNF","Gila National Forest","0306","Gila National Forest","030","004","EKV5","PARK CANYON","","","","","","2012","2012/06/26 00:00:00+00","178","2102","Natural","Natural","","2012/06/27 00:00:00+00","179","1709","0.1","A","33.61805556","-108.92333333","USFS","NM","003","35003","Catron County"
"-109.045545147","33.524994715","1565010","201432441","FS-1505557","FED","FS-FIRESTAT","FS","USNMGNF","Gila National Forest","0306","Gila National Forest","031","005","EKV5","WS MOUNTAIN","","","","","","2012","2012/06/27 00:00:00+00","179","0650","Natural","Natural","","2012/07/01 00:00:00+00","183","1500","84","C","33.525","-109.04555556","USFS","NM","003","35003","Catron County"
"-107.939989845","33.173883602","1565011","201432442","FS-1504362","FED","FS-FIRESTAT","FS","USNMGNF","Gila National Forest","0306","Gila National Forest","011","005","EKV5","SPACE","","","","","","2012","2012/05/13 00:00:00+00","134","0757","Natural","Natural","","2012/05/13 00:00:00+00","134","1050","0.1","A","33.17388889","-107.94","USFS","NM","017","35017","Grant County"
"-108.387767471","33.981939054","1565012","201432443","FS-1505150","FED","FS-FIRESTAT","FS","USNMGNF","Gila National Forest","0306","Gila National Forest","058","012","EKV5","LAMB FIRE","","","","","","2012","2012/07/18 00:00:00+00","200","1800","Natural","Natural","","2012/07/20 00:00:00+00","202","1240","0.5","B","33.98194444","-108.38777778","USFS","NM","003","35003","Catron County"
"-109.023045179","33.14471699","1565013","201432444","FS-1504126","FED","FS-FIRESTAT","FS","USNMGNF","Gila National Forest","0306","Gila National Forest","029","003","EKV5","PINE","","","","","","2012","2012/06/26 00:00:00+00","178","2014","Natural","Natural","","2012/06/29 00:00:00+00","181","1733","5","B","33.14472222","-109.02305556","USFS","NM","017","35017","Grant County"
"-108.903045163","33.706939121","1565014","201432445","FS-1504460","FED","FS-FIRESTAT","FS","USNMGNF","Gila National Forest","0306","Gila National Forest","049","009","EKV5","LEGGETT","","","","","","2012","2012/07/11 00:00:00+00","193","0930","Natural","Natural","","2012/07/11 00:00:00+00","193","1320","0.1","A","33.70694444","-108.90305556","USFS","NM","003","35003","Catron County"
"-109.043045128","33.793883566","1565015","201432446","FS-1504677","FED","FS-FIRESTAT","FS","USNMGNF","Gila National Forest","0306","Gila National Forest","044","007","EKV5","FRIEBORN","","","","","","2012","2012/07/07 00:00:00+00","189","1938","Natural","Natural","","2012/07/09 00:00:00+00","191","1130","0.1","A","33.79388889","-109.04305556","USFS","NM","003","35003","Catron County"
"-107.91332319","33.031661403","1565016","201432447","FS-1504376","FED","FS-FIRESTAT","FS","USNMGNF","Gila National Forest","0306","Gila National Forest","024","008","EKV5","POWDER","","","","","","2012","2012/06/21 00:00:00+00","173","1638","Natural","Natural","","2012/06/21 00:00:00+00","173","1800","26","C","33.03166667","-107.91333333","USFS","NM","017","35017","Grant County"
"-108.744989635","33.72388356","1565017","201432448","FS-1510375","FED","FS-FIRESTAT","FS","USNMGNF","Gila National Forest","0306","Gila National Forest","060","15","EKV5","LARGO","","","","","","2012","2012/07/21 00:00:00+00","203","0729","Natural","Natural","","2012/07/21 00:00:00+00","203","0730","0.3","B","33.72388889","-108.745","USFS","NM","003","35003","Catron County"
"-108.886378512","33.498050271","1565018","201432449","FS-1505161","FED","FS-FIRESTAT","FS","USNMGNF","Gila National Forest","0306","Gila National Forest","055","004","EKV5","KENNEDY","","","","","","2012","2012/07/16 00:00:00+00","198","1940","Natural","Natural","","2012/07/17 00:00:00+00","199","0930","0.1","A","33.49805556","-108.88638889","USFS","NM","003","35003","Catron County"
"-107.713045463","33.029161393","1565019","201432450","FS-1506380","FED","FS-FIRESTAT","FS","USNMGNF","Gila National Forest","0306","Gila National Forest","072","008","EKV5","CAVE CREEK","","","","","","2012","2012/08/09 00:00:00+00","222","1300","Natural","Natural","","","","","73","C","33.02916667","-107.71305556","USFS","NM","051","35051","Sierra County"
"-108.316656405","33.589439108","1565020","201432452","FS-1504455","FED","FS-FIRESTAT","FS","USNMGNF","Gila National Forest","0306","Gila National Forest","037","005","EKV5","OBARO","","","","","","2012","2012/07/02 00:00:00+00","184","2000","Natural","Natural","","2012/07/03 00:00:00+00","185","1100","0.5","B","33.58944444","-108.31666667","USFS","NM","003","35003","Catron County"
"-107.878045402","33.403328004","1565021","201432453","FS-1506365","FED","FS-FIRESTAT","FS","USNMGNF","Gila National Forest","0306","Gila National Forest","069","007","EKV5","STIVER SPRINGS","","","","","","2012","2012/08/05 00:00:00+00","218","1726","Natural","Natural","","","","","0.4","B","33.40333333","-107.87805556","USFS","NM","003","35003","Catron County"
"-107.999712053","33.163883607","1565022","201432454","FS-1504401","FED","FS-FIRESTAT","FS","USNMGNF","Gila National Forest","0306","Gila National Forest","045","013","EKV5","SQUAW","","","","","","2012","2012/07/08 00:00:00+00","190","1641","Natural","Natural","","2012/07/08 00:00:00+00","190","1840","0.1","A","33.16388889","-107.99972222","USFS","NM","017","35017","Grant County"
"-108.108045315","33.915272389","1565023","201432455","FS-1503465","FED","FS-FIRESTAT","FS","USNMGNF","Gila National Forest","0306","Gila National Forest","014","004","EKV5","TULAROSA FIRE","","","","","","2012","2012/05/15 00:00:00+00","136","1308","Natural","Natural","","2012/05/15 00:00:00+00","136","1832","0.25","A","33.91527778","-108.10805556","USFS","NM","003","35003","Catron County"
"-108.108045388","32.895550323","1565024","201432456","FS-1508730","FED","FS-FIRESTAT","FS","USNMGNF","Gila National Forest","0306","Gila National Forest","013","03","EKV5","OSO","","","","","","2012","2012/05/14 00:00:00+00","135","1436","Natural","Natural","","2012/05/14 00:00:00+00","135","1930","1.75","B","32.89555556","-108.10805556","USFS","NM","017","35017","Grant County"
"-108.451100808","33.714439097","1565025","201432457","FS-1504483","FED","FS-FIRESTAT","FS","USNMGNF","Gila National Forest","0306","Gila National Forest","028","003","EKV5","COX","","","","","","2012","2012/06/24 00:00:00+00","176","1230","Natural","Natural","","2012/06/24 00:00:00+00","176","1500","3.6","B","33.71444444","-108.45111111","USFS","NM","003","35003","Catron County"
"-108.329434226","32.831105893","1565026","201432458","FS-1511126","FED","FS-FIRESTAT","FS","USNMGNF","Gila National Forest","0306","Gila National Forest","097","24","HA3C","BEAR MTN.","","","","","","2012","2012/11/25 00:00:00+00","330","1604","Human","Recreation and ceremony","","2012/11/25 00:00:00+00","330","1635","0.2","A","32.83111111","-108.32944444","USFS","NM","017","35017","Grant County"
"-108.177489814","32.897494766","1565027","201432459","FS-1508814","FED","FS-FIRESTAT","FS","USNMGNF","Gila National Forest","0306","Gila National Forest","074","11","EKV5","TWIN","","","","","","2012","2012/08/11 00:00:00+00","224","1842","Natural","Natural","","2012/08/13 00:00:00+00","226","1400","0.25","A","32.8975","-108.1775","USFS","NM","017","35017","Grant County"
"-108.27082312","32.957772541","1565028","201432460","FS-1510456","FED","FS-FIRESTAT","FS","USNMGNF","Gila National Forest","0306","Gila National Forest","080","14","EKV5","SYCAMORE","","","","","","2012","2012/08/29 00:00:00+00","242","1953","Natural","Natural","","2012/08/30 00:00:00+00","243","1700","3.3","B","32.95777778","-108.27083333","USFS","NM","017","35017","Grant County"
"-108.219434239","32.984161425","1565029","201432461","FS-1508796","FED","FS-FIRESTAT","FS","USNMGNF","Gila National Forest","0306","Gila National Forest","039","08","EKV5","TROUT","","","","","","2012","2012/07/02 00:00:00+00","184","1754","Natural","Natural","","2012/07/02 00:00:00+00","184","1845","0.1","A","32.98416667","-108.21944444","USFS","NM","017","35017","Grant County"
"-108.137489826","32.841383663","1565030","201432462","FS-1510453","FED","FS-FIRESTAT","FS","USNMGNF","Gila National Forest","0306","Gila National Forest","076","12","EKV5","FORT","","","","","","2012","2012/08/16 00:00:00+00","229","1130","Natural","Natural","","2012/08/16 00:00:00+00","229","1245","0.25","A","32.84138889","-108.1375","USFS","NM","017","35017","Grant County"
"-112.39804419","36.770272249","1565031","201432463","FS-1511514","FED","FS-FIRESTAT","FS","USAZKNF","Kaibab National Forest","0307","Kaibab National Forest","107","050","G94Y","SAWMILL","2012_AZ-KNF-001158_SAWMILL","","","","","2012","2012/10/28 00:00:00+00","302","1150","Human","Missing data/not specified/undetermined","","2012/11/14 00:00:00+00","319","1450","252","D","36.77027778","-112.39805556","USFS","AZ","005","04005","Coconino County"
"-111.908044424","35.294994627","1565032","201432464","FS-1502658","FED","FS-FIRESTAT","FS","USAZKNF","Kaibab National Forest","0307","Kaibab National Forest","001","01","GM4S","RABBIT","","","","","","2012","2012/02/21 00:00:00+00","52","1331","Human","Missing data/not specified/undetermined","","2012/03/01 00:00:00+00","61","1442","125","D","35.295","-111.90805556","STATE OR PRIVATE","AZ","005","04005","Coconino County"
"-111.974711084","35.14999465","1565033","201432465","FS-1507372","FED","FS-FIRESTAT","FS","USAZKNF","Kaibab National Forest","0307","Kaibab National Forest","103","35","EKV6","POWER","","","","","","2012","2012/09/03 00:00:00+00","247","1504","Natural","Natural","","2012/09/04 00:00:00+00","248","1416","0.1","A","35.15","-111.97472222","USFS","AZ","005","04005","Coconino County"
"-112.065822047","36.552772255","1565034","201432466","FS-1504540","FED","FS-FIRESTAT","FS","USAZKNF","Kaibab National Forest","0307","Kaibab National Forest","035","019","EKV6","CANE","","","","","","2012","2012/07/13 00:00:00+00","195","1730","Natural","Natural","","2012/07/14 00:00:00+00","196","1330","0.25","A","36.55277778","-112.06583333","USFS","AZ","005","04005","Coconino County"
"-112.511655293","36.613883386","1565035","201432467","FS-1507064","FED","FS-FIRESTAT","FS","USAZKNF","Kaibab National Forest","0307","Kaibab National Forest","049","030","EKV6","ELBOW","2012_AZ-KNF-000693_WEST SIDE COMPLEX","2012_AZ-KNF-000693_WEST SIDE COMPLEX","","","WESTSIDE COMPLEX","2012","2012/07/21 00:00:00+00","203","1522","Natural","Natural","","2012/07/24 00:00:00+00","206","1418","133","D","36.61388889","-112.51166667","USFS","AZ","005","04005","Coconino County"
"-112.146933151","36.450827823","1565036","201432468","FS-1505093","FED","FS-FIRESTAT","FS","USAZKNF","Kaibab National Forest","0307","Kaibab National Forest","030","017","EKV6","VT","","","","","","2012","2012/07/11 00:00:00+00","193","1257","Natural","Natural","","2012/07/12 00:00:00+00","194","1149","0.5","B","36.45083333","-112.14694444","USFS","AZ","005","04005","Coconino County"
"-111.941099953","35.463050167","1565037","201432469","FS-1505298","FED","FS-FIRESTAT","FS","USAZKNF","Kaibab National Forest","0307","Kaibab National Forest","058","13","EKV6","JUNIPER","","","","","","2012","2012/07/23 00:00:00+00","205","1544","Natural","Natural","","2012/07/24 00:00:00+00","206","1445","0.1","A","35.46305556","-111.94111111","USFS","AZ","005","04005","Coconino County"
"-112.079433222","35.834161237","1565038","201432470","FS-1504328","FED","FS-FIRESTAT","FS","USAZKNF","Kaibab National Forest","0307","Kaibab National Forest","015","03","EKV6","LITTLE","","","","","","2012","2012/07/08 00:00:00+00","190","1325","Natural","Natural","","2012/07/09 00:00:00+00","191","1128","0.1","A","35.83416667","-112.07944444","USFS","AZ","005","04005","Coconino County"
"-112.498044188","36.590550058","1565039","201432471","FS-1507627","FED","FS-FIRESTAT","FS","USAZKNF","Kaibab National Forest","0307","Kaibab National Forest","104","049","EKV6","ELDER","","","","","","2012","2012/09/08 00:00:00+00","252","1201","Natural","Natural","","2012/09/10 00:00:00+00","254","1138","5.1","B","36.59055556","-112.49805556","USFS","AZ","005","04005","Coconino County"
"-112.130266544","35.927216779","1565040","201432472","FS-1506600","FED","FS-FIRESTAT","FS","USAZKNF","Kaibab National Forest","0307","Kaibab National Forest","077","16","EKV6","TEN","","","","","","2012","2012/08/08 00:00:00+00","221","1406","Natural","Natural","","2012/08/08 00:00:00+00","221","1513","0.1","A","35.92722222","-112.13027778","USFS","AZ","005","04005","Coconino County"
"-112.249155354","36.518605601","1565041","201432473","FS-1504850","FED","FS-FIRESTAT","FS","USAZKNF","Kaibab National Forest","0307","Kaibab National Forest","053","034","EKV6","LOST","","","","","","2012","2012/07/22 00:00:00+00","204","1336","Natural","Natural","","2012/07/22 00:00:00+00","204","1700","0.1","A","36.51861111","-112.24916667","USFS","AZ","005","04005","Coconino County"
"-111.979711024","35.815550124","1565042","201432474","FS-1505348","FED","FS-FIRESTAT","FS","USAZKNF","Kaibab National Forest","0307","Kaibab National Forest","016","04","EKV6","WATER","","","","","","2012","2012/07/08 00:00:00+00","190","1402","Natural","Natural","","2012/07/12 00:00:00+00","194","1000","0.1","A","35.81555556","-111.97972222","USFS","AZ","005","04005","Coconino County"
"-112.302211024","35.097216896","1565043","201432475","FS-1506467","FED","FS-FIRESTAT","FS","USAZKNF","Kaibab National Forest","0307","Kaibab National Forest","060","15","EKV6","LIZZARD","","","","","","2012","2012/07/23 00:00:00+00","205","1640","Natural","Natural","","2012/07/26 00:00:00+00","208","1456","0.1","A","35.09722222","-112.30222222","USFS","AZ","005","04005","Coconino County"
"-112.032488835","35.354716846","1565044","201432476","FS-1506564","FED","FS-FIRESTAT","FS","USAZKNF","Kaibab National Forest","0307","Kaibab National Forest","081","25","EKV6","SITGREAVES","","","","","","2012","2012/08/09 00:00:00+00","222","1431","Natural","Natural","","2012/08/10 00:00:00+00","223","1030","0.1","A","35.35472222","-112.0325","USFS","AZ","005","04005","Coconino County"
"-112.085266622","35.154439096","1565045","201432477","FS-1506473","FED","FS-FIRESTAT","FS","USAZKNF","Kaibab National Forest","0307","Kaibab National Forest","070","22","EKV6","MORGAN","","","","","","2012","2012/07/28 00:00:00+00","210","0847","Natural","Natural","","2012/07/28 00:00:00+00","210","1515","0.1","A","35.15444444","-112.08527778","USFS","AZ","005","04005","Coconino County"
"-111.895822138","35.949161211","1565046","201432478","FS-1505351","FED","FS-FIRESTAT","FS","USAZKNF","Kaibab National Forest","0307","Kaibab National Forest","040","07","EKV6","BELKNAP","","","","","","2012","2012/07/18 00:00:00+00","200","1253","Natural","Natural","","2012/07/20 00:00:00+00","202","1314","3.7","B","35.94916667","-111.89583333","USFS","AZ","005","04005","Coconino County"
"-112.298044215","36.71166114","1565047","201432479","FS-1505078","FED","FS-FIRESTAT","FS","USAZKNF","Kaibab National Forest","0307","Kaibab National Forest","055","036","EKV6","BUCK","","","","","","2012","2012/07/22 00:00:00+00","204","1723","Natural","Natural","","2012/07/22 00:00:00+00","204","1928","0.25","A","36.71166667","-112.29805556","USFS","AZ","005","04005","Coconino County"
"-112.400544215","36.511383392","1565048","201432480","FS-1506713","FED","FS-FIRESTAT","FS","USAZKNF","Kaibab National Forest","0307","Kaibab National Forest","051","032","G22U","BURNT","2012_AZ-KNF-000693_WEST SIDE COMPLEX","2012_AZ-KNF-000693_WEST SIDE COMPLEX","","","WESTSIDE COMPLEX","2012","2012/07/21 00:00:00+00","203","1544","Natural","Natural","","2012/07/24 00:00:00+00","206","1115","12.5","C","36.51138889","-112.40055556","USFS","AZ","005","04005","Coconino County"
"-112.466377518","36.656938928","1565049","201432481","FS-1504859","FED","FS-FIRESTAT","FS","USAZKNF","Kaibab National Forest","0307","Kaibab National Forest","046","27","G22U","WHITE","2012_AZ-KNF-000693_WEST SIDE COMPLEX","2012_AZ-KNF-000693_WEST SIDE COMPLEX","","","WESTSIDE COMPLEX","2012","2012/07/21 00:00:00+00","203","1432","Natural","Natural","","2012/07/25 00:00:00+00","207","1345","0.1","A","36.65694444","-112.46638889","USFS","AZ","005","04005","Coconino County"
"-112.161377702","35.322216858","1565050","201432482","FS-1505452","FED","FS-FIRESTAT","FS","USAZKNF","Kaibab National Forest","0307","Kaibab National Forest","062","17","EKV6","PRAIRIE","","","","","","2012","2012/07/23 00:00:00+00","205","1800","Natural","Natural","","2012/07/24 00:00:00+00","206","1130","0.1","A","35.32222222","-112.16138889","USFS","AZ","005","04005","Coconino County"
"-112.321933109","36.529161164","1565051","201432483","FS-1504862","FED","FS-FIRESTAT","FS","USAZKNF","Kaibab National Forest","0307","Kaibab National Forest","012","04","EKV6","PRATT","","","","","","2012","2012/06/28 00:00:00+00","180","0830","Human","Power generation/transmission/distribution","","2012/06/28 00:00:00+00","180","0956","0.1","A","36.52916667","-112.32194444","USFS","AZ","005","04005","Coconino County"
"-112.53804418","36.59777228","1565052","201432484","FS-1505090","FED","FS-FIRESTAT","FS","USAZKNF","Kaibab National Forest","0307","Kaibab National Forest","028","016","EKV6","DIVIDE","","","","","","2012","2012/07/11 00:00:00+00","193","0942","Natural","Natural","","2012/07/11 00:00:00+00","193","1200","3","B","36.59777778","-112.53805556","USFS","AZ","005","04005","Coconino County"
"-112.024433236","35.799716788","1565053","201432485","FS-1507945","FED","FS-FIRESTAT","FS","USAZKNF","Kaibab National Forest","0307","Kaibab National Forest","091","20","EKV6","DILLMAN","","","","","","2012","2012/08/18 00:00:00+00","231","1356","Natural","Natural","","2012/08/18 00:00:00+00","231","1629","0.1","A","35.79972222","-112.02444444","USFS","AZ","005","04005","Coconino County"
"-112.096655444","35.890827891","1565054","201432486","FS-1505367","FED","FS-FIRESTAT","FS","USAZKNF","Kaibab National Forest","0307","Kaibab National Forest","041","8","EKV6","SEVENTEEN","","","","","","2012","2012/07/20 00:00:00+00","202","1321","Natural","Natural","","2012/07/20 00:00:00+00","202","1613","1","B","35.89083333","-112.09666667","USFS","AZ","005","04005","Coconino County"
"-111.976933245","35.811383454","1565055","201432487","FS-1507942","FED","FS-FIRESTAT","FS","USAZKNF","Kaibab National Forest","0307","Kaibab National Forest","076","15","EKV6","PAGE","","","","","","2012","2012/08/07 00:00:00+00","220","1539","Natural","Natural","","2012/08/08 00:00:00+00","221","1045","0.1","A","35.81138889","-111.97694444","USFS","AZ","005","04005","Coconino County"
"-111.980544423","35.142772431","1565056","201432488","FS-1508822","FED","FS-FIRESTAT","FS","USAZKNF","Kaibab National Forest","0307","Kaibab National Forest","068","21","EKV6","HULL","","","","","","2012","2012/07/25 00:00:00+00","207","1604","Natural","Natural","","2012/07/26 00:00:00+00","208","1353","0.1","A","35.14277778","-111.98055556","USFS","AZ","005","04005","Coconino County"
"-112.571933051","36.61332783","1565057","201432489","FS-1504334","FED","FS-FIRESTAT","FS","USAZKNF","Kaibab National Forest","0307","Kaibab National Forest","034","018","EKV6","CANYON","","","","","","2012","2012/07/13 00:00:00+00","195","1430","Natural","Natural","","2012/07/14 00:00:00+00","196","1200","6","B","36.61333333","-112.57194444","USFS","AZ","005","04005","Coconino County"
"-112.090822112","35.809161241","1565058","201432490","FS-1506521","FED","FS-FIRESTAT","FS","USAZKNF","Kaibab National Forest","0307","Kaibab National Forest","074","13","EKV6","RED","","","","","","2012","2012/08/07 00:00:00+00","220","1452","Natural","Natural","","2012/08/07 00:00:00+00","220","1730","0.1","A","35.80916667","-112.09083333","USFS","AZ","005","04005","Coconino County"
"-112.124155431","35.970550113","1565059","201432491","FS-1506602","FED","FS-FIRESTAT","FS","USAZKNF","Kaibab National Forest","0307","Kaibab National Forest","085","18","EKV6","GRIMACE","","","","","","2012","2012/08/10 00:00:00+00","223","1245","Human","Recreation and ceremony","","2012/08/10 00:00:00+00","223","1500","0.25","A","35.97055556","-112.12416667","USFS","AZ","005","04005","Coconino County"
"-112.500821957","36.591661168","1565060","201432492","FS-1504541","FED","FS-FIRESTAT","FS","USAZKNF","Kaibab National Forest","0307","Kaibab National Forest","018","06","EKV6","PINE","","","","","","2012","2012/07/10 00:00:00+00","192","1232","Natural","Natural","","2012/07/12 00:00:00+00","194","1113","2.3","B","36.59166667","-112.50083333","USFS","AZ","005","04005","Coconino County"
"-112.57943305","36.61805006","1565061","201432493","FS-1504317","FED","FS-FIRESTAT","FS","USAZKNF","Kaibab National Forest","0307","Kaibab National Forest","026","014","EKV6","JENSEN","","","","","","2012","2012/07/10 00:00:00+00","192","1636","Natural","Natural","","2012/07/11 00:00:00+00","193","1015","0.1","A","36.61805556","-112.57944444","USFS","AZ","005","04005","Coconino County"
"-112.4330442","36.601661162","1565062","201432494","FS-1506705","FED","FS-FIRESTAT","FS","USAZKNF","Kaibab National Forest","0307","Kaibab National Forest","047","028","G22U","SLIDE","2012_AZ-KNF-000693_WEST SIDE COMPLEX","2012_AZ-KNF-000693_WEST SIDE COMPLEX","","","WESTSIDE COMPLEX","2012","2012/07/21 00:00:00+00","203","1737","Natural","Natural","","2012/07/22 00:00:00+00","204","1200","0.1","A","36.60166667","-112.43305556","USFS","AZ","005","04005","Coconino County"
"-112.476377518","36.63999449","1565063","201432495","FS-1504886","FED","FS-FIRESTAT","FS","USAZKNF","Kaibab National Forest","0307","Kaibab National Forest","054","035","G22U","WILLOW","2012_AZ-KNF-000693_WEST SIDE COMPLEX","2012_AZ-KNF-000693_WEST SIDE COMPLEX","","","WESTSIDE COMPLEX","2012","2012/07/22 00:00:00+00","204","1524","Natural","Natural","","2012/07/23 00:00:00+00","205","0830","21","C","36.64","-112.47638889","USFS","AZ","005","04005","Coconino County"
"-112.198044269","36.362494507","1565064","201432496","FS-1507147","FED","FS-FIRESTAT","FS","USAZKNF","Kaibab National Forest","0307","Kaibab National Forest","100","047","EKV6","TIPOVER","","","","","","2012","2012/09/03 00:00:00+00","247","1100","Natural","Natural","","2012/09/03 00:00:00+00","247","1256","0.1","A","36.3625","-112.19805556","USFS","AZ","005","04005","Coconino County"
"-112.00998886","35.116383546","1565065","201432497","FS-1507364","FED","FS-FIRESTAT","FS","USAZKNF","Kaibab National Forest","0307","Kaibab National Forest","099","33","EKV6","LAKE","","","","","","2012","2012/09/02 00:00:00+00","246","1900","Natural","Natural","","2012/09/05 00:00:00+00","249","1135","0.1","A","35.11638889","-112.01","USFS","AZ","005","04005","Coconino County"
"-112.150266603","35.22610576","1565066","201432498","FS-1506566","FED","FS-FIRESTAT","FS","USAZKNF","Kaibab National Forest","0307","Kaibab National Forest","089","27","EKV6","KNOLL","","","","","","2012","2012/08/18 00:00:00+00","231","0850","Natural","Natural","","2012/08/19 00:00:00+00","232","1120","0.1","A","35.22611111","-112.15027778","USFS","AZ","005","04005","Coconino County"
"-112.525544184","36.574716722","1565067","201432499","FS-1507065","FED","FS-FIRESTAT","FS","USAZKNF","Kaibab National Forest","0307","Kaibab National Forest","048","029","G22U","FAVER","2012_AZ-KNF-000693_WEST SIDE COMPLEX","2012_AZ-KNF-000693_WEST SIDE COMPLEX","","","WESTSIDE COMPLEX","2012","2012/07/21 00:00:00+00","203","1511","Natural","Natural","","2012/07/23 00:00:00+00","205","1130","102","D","36.57472222","-112.52555556","USFS","AZ","005","04005","Coconino County"
"-112.011933292","35.203327975","1565068","201432500","FS-1508820","FED","FS-FIRESTAT","FS","USAZKNF","Kaibab National Forest","0307","Kaibab National Forest","102","34","EKV6","SCHOLZ","","","","","","2012","2012/09/03 00:00:00+00","247","1411","Natural","Natural","","2012/09/05 00:00:00+00","249","1402","0.1","A","35.20333333","-112.01194444","USFS","AZ","005","04005","Coconino County"
"-111.922211024","35.935272325","1565069","201432501","FS-1503103","FED","FS-FIRESTAT","FS","USAZKNF","Kaibab National Forest","0307","Kaibab National Forest","003","01","EKV6","LOCKETT","","","","","","2012","2012/04/08 00:00:00+00","99","1614","Human","Arson/incendiarism","","2012/04/11 00:00:00+00","102","1545","1","B","35.93527778","-111.92222222","USFS","AZ","005","04005","Coconino County"
"-112.106099883","35.880272343","1565070","201432502","FS-1506528","FED","FS-FIRESTAT","FS","USAZKNF","Kaibab National Forest","0307","Kaibab National Forest","078","17","EKV6","REST","","","","","","2012","2012/08/08 00:00:00+00","221","1807","Natural","Natural","","2012/08/09 00:00:00+00","222","1200","0.1","A","35.88027778","-112.10611111","USFS","AZ","005","04005","Coconino County"
"-112.194433188","35.959994558","1565071","201432503","FS-1506525","FED","FS-FIRESTAT","FS","USAZKNF","Kaibab National Forest","0307","Kaibab National Forest","071","11","EKV6","APEX","","","","","","2012","2012/08/01 00:00:00+00","214","1601","Natural","Natural","","2012/08/01 00:00:00+00","214","1830","0.1","A","35.96","-112.19444444","USFS","AZ","005","04005","Coconino County"
"-112.521099737","36.558327833","1565072","201432504","FS-1505079","FED","FS-FIRESTAT","FS","USAZKNF","Kaibab National Forest","0307","Kaibab National Forest","023","011","EKV6","GOOSENECK","","","","","","2012","2012/07/10 00:00:00+00","192","1443","Natural","Natural","","2012/07/11 00:00:00+00","193","0741","0.1","A","36.55833333","-112.52111111","USFS","AZ","005","04005","Coconino County"
"-112.169710915","36.562216701","1565073","201432505","FS-1507052","FED","FS-FIRESTAT","FS","USAZKNF","Kaibab National Forest","0307","Kaibab National Forest","096","045","EKV6","GLEN","","","","","","2012","2012/09/01 00:00:00+00","245","0954","Natural","Natural","","2012/09/01 00:00:00+00","245","1320","0.1","A","36.56222222","-112.16972222","USFS","AZ","005","04005","Coconino County"
"-112.281377697","35.108883563","1565074","201432506","FS-1507369","FED","FS-FIRESTAT","FS","USAZKNF","Kaibab National Forest","0307","Kaibab National Forest","098","32","EKV6","STATION","","","","","","2012","2012/09/01 00:00:00+00","245","1055","Natural","Natural","","2012/09/03 00:00:00+00","247","1025","0.1","A","35.10888889","-112.28138889","USFS","AZ","005","04005","Coconino County"
"-111.853044424","35.421661277","1565075","201432507","FS-1505453","FED","FS-FIRESTAT","FS","USAZKNF","Kaibab National Forest","0307","Kaibab National Forest","063","18","EKV6","TURKEY","","","","","","2012","2012/07/24 00:00:00+00","206","0835","Natural","Natural","","2012/07/26 00:00:00+00","208","1311","0.1","A","35.42166667","-111.85305556","USFS","AZ","005","04005","Coconino County"
"-111.912766651","35.206383529","1565076","201432508","FS-1505293","FED","FS-FIRESTAT","FS","USAZKNF","Kaibab National Forest","0307","Kaibab National Forest","013","07","EKV6","GREEN","","","","","","2012","2012/06/28 00:00:00+00","180","1000","Natural","Natural","","2012/06/28 00:00:00+00","180","1330","0.1","A","35.20638889","-111.91277778","USFS","AZ","005","04005","Coconino County"
"-112.316377606","36.049716774","1565077","201432509","FS-1505350","FED","FS-FIRESTAT","FS","USAZKNF","Kaibab National Forest","0307","Kaibab National Forest","033","06","EKV6","SHEEP","","","","","","2012","2012/07/13 00:00:00+00","195","1325","Natural","Natural","","2012/07/14 00:00:00+00","196","1042","0.1","A","36.04972222","-112.31638889","USFS","AZ","005","04005","Coconino County"
"-112.169155366","36.553883372","1565078","201432510","FS-1504891","FED","FS-FIRESTAT","FS","USAZKNF","Kaibab National Forest","0307","Kaibab National Forest","042","23","EKV6","TELEPHONE","","","","","","2012","2012/07/21 00:00:00+00","203","1044","Natural","Natural","","2012/07/24 00:00:00+00","206","1622","0.1","A","36.55388889","-112.16916667","USFS","AZ","005","04005","Coconino County"
"-111.966933268","35.576661264","1565079","201432511","FS-1505454","FED","FS-FIRESTAT","FS","USAZKNF","Kaibab National Forest","0307","Kaibab National Forest","066","19","EKV6","EVERETT","","","","","","2012","2012/07/24 00:00:00+00","206","1800","Natural","Natural","","2012/07/25 00:00:00+00","207","1145","0.1","A","35.57666667","-111.96694444","USFS","AZ","005","04005","Coconino County"
"-112.208877715","35.071105784","1565080","201432512","FS-1505300","FED","FS-FIRESTAT","FS","USAZKNF","Kaibab National Forest","0307","Kaibab National Forest","059","14","EKV6","BUZZARD","","","","","","2012","2012/07/23 00:00:00+00","205","1635","Natural","Natural","","2012/07/24 00:00:00+00","206","1045","0.1","A","35.07111111","-112.20888889","USFS","AZ","005","04005","Coconino County"
"-112.535544178","36.622494496","1565081","201432513","FS-1507054","FED","FS-FIRESTAT","FS","USAZKNF","Kaibab National Forest","0307","Kaibab National Forest","045","026","G22U","TANK","2012_AZ-KNF-000693_WEST SIDE COMPLEX","2012_AZ-KNF-000693_WEST SIDE COMPLEX","AZ3662311255220120721","TANK","WESTSIDE COMPLEX","2012","2012/07/21 00:00:00+00","203","1335","Natural","Natural","","2012/08/08 00:00:00+00","221","1400","2546","F","36.6225","-112.53555556","USFS","AZ","005","04005","Coconino County"
"-112.28304423","36.594994484","1565082","201432514","FS-1504866","FED","FS-FIRESTAT","FS","USAZKNF","Kaibab National Forest","0307","Kaibab National Forest","056","37","EKV6","CASTLE","","","","","","2012","2012/07/23 00:00:00+00","205","0909","Natural","Natural","","2012/07/24 00:00:00+00","206","1028","0.1","A","36.595","-112.28305556","USFS","AZ","005","04005","Coconino County"
"-112.197488821","35.146105773","1565083","201432515","FS-1506469","FED","FS-FIRESTAT","FS","USAZKNF","Kaibab National Forest","0307","Kaibab National Forest","061","16","EKV6","KUNDE","","","","","","2012","2012/07/23 00:00:00+00","205","1736","Natural","Natural","","2012/07/27 00:00:00+00","209","1115","0.1","A","35.14611111","-112.1975","USFS","AZ","005","04005","Coconino County"
"-112.459988638","36.563050059","1565084","201432516","FS-1505082","FED","FS-FIRESTAT","FS","USAZKNF","Kaibab National Forest","0307","Kaibab National Forest","025","013","EKV6","BONE","","","","","","2012","2012/07/10 00:00:00+00","192","1628","Natural","Natural","","2012/07/11 00:00:00+00","193","1045","0.1","A","36.56305556","-112.46","USFS","AZ","005","04005","Coconino County"
"-112.237488691","36.474438936","1565085","201432517","FS-1504867","FED","FS-FIRESTAT","FS","USAZKNF","Kaibab National Forest","0307","Kaibab National Forest","036","020","EKV6","LOOKOUT","","","","","","2012","2012/07/13 00:00:00+00","195","1810","Natural","Natural","","2012/07/14 00:00:00+00","196","1226","0.1","A","36.47444444","-112.2375","USFS","AZ","005","04005","Coconino County"
"-112.41415532","36.535827829","1565086","201432518","FS-1503145","FED","FS-FIRESTAT","FS","USAZKNF","Kaibab National Forest","0307","Kaibab National Forest","005","002","GT1N","SOWATS","","","","","","2012","2012/05/02 00:00:00+00","123","1242","Human","Recreation and ceremony","","2012/05/02 00:00:00+00","123","1755","0.25","A","36.53583333","-112.41416667","USFS","AZ","005","04005","Coconino County"
"-111.992488869","35.050827994","1565087","201432519","FS-1506020","FED","FS-FIRESTAT","FS","USAZKNF","Kaibab National Forest","0307","Kaibab National Forest","038","11","EKV6","KENNEDY","","","","","","2012","2012/07/14 00:00:00+00","196","1158","Natural","Natural","","2012/07/17 00:00:00+00","199","1312","0.1","A","35.05083333","-111.9925","USFS","AZ","005","04005","Coconino County"
"-112.499988629","36.57777228","1565088","201432520","FS-1504331","FED","FS-FIRESTAT","FS","USAZKNF","Kaibab National Forest","0307","Kaibab National Forest","022","010","EKV6","PASS","","","","","","2012","2012/07/10 00:00:00+00","192","1438","Natural","Natural","","2012/07/11 00:00:00+00","193","1147","0.1","A","36.57777778","-112.5","USFS","AZ","005","04005","Coconino County"
"-112.246933248","35.178327992","1565089","201432521","FS-1505297","FED","FS-FIRESTAT","FS","USAZKNF","Kaibab National Forest","0307","Kaibab National Forest","029","08","EKV6","HEIFER","","","","","","2012","2012/07/11 00:00:00+00","193","1255","Natural","Natural","","2012/07/11 00:00:00+00","193","1707","0.1","A","35.17833333","-112.24694444","USFS","AZ","005","04005","Coconino County"
"-112.344711014","35.122772455","1565090","201432522","FS-1507382","FED","FS-FIRESTAT","FS","USAZKNF","Kaibab National Forest","0307","Kaibab National Forest","031","09","EKV6","DOG","","","","","","2012","2012/07/11 00:00:00+00","193","1345","Natural","Natural","","2012/07/11 00:00:00+00","193","2014","0.1","A","35.12277778","-112.34472222","USFS","AZ","025","04025","Yavapai County"
"-111.976655461","35.956105655","1565091","201432523","FS-1503954","FED","FS-FIRESTAT","FS","USAZKNF","Kaibab National Forest","0307","Kaibab National Forest","009","02","GXL3","GRAND","2012_AZ-KNF-00416_GRAND FIRE","","","","","2012","2012/06/12 00:00:00+00","164","1230","Human","Equipment and vehicle use","","2012/06/18 00:00:00+00","170","1730","481","E","35.95611111","-111.97666667","USFS","AZ","005","04005","Coconino County"
"-112.12776661","35.192494653","1565092","201432524","FS-1507362","FED","FS-FIRESTAT","FS","USAZKNF","Kaibab National Forest","0307","Kaibab National Forest","093","29","EKV6","ASPEN","","","","","","2012","2012/08/21 00:00:00+00","234","1304","Natural","Natural","","2012/08/22 00:00:00+00","235","1455","0.1","A","35.1925","-112.12777778","USFS","AZ","005","04005","Coconino County"
"-111.955822125","35.957494544","1565093","201432525","FS-1507947","FED","FS-FIRESTAT","FS","USAZKNF","Kaibab National Forest","0307","Kaibab National Forest","105","21","EKV6","VIEW","","","","","","2012","2012/09/19 00:00:00+00","263","1208","Human","Recreation and ceremony","","2012/09/19 00:00:00+00","263","1304","0.1","A","35.9575","-111.95583333","USFS","AZ","005","04005","Coconino County"
"-112.282766438","36.713605579","1565094","201432526","FS-1506707","FED","FS-FIRESTAT","FS","USAZKNF","Kaibab National Forest","0307","Kaibab National Forest","086","043","EKV6","JACOB","","","","","","2012","2012/08/12 00:00:00+00","225","1305","Natural","Natural","","2012/08/17 00:00:00+00","230","1600","0.1","A","36.71361111","-112.28277778","USFS","AZ","005","04005","Coconino County"
"-112.478321962","36.595550056","1565095","201432527","FS-1504538","FED","FS-FIRESTAT","FS","USAZKNF","Kaibab National Forest","0307","Kaibab National Forest","019","07","EKV6","RANGER","","","","","","2012","2012/07/10 00:00:00+00","192","1232","Natural","Natural","","2012/07/12 00:00:00+00","194","1130","23.1","C","36.59555556","-112.47833333","USFS","AZ","005","04005","Coconino County"
"-111.904988866","35.284439068","1565096","201432528","FS-1503682","FED","FS-FIRESTAT","FS","USAZKNF","Kaibab National Forest","0307","Kaibab National Forest","010","5","EKV6","CAN","","","","","","2012","2012/06/13 00:00:00+00","165","1612","Human","Recreation and ceremony","","2012/06/14 00:00:00+00","166","1030","0.2","A","35.28444444","-111.905","USFS","AZ","005","04005","Coconino County"
"-112.445266422","36.557216719","1565097","201432529","FS-1504892","FED","FS-FIRESTAT","FS","USAZKNF","Kaibab National Forest","0307","Kaibab National Forest","020","08","EKV6","HOLLOW","","","","","","2012","2012/07/10 00:00:00+00","192","1337","Natural","Natural","","2012/07/11 00:00:00+00","193","1224","0.1","A","36.55722222","-112.44527778","USFS","AZ","005","04005","Coconino County"
"-112.234988665","36.735272243","1565098","201432530","FS-1506710","FED","FS-FIRESTAT","FS","USAZKNF","Kaibab National Forest","0307","Kaibab National Forest","082","040","EKV6","COOPER","","","","","","2012","2012/08/09 00:00:00+00","222","1628","Natural","Natural","","2012/08/10 00:00:00+00","223","0811","0.1","A","36.73527778","-112.235","USFS","AZ","005","04005","Coconino County"
"-112.026377745","35.131383545","1565099","201432531","FS-1506571","FED","FS-FIRESTAT","FS","USAZKNF","Kaibab National Forest","0307","Kaibab National Forest","095","31","EKV6","SUNFLOWER","","","","","","2012","2012/08/25 00:00:00+00","238","0710","Natural","Natural","","2012/08/25 00:00:00+00","238","1030","0.1","A","35.13138889","-112.02638889","USFS","AZ","005","04005","Coconino County"
"-112.443044208","36.500272286","1565100","201432532","FS-1504329","FED","FS-FIRESTAT","FS","USAZKNF","Kaibab National Forest","0307","Kaibab National Forest","021","009","EKV6","BIG","","","","","","2012","2012/07/10 00:00:00+00","192","1423","Natural","Natural","","2012/07/10 00:00:00+00","192","2030","0.1","A","36.50027778","-112.44305556","USFS","AZ","005","04005","Coconino County"
"-112.102766559","35.82221679","1565101","201432533","FS-1506599","FED","FS-FIRESTAT","FS","USAZKNF","Kaibab National Forest","0307","Kaibab National Forest","075","14","EKV6","BUTTE","","","","","","2012","2012/08/07 00:00:00+00","220","1514","Natural","Natural","","2012/08/07 00:00:00+00","220","1800","0.1","A","35.82222222","-112.10277778","USFS","AZ","005","04005","Coconino County"
"-112.486099742","36.57193894","1565102","201432534","FS-1505086","FED","FS-FIRESTAT","FS","USAZKNF","Kaibab National Forest","0307","Kaibab National Forest","027","015","EKV6","EAGLE","","","","","","2012","2012/07/10 00:00:00+00","192","1743","Natural","Natural","","2012/07/12 00:00:00+00","194","1116","0.2","A","36.57194444","-112.48611111","USFS","AZ","005","04005","Coconino County"
"-112.043877719","35.395272402","1565103","201432535","FS-1508818","FED","FS-FIRESTAT","FS","USAZKNF","Kaibab National Forest","0307","Kaibab National Forest","106","36","EKV6","BOULIN","","","","","","2012","2012/10/03 00:00:00+00","277","1426","Human","Recreation and ceremony","","2012/10/03 00:00:00+00","277","1558","0.1","A","35.39527778","-112.04388889","USFS","AZ","005","04005","Coconino County"
"-112.12443316","36.397494498","1565104","201432536","FS-1504322","FED","FS-FIRESTAT","FS","USAZKNF","Kaibab National Forest","0307","Kaibab National Forest","008","003","GW5S","SIX-TEN","","","","","","2012","2012/06/07 00:00:00+00","159","1656","Human","Recreation and ceremony","","2012/06/07 00:00:00+00","159","1806","0.1","A","36.3975","-112.12444444","USFS","AZ","005","04005","Coconino County"
"-112.024988857","35.116383547","1565105","201432537","FS-1506569","FED","FS-FIRESTAT","FS","USAZKNF","Kaibab National Forest","0307","Kaibab National Forest","092","28","EKV6","SAWLOG","","","","","","2012","2012/08/18 00:00:00+00","231","1617","Natural","Natural","","2012/08/19 00:00:00+00","232","1308","0.1","A","35.11638889","-112.025","USFS","AZ","005","04005","Coconino County"
"-112.484433072","36.582772278","1565106","201432538","FS-1504855","FED","FS-FIRESTAT","FS","USAZKNF","Kaibab National Forest","0307","Kaibab National Forest","050","31","G22U","BOX","2012_AZ-KNF-000693_WEST SIDE COMPLEX","2012_AZ-KNF-000693_WEST SIDE COMPLEX","","","WESTSIDE COMPLEX","2012","2012/07/21 00:00:00+00","203","1526","Natural","Natural","","2012/07/23 00:00:00+00","205","1246","0.1","A","36.58277778","-112.48444444","USFS","AZ","005","04005","Coconino County"
"-112.346655326","36.606661156","1565107","201432539","FS-1507053","FED","FS-FIRESTAT","FS","USAZKNF","Kaibab National Forest","0307","Kaibab National Forest","097","046","EKV6","DOVE","","","","","","2012","2012/09/01 00:00:00+00","245","1040","Natural","Natural","","2012/09/02 00:00:00+00","246","1100","0.1","A","36.60666667","-112.34666667","USFS","AZ","005","04005","Coconino County"
"-112.569433052","36.60860561","1565108","201432540","FS-1504327","FED","FS-FIRESTAT","FS","USAZKNF","Kaibab National Forest","0307","Kaibab National Forest","024","012","EKV6","COVE","","","","","","2012","2012/07/10 00:00:00+00","192","1455","Natural","Natural","","2012/07/11 00:00:00+00","193","0948","1","B","36.60861111","-112.56944444","USFS","AZ","005","04005","Coconino County"
"-112.406377538","36.576105604","1565109","201432541","FS-1511518","FED","FS-FIRESTAT","FS","USAZKNF","Kaibab National Forest","0307","Kaibab National Forest","109","052","EKV6","PLATUE","","","","","","2012","2012/10/28 00:00:00+00","302","1444","Human","Arson/incendiarism","","2012/10/28 00:00:00+00","302","1630","0.25","A","36.57611111","-112.40638889","USFS","AZ","005","04005","Coconino County"
"-112.521099729","36.636938934","1565110","201432542","FS-1507151","FED","FS-FIRESTAT","FS","USAZKNF","Kaibab National Forest","0307","Kaibab National Forest","087","044","G53W","JUMPUP","2012_AZ-KNF-877_JUMPUP","","","","","2012","2012/08/13 00:00:00+00","226","1455","Natural","Natural","","2012/08/25 00:00:00+00","238","1300","363","E","36.63694444","-112.52111111","USFS","AZ","005","04005","Coconino County"
"-111.976099944","35.485272386","1565111","201432543","FS-1506562","FED","FS-FIRESTAT","FS","USAZKNF","Kaibab National Forest","0307","Kaibab National Forest","080","24","EKV6","HILL","","","","","","2012","2012/08/09 00:00:00+00","222","1329","Natural","Natural","","2012/08/10 00:00:00+00","223","1120","0.1","A","35.48527778","-111.97611111","USFS","AZ","005","04005","Coconino County"
"-111.826377722","35.839994551","1565112","201432544","FS-1505349","FED","FS-FIRESTAT","FS","USAZKNF","Kaibab National Forest","0307","Kaibab National Forest","017","05","EKV6","TRICK","","","","","","2012","2012/07/09 00:00:00+00","191","1444","Natural","Natural","","2012/07/12 00:00:00+00","194","1421","0.7","B","35.84","-111.82638889","USFS","AZ","005","04005","Coconino County"
"-112.262210911","36.423883394","1565113","201432545","FS-1505077","FED","FS-FIRESTAT","FS","USAZKNF","Kaibab National Forest","0307","Kaibab National Forest","037","021","EKV6","DRY","","","","","","2012","2012/07/14 00:00:00+00","196","1154","Natural","Natural","","2012/07/15 00:00:00+00","197","1217","0.1","A","36.42388889","-112.26222222","USFS","AZ","005","04005","Coconino County"
"-112.379155322","36.584716711","1565114","201432546","FS-1511513","FED","FS-FIRESTAT","FS","USAZKNF","Kaibab National Forest","0307","Kaibab National Forest","108","051","G94Y","PIPELINE","","","","","","2012","2012/10/28 00:00:00+00","302","1359","Human","Recreation and ceremony","","2012/10/28 00:00:00+00","302","1431","0.1","A","36.58472222","-112.37916667","USFS","AZ","005","04005","Coconino County"
"-112.202766529","35.931661232","1565115","201432547","FS-1505352","FED","FS-FIRESTAT","FS","USAZKNF","Kaibab National Forest","0307","Kaibab National Forest","065","10","EKV6","RAILROAD","","","","","","2012","2012/07/24 00:00:00+00","206","1536","Natural","Natural","","2012/07/25 00:00:00+00","207","1500","0.1","A","35.93166667","-112.20277778","USFS","AZ","005","04005","Coconino County"
"-112.179988823","35.16110577","1565116","201432548","FS-1507366","FED","FS-FIRESTAT","FS","USAZKNF","Kaibab National Forest","0307","Kaibab National Forest","094","30","EKV6","COLEMAN","","","","","","2012","2012/08/22 00:00:00+00","235","0823","Natural","Natural","","2012/08/23 00:00:00+00","236","1035","0.1","A","35.16111111","-112.18","USFS","AZ","005","04005","Coconino County"
"-111.974433236","35.909161221","1565117","201432549","FS-1506520","FED","FS-FIRESTAT","FS","USAZKNF","Kaibab National Forest","0307","Kaibab National Forest","072","12","EKV6","SKINNER","","","","","","2012","2012/08/06 00:00:00+00","219","1744","Natural","Natural","","2012/08/07 00:00:00+00","220","1110","0.1","A","35.90916667","-111.97444444","USFS","AZ","005","04005","Coconino County"
"-112.320266443","36.594716706","1565118","201432550","FS-1506709","FED","FS-FIRESTAT","FS","USAZKNF","Kaibab National Forest","0307","Kaibab National Forest","084","042","EKV6","FORK","","","","","","2012","2012/08/10 00:00:00+00","223","0709","Natural","Natural","","2012/08/17 00:00:00+00","230","1200","0.1","A","36.59472222","-112.32027778","USFS","AZ","005","04005","Coconino County"
"-112.034988795","35.7958279","1565119","201432551","FS-1506982","FED","FS-FIRESTAT","FS","USAZKNF","Kaibab National Forest","0307","Kaibab National Forest","090","19","EKV6","STEM","","","","","","2012","2012/08/18 00:00:00+00","231","1100","Natural","Natural","","2012/08/18 00:00:00+00","231","1730","0.5","B","35.79583333","-112.035","USFS","AZ","005","04005","Coconino County"
"-112.028877739","35.204716866","1565120","201432552","FS-1506604","FED","FS-FIRESTAT","FS","USAZKNF","Kaibab National Forest","0307","Kaibab National Forest","088","26","EKV6","ISHAM","","","","","","2012","2012/08/17 00:00:00+00","230","0806","Natural","Natural","","2012/08/23 00:00:00+00","236","1109","0.1","A","35.20472222","-112.02888889","USFS","AZ","005","04005","Coconino County"
"-112.041655403","36.430272269","1565121","201432553","FS-1504324","FED","FS-FIRESTAT","FS","USAZKNF","Kaibab National Forest","0307","Kaibab National Forest","014","005","EKV6","COCKSCOMB","","","","","","2012","2012/07/03 00:00:00+00","185","1317","Natural","Natural","","2012/07/04 00:00:00+00","186","1500","0.1","A","36.43027778","-112.04166667","USFS","AZ","005","04005","Coconino County"
"-112.074988727","36.430272271","1565122","201432554","FS-1507626","FED","FS-FIRESTAT","FS","USAZKNF","Kaibab National Forest","0307","Kaibab National Forest","101","048","EKV6","SADDLE","","","","","","2012","2012/09/03 00:00:00+00","247","1359","Natural","Natural","","2012/09/05 00:00:00+00","249","1127","0.25","A","36.43027778","-112.075","USFS","AZ","005","04005","Coconino County"
"-112.131933118","36.814994447","1565123","201432555","FS-1505094","FED","FS-FIRESTAT","FS","USAZKNF","Kaibab National Forest","0307","Kaibab National Forest","039","022","EKV6","BURRO","","","","","","2012","2012/07/15 00:00:00+00","197","1049","Natural","Natural","","2012/07/17 00:00:00+00","199","1200","0.1","A","36.815","-112.13194444","USFS","AZ","005","04005","Coconino County"
"-112.498599739","36.579161169","1565124","201432556","FS-1506711","FED","FS-FIRESTAT","FS","USAZKNF","Kaibab National Forest","0307","Kaibab National Forest","052","033","G22U","NORTH","2012_AZ-KNF-000693_WEST SIDE COMPLEX","2012_AZ-KNF-000693_WEST SIDE COMPLEX","","","WESTSIDE COMPLEX","2012","2012/07/21 00:00:00+00","203","1837","Natural","Natural","","2012/07/31 00:00:00+00","213","1047","0.1","A","36.57916667","-112.49861111","USFS","AZ","005","04005","Coconino County"
"-112.543599722","36.665550052","1565125","201432557","FS-1507149","FED","FS-FIRESTAT","FS","USAZKNF","Kaibab National Forest","0307","Kaibab National Forest","079","039","G5J2","EAST","2012_AZ-KNF-0839_EAST","","AZ3666511252620120808","EAST","","2012","2012/08/08 00:00:00+00","221","1910","Natural","Natural","","2012/08/25 00:00:00+00","238","1145","1958","F","36.66555556","-112.54361111","USFS","AZ","005","04005","Coconino County"
"-112.096099885","35.877494563","1565126","201432558","FS-1505368","FED","FS-FIRESTAT","FS","USAZKNF","Kaibab National Forest","0307","Kaibab National Forest","064","9","EKV6","OWL","","","","","","2012","2012/07/24 00:00:00+00","206","0857","Natural","Natural","","2012/07/28 00:00:00+00","210","1050","1","B","35.8775","-112.09611111","USFS","AZ","005","04005","Coconino County"
"-112.131655505","35.130272442","1565127","201432559","FS-1506476","FED","FS-FIRESTAT","FS","USAZKNF","Kaibab National Forest","0307","Kaibab National Forest","073","23","EKV6","SUMMIT","","","","","","2012","2012/08/07 00:00:00+00","220","0920","Natural","Natural","","2012/08/08 00:00:00+00","221","1150","0.1","A","35.13027778","-112.13166667","USFS","AZ","005","04005","Coconino County"
"-112.017766621","35.32193907","1565128","201432560","FS-1503560","FED","FS-FIRESTAT","FS","USAZKNF","Kaibab National Forest","0307","Kaibab National Forest","006","03","GUH7","BALD","","","","","","2012","2012/05/13 00:00:00+00","134","1811","Human","Recreation and ceremony","","2012/05/13 00:00:00+00","134","1947","0.1","A","35.32194444","-112.01777778","USFS","AZ","005","04005","Coconino County"
"-112.558044171","36.648605605","1565129","201432561","FS-1507051","FED","FS-FIRESTAT","FS","USAZKNF","Kaibab National Forest","0307","Kaibab National Forest","083","041","EKV6","HORSE","","","","","","2012","2012/08/09 00:00:00+00","222","1817","Natural","Natural","","2012/08/11 00:00:00+00","224","1115","0.1","A","36.64861111","-112.55805556","USFS","AZ","005","04005","Coconino County"
"-112.254433091","36.846383341","1565130","201432562","FS-1503026","FED","FS-FIRESTAT","FS","USAZKNF","Kaibab National Forest","0307","Kaibab National Forest","004","01","EKV6","FEVRE","","","","","","2012","2012/04/23 00:00:00+00","114","1230","Natural","Natural","","2012/04/23 00:00:00+00","114","1330","0.1","A","36.84638889","-112.25444444","USFS","AZ","005","04005","Coconino County"
"-112.013044396","35.387772401","1565131","201432563","FS-1507351","FED","FS-FIRESTAT","FS","USAZKNF","Kaibab National Forest","0307","Kaibab National Forest","032","10","EKV6","SQUAW","","","","","","2012","2012/07/12 00:00:00+00","194","1454","Natural","Natural","","2012/07/15 00:00:00+00","197","1445","0.1","A","35.38777778","-112.01305556","USFS","AZ","005","04005","Coconino County"
"-111.997766641","35.132772433","1565132","201432564","FS-1505456","FED","FS-FIRESTAT","FS","USAZKNF","Kaibab National Forest","0307","Kaibab National Forest","067","20","EKV6","DOUBLE","","","","","","2012","2012/07/24 00:00:00+00","206","2000","Natural","Natural","","2012/07/26 00:00:00+00","208","0523","0.1","A","35.13277778","-111.99777778","USFS","AZ","005","04005","Coconino County"
"-112.399710995","35.216105776","1565133","201432565","FS-1503921","FED","FS-FIRESTAT","FS","USAZKNF","Kaibab National Forest","0307","Kaibab National Forest","011","06","EKV6","DEPRESSION","","","","","","2012","2012/06/14 00:00:00+00","166","1035","Human","Equipment and vehicle use","","2012/06/14 00:00:00+00","166","1200","0.1","A","35.21611111","-112.39972222","USFS","AZ","005","04005","Coconino County"
"-111.975822202","35.052494663","1565134","201432566","FS-1506027","FED","FS-FIRESTAT","FS","USAZKNF","Kaibab National Forest","0307","Kaibab National Forest","057","12","EKV6","SYCAMORE","","","","","","2012","2012/07/23 00:00:00+00","205","1428","Natural","Natural","","2012/07/25 00:00:00+00","207","1341","0.1","A","35.0525","-111.97583333","USFS","AZ","005","04005","Coconino County"
"-112.14415539","36.355272285","1565135","201432567","FS-1506712","FED","FS-FIRESTAT","FS","USAZKNF","Kaibab National Forest","0307","Kaibab National Forest","069","038","EKV6","WALL","","","","","","2012","2012/07/25 00:00:00+00","207","1606","Natural","Natural","","2012/07/26 00:00:00+00","208","1023","0.2","A","36.35527778","-112.14416667","USFS","AZ","005","04005","Coconino County"
"-112.159988817","35.271383535","1565136","201432568","FS-1503556","FED","FS-FIRESTAT","FS","USAZKNF","Kaibab National Forest","0307","Kaibab National Forest","002","02","EKV6","PIT","","","","","","2012","2012/04/01 00:00:00+00","92","1023","Human","Debris and open burning","","2012/04/02 00:00:00+00","93","1113","0.1","A","35.27138889","-112.16","USFS","AZ","005","04005","Coconino County"
"-111.972488854","35.265550195","1565137","201432569","FS-1503562","FED","FS-FIRESTAT","FS","USAZKNF","Kaibab National Forest","0307","Kaibab National Forest","007","04","GVE0","MOON","","","","","","2012","2012/05/22 00:00:00+00","143","1000","Human","Recreation and ceremony","","2012/05/26 00:00:00+00","147","0900","5.4","B","35.26555556","-111.9725","USFS","AZ","005","04005","Coconino County"
"-105.636101441","33.384161235","1565138","201432570","FS-1509714","FED","FS-FIRESTAT","FS","USNMLNF","Lincoln National Forest","0308","Lincoln National Forest","023","23","G6QA","120A","","","","","","2012","2012/08/21 00:00:00+00","234","1100","Human","Recreation and ceremony","","2012/08/21 00:00:00+00","234","1150","0.1","A","33.38416667","-105.63611111","USFS","NM","027","35027","Lincoln County"
"-105.745823668","32.922216865","1565139","201432571","FS-1504890","FED","FS-FIRESTAT","FS","USNMLNF","Lincoln National Forest","0308","Lincoln National Forest","017","P3EKV7","EKV7","PIERCE","","","","","","2012","2012/07/09 00:00:00+00","191","1157","Natural","Natural","","2012/07/09 00:00:00+00","191","1506","0.1","A","32.92222222","-105.74583333","USFS","NM","035","35035","Otero County"
"-105.4724904","32.911939073","1565140","201432572","FS-1507586","FED","FS-FIRESTAT","FS","USNMLNF","Lincoln National Forest","0308","Lincoln National Forest","004","004","GS4N","MAYHILL ADMIN SITE","","","","","","2012","2012/04/19 00:00:00+00","110","0830","Human","Debris and open burning","","2012/04/27 00:00:00+00","118","0830","0.1","A","32.91194444","-105.4725","USFS","NM","035","35035","Otero County"
"-105.62637926","32.842494652","1565141","201432573","FS-1504894","FED","FS-FIRESTAT","FS","USNMLNF","Lincoln National Forest","0308","Lincoln National Forest","014","p3ekv7","EKV7","RIO P","","","","","","2012","2012/07/04 00:00:00+00","186","1620","Natural","Natural","","2012/07/04 00:00:00+00","186","2330","0.1","A","32.8425","-105.62638889","USFS","NM","035","35035","Otero County"
"-105.800823658","32.894161322","1565142","201432574","FS-1504902","FED","FS-FIRESTAT","FS","USNMLNF","Lincoln National Forest","0308","Lincoln National Forest","008","P3GWV3","GWV3","SAWMILL","","","","","","2012","2012/06/04 00:00:00+00","156","1700","Human","Recreation and ceremony","","2012/06/04 00:00:00+00","156","1727","0.25","A","32.89416667","-105.80083333","USFS","NM","035","35035","Otero County"
"-105.461657083","32.750272439","1565143","201432575","FS-1502633","FED","FS-FIRESTAT","FS","USNMLNF","Lincoln National Forest","0308","Lincoln National Forest","001","001","GNJ5","TOWER","","","","","","2012","2012/03/04 00:00:00+00","64","1444","Human","Equipment and vehicle use","","2012/03/08 00:00:00+00","68","0900","21","C","32.75027778","-105.46166667","USFS","NM","035","35035","Otero County"
"-105.569434822","32.848050208","1565144","201432576","FS-1503932","FED","FS-FIRESTAT","FS","USNMLNF","Lincoln National Forest","0308","Lincoln National Forest","011","p3ekv7","EKV7","FATHERS","","","","","","2012","2012/06/17 00:00:00+00","169","1715","Natural","Natural","","2012/06/17 00:00:00+00","169","2051","0.1","A","32.84805556","-105.56944444","USFS","NM","035","35035","Otero County"
"-104.817768376","32.133883621","1565145","201432577","FS-1506592","FED","FS-FIRESTAT","FS","USNMLNF","Lincoln National Forest","0308","Lincoln National Forest","022","022","EKV7","ROAD TANK","","","","","","2012","2012/08/15 00:00:00+00","228","1134","Natural","Natural","","2012/08/17 00:00:00+00","230","1200","0.25","A","32.13388889","-104.81777778","USFS","NM","015","35015","Eddy County"
"-105.748879224","32.980827965","1565146","201432578","FS-1502925","FED","FS-FIRESTAT","FS","USNMLNF","Lincoln National Forest","0308","Lincoln National Forest","003","P3GSE1","GSE1","206C","","","","","","2012","2012/04/15 00:00:00+00","106","1730","Human","Recreation and ceremony","","2012/04/15 00:00:00+00","106","1853","0.1","A","32.98083333","-105.74888889","USFS","NM","035","35035","Otero County"
"-105.829712505","33.419716789","1565147","201432579","FS-1509725","FED","FS-FIRESTAT","FS","USNMLNF","Lincoln National Forest","0308","Lincoln National Forest","007","007","GW6A","LITTLE BEAR","2012_NM-LNF-007_LITTLE BEAR","","NM3341910582920120604","LITTLE BEAR","","2012","2012/06/04 00:00:00+00","156","1200","Natural","Natural","","2012/07/30 00:00:00+00","212","1000","40000","G","33.41972222","-105.82972222","USFS","NM","027","35027","Lincoln County"
"-105.475545925","33.402494555","1565148","201432580","FS-1503151","FED","FS-FIRESTAT","FS","USNMLNF","Lincoln National Forest","0308","Lincoln National Forest","005","005","GT37","120","","","","","","2012","2012/05/04 00:00:00+00","125","1800","Human","Missing data/not specified/undetermined","","2012/05/04 00:00:00+00","125","1930","0.1","A","33.4025","-105.47555556","USFS","NM","027","35027","Lincoln County"
"-105.804712553","32.809716886","1565149","201432581","FS-1510737","FED","FS-FIRESTAT","FS","USNMLNF","Lincoln National Forest","0308","Lincoln National Forest","029","029","G96A","CATHEY","","","","","","2012","2012/10/29 00:00:00+00","303","1145","Human","Arson/incendiarism","","2012/10/29 00:00:00+00","303","1300","0.1","A","32.80972222","-105.80472222","USFS","NM","035","35035","Otero County"
"-105.498045962","32.793327984","1565150","201432582","FS-1506258","FED","FS-FIRESTAT","FS","USNMLNF","Lincoln National Forest","0308","Lincoln National Forest","019","019","EKV7","BELL II","","","","","","2012","2012/08/03 00:00:00+00","216","1600","Natural","Natural","","2012/08/03 00:00:00+00","216","2100","0.5","B","32.79333333","-105.49805556","USFS","NM","035","35035","Otero County"
"-105.759157001","32.988050195","1565151","201432583","FS-1510796","FED","FS-FIRESTAT","FS","USNMLNF","Lincoln National Forest","0308","Lincoln National Forest","030","030","HAT1","VET","","","","","","2012","2012/11/13 00:00:00+00","318","0739","Human","Recreation and ceremony","","2012/11/13 00:00:00+00","318","1200","0.16","A","32.98805556","-105.75916667","USFS","NM","035","35035","Otero County"
"-105.783045893","32.876383544","1565152","201432584","FS-1510798","FED","FS-FIRESTAT","FS","USNMLNF","Lincoln National Forest","0308","Lincoln National Forest","028","P3G95R","G95R","SUNDAY","","","","","","2012","2012/10/29 00:00:00+00","303","1525","Human","Recreation and ceremony","","2012/10/29 00:00:00+00","303","1600","0.16","A","32.87638889","-105.78305556","USFS","NM","035","35035","Otero County"
"-105.643601413","33.748050068","1565153","201432585","FS-1509715","FED","FS-FIRESTAT","FS","USNMLNF","Lincoln National Forest","0308","Lincoln National Forest","025","025","EKV7","PATOS","","","","","","2012","2012/09/07 00:00:00+00","251","0922","Natural","Natural","","2012/09/07 00:00:00+00","251","1342","0.1","A","33.74805556","-105.64361111","USFS","NM","027","35027","Lincoln County"
"-104.662490629","32.168605828","1565154","201432586","FS-1504844","FED","FS-FIRESTAT","FS","USNMLNF","Lincoln National Forest","0308","Lincoln National Forest","013","013","GZ8A","HORSE CANYON","2012_NM-LNF-000013_HORSE CANYON","","NM3216910466220120629","HORSE CANYON","","2012","2012/06/29 00:00:00+00","181","0505","Natural","Natural","","2012/07/11 00:00:00+00","193","1300","7287","G","32.16861111","-104.6625","USFS","NM","015","35015","Eddy County"
"-105.356101489","33.585550079","1565155","201432587","FS-1510000","FED","FS-FIRESTAT","FS","USNMLNF","Lincoln National Forest","0308","Lincoln National Forest","012","nm-lnf-012","EKV7","BACA","","","","","","2012","2012/06/18 00:00:00+00","170","1639","Natural","Natural","","2012/06/18 00:00:00+00","170","1639","1.1","B","33.58555556","-105.35611111","USFS","NM","027","35027","Lincoln County"
"-105.554157048","32.968327958","1565156","201432588","FS-1504875","FED","FS-FIRESTAT","FS","USNMLNF","Lincoln National Forest","0308","Lincoln National Forest","018","P3EKV7","EKV7","BELL","","","","","","2012","2012/07/09 00:00:00+00","191","2000","Natural","Natural","","2012/07/10 00:00:00+00","192","1158","0.1","A","32.96833333","-105.55416667","USFS","NM","035","35035","Otero County"
"-105.239712622","33.626105617","1565157","201432589","FS-1510473","FED","FS-FIRESTAT","FS","USNMLNF","Lincoln National Forest","0308","Lincoln National Forest","020","LNF-020","EKV7","SMOKEY","","","","","","2012","2012/08/05 00:00:00+00","218","1430","Natural","Natural","","2012/08/05 00:00:00+00","218","1934","0.01","A","33.62611111","-105.23972222","USFS","NM","027","35027","Lincoln County"
"-105.589157011","33.381383454","1565158","201432590","FS-1503604","FED","FS-FIRESTAT","FS","USNMLNF","Lincoln National Forest","0308","Lincoln National Forest","009","009","GXE9","RIGGLES","","","","","","2012","2012/06/09 00:00:00+00","161","0630","Human","Missing data/not specified/undetermined","","2012/06/09 00:00:00+00","161","0835","0.1","A","33.38138889","-105.58916667","USFS","NM","027","35027","Lincoln County"
"-105.670545924","32.780550224","1565159","201432591","FS-1503931","FED","FS-FIRESTAT","FS","USNMLNF","Lincoln National Forest","0308","Lincoln National Forest","006","P3EKV7","EKV7","POTATO","","","","","","2012","2012/05/23 00:00:00+00","144","1230","Natural","Natural","","2012/05/29 00:00:00+00","150","1743","3.02","B","32.78055556","-105.67055556","USFS","NM","035","35035","Otero County"
"-105.782490291","33.492216775","1565160","201432592","FS-1509644","FED","FS-FIRESTAT","FS","USNMLNF","Lincoln National Forest","0308","Lincoln National Forest","015","015","EKV7","TANBARK","","","","","","2012","2012/07/07 00:00:00+00","189","0945","Natural","Natural","","2012/07/07 00:00:00+00","189","1050","0.1","A","33.49222222","-105.7825","USFS","NM","027","35027","Lincoln County"
"-105.717490312","33.389439009","1565161","201432593","FS-1509658","FED","FS-FIRESTAT","FS","USNMLNF","Lincoln National Forest","0308","Lincoln National Forest","026","026","G9L9","SPRING","","","","","","2012","2012/10/09 00:00:00+00","283","1400","Human","Recreation and ceremony","","2012/10/09 00:00:00+00","283","1713","0.1","A","33.38944444","-105.7175","USFS","NM","027","35027","Lincoln County"
"-105.769990332","32.937216863","1565162","201432594","FS-1506938","FED","FS-FIRESTAT","FS","USNMLNF","Lincoln National Forest","0308","Lincoln National Forest","024","024","EKV7","RIM","","","","","","2012","2012/08/14 00:00:00+00","227","1513","Natural","Natural","","2012/08/14 00:00:00+00","227","1702","0.1","A","32.93722222","-105.77","USFS","NM","035","35035","Otero County"
"-105.504712613","32.904161306","1565163","201432595","FS-1502604","FED","FS-FIRESTAT","FS","USNMLNF","Lincoln National Forest","0308","Lincoln National Forest","002","NM-LNF-002","GN62","CAMPGROUND","","","","","","2012","2012/03/15 00:00:00+00","75","2051","Human","Recreation and ceremony","","2012/03/15 00:00:00+00","75","2300","0.25","A","32.90416667","-105.50472222","USFS","NM","035","35035","Otero County"
"-105.64360148","32.788883551","1565164","201432596","FS-1510736","FED","FS-FIRESTAT","FS","USNMLNF","Lincoln National Forest","0308","Lincoln National Forest","021","021","EKV7","HIDDEN SPRINGS","","","","","","2012","2012/08/08 00:00:00+00","221","1625","Natural","Natural","","2012/08/08 00:00:00+00","221","1900","0.1","A","32.78888889","-105.64361111","USFS","NM","035","35035","Otero County"
"-105.656656961","33.881938927","1565165","201432597","FS-1509662","FED","FS-FIRESTAT","FS","USNMLNF","Lincoln National Forest","0308","Lincoln National Forest","027","027","EKV7","DOLPHIN","","","","","","2012","2012/10/13 00:00:00+00","287","1600","Natural","Natural","","2012/10/13 00:00:00+00","287","1800","0.1","A","33.88194444","-105.65666667","USFS","NM","027","35027","Lincoln County"
"-105.688323692","32.763605778","1565166","201432598","FS-1504884","FED","FS-FIRESTAT","FS","USNMLNF","Lincoln National Forest","0308","Lincoln National Forest","016","P3EKV7","EKV7","SCOUT","","","","","","2012","2012/07/08 00:00:00+00","190","1930","Natural","Natural","","2012/07/09 00:00:00+00","191","1104","0.1","A","32.76361111","-105.68833333","USFS","NM","035","35035","Otero County"
"-105.478045954","32.982772402","1565167","201432599","FS-1511110","FED","FS-FIRESTAT","FS","USNMLNF","Lincoln National Forest","0308","Lincoln National Forest","033","P3HA55","HA55","BRIDGE","","","","","","2012","2012/12/01 00:00:00+00","336","1421","Human","Equipment and vehicle use","","2012/12/01 00:00:00+00","336","1450","0.75","B","32.98277778","-105.47805556","USFS","NM","035","35035","Otero County"
"-112.23721111","34.219994788","1565168","201432601","FS-1508865","FED","FS-FIRESTAT","FS","USAZPNF","Prescott National Forest","0309","Prescott National Forest","034","21","EKV8","ARP","","","","","","2012","2012/09/04 00:00:00+00","248","1548","Natural","Natural","","2012/09/12 00:00:00+00","256","0943","0.1","A","34.22","-112.23722222","USFS","AZ","025","04025","Yavapai County"
"-112.154711084","34.731105825","1565169","201432602","FS-1507257","FED","FS-FIRESTAT","FS","USAZPNF","Prescott National Forest","0309","Prescott National Forest","033","9","EKV8","MESCAL","","","","","","2012","2012/09/04 00:00:00+00","248","1030","Natural","Natural","","2012/09/05 00:00:00+00","249","1130","0.1","A","34.73111111","-112.15472222","USFS","AZ","025","04025","Yavapai County"
"-112.372211062","34.491661429","1565170","201432603","FS-1508863","FED","FS-FIRESTAT","FS","USAZPNF","Prescott National Forest","0309","Prescott National Forest","036","23","EKV8","BANNIE","","","","","","2012","2012/09/08 00:00:00+00","252","0800","Natural","Natural","","2012/09/08 00:00:00+00","252","1015","0.15","A","34.49166667","-112.37222222","USFS","AZ","025","04025","Yavapai County"
"-112.366377746","34.326661451","1565171","201432604","FS-1506385","FED","FS-FIRESTAT","FS","USAZPNF","Prescott National Forest","0309","Prescott National Forest","020","11","EKV8","ARRASTRA","","","","","","2012","2012/07/18 00:00:00+00","200","1316","Natural","Natural","","2012/07/18 00:00:00+00","200","1447","21.5","C","34.32666667","-112.36638889","USFS","AZ","025","04025","Yavapai County"
"-111.944988913","34.638050276","1565172","201432605","FS-1510062","FED","FS-FIRESTAT","FS","USAZPNF","Prescott National Forest","0309","Prescott National Forest","038","10","G9AZ","COTTONWOOD COMPLEX","","","","","COTTONWOOD COMPLEX","2012","2012/10/02 00:00:00+00","276","1145","Human","Equipment and vehicle use","","2012/10/02 00:00:00+00","276","1345","1","B","34.63805556","-111.945","USFS","AZ","025","04025","Yavapai County"
"-112.026377801","34.469994743","1565173","201432606","FS-1505269","FED","FS-FIRESTAT","FS","USAZPNF","Prescott National Forest","0309","Prescott National Forest","025","7","G3V4","GOVERNMENT","","","","","","2012","2012/07/27 00:00:00+00","209","1522","Human","Missing data/not specified/undetermined","","2012/07/28 00:00:00+00","210","1258","0.75","B","34.47","-112.02638889","USFS","AZ","025","04025","Yavapai County"
"-112.390266617","34.509439198","1565174","201432607","FS-1502721","FED","FS-FIRESTAT","FS","USAZPNF","Prescott National Forest","0309","Prescott National Forest","004","3","EKV8","HOOT","","","","","","2012","2012/03/23 00:00:00+00","83","1146","Human","Recreation and ceremony","","2012/03/23 00:00:00+00","83","1200","0.1","A","34.50944444","-112.39027778","USFS","AZ","025","04025","Yavapai County"
"-112.626099895","34.578328092","1565175","201432608","FS-1507734","FED","FS-FIRESTAT","FS","USAZPNF","Prescott National Forest","0309","Prescott National Forest","037","24","G77U","COUCH","","","","","","2012","2012/09/11 00:00:00+00","255","1332","Human","Debris and open burning","","2012/09/11 00:00:00+00","255","1455","0.1","A","34.57833333","-112.62611111","USFS","AZ","025","04025","Yavapai County"
"-112.46137772","34.427216993","1565176","201432609","FS-1505265","FED","FS-FIRESTAT","FS","USAZPNF","Prescott National Forest","0309","Prescott National Forest","024","14","EKV8","KENDALL","","","","","","2012","2012/07/23 00:00:00+00","205","1800","Natural","Natural","","2012/07/24 00:00:00+00","206","1100","0.1","A","34.42722222","-112.46138889","USFS","AZ","025","04025","Yavapai County"
"-112.33387776","34.234994791","1565177","201432610","FS-1505694","FED","FS-FIRESTAT","FS","USAZPNF","Prescott National Forest","0309","Prescott National Forest","010","7","GUG1","GLADIATOR","2012_AZ-PNF-120266_GLADIATOR","","AZ3421511233820120513","GLADIATOR","","2012","2012/05/13 00:00:00+00","134","1105","Human","Other causes","","2012/06/18 00:00:00+00","170","1745","16240","G","34.235","-112.33388889","USFS","AZ","025","04025","Yavapai County"
"-112.587211016","34.544161434","1565178","201432611","FS-1507737","FED","FS-FIRESTAT","FS","USAZPNF","Prescott National Forest","0309","Prescott National Forest","023","13","EKV8","SKYLINE","","","","","","2012","2012/07/23 00:00:00+00","205","2100","Natural","Natural","","2012/07/27 00:00:00+00","209","0905","0.1","A","34.54416667","-112.58722222","USFS","AZ","025","04025","Yavapai County"
"-112.283044437","34.271105893","1565179","201432612","FS-1502836","FED","FS-FIRESTAT","FS","USAZPNF","Prescott National Forest","0309","Prescott National Forest","006","5","GQL2","CLEATOR","","","","","","2012","2012/03/27 00:00:00+00","87","1540","Human","Power generation/transmission/distribution","","2012/03/30 00:00:00+00","90","1350","0.1","A","34.27111111","-112.28305556","USFS","AZ","025","04025","Yavapai County"
"-111.957211139","34.53305029","1565180","201432613","FS-1503537","FED","FS-FIRESTAT","FS","USAZPNF","Prescott National Forest","0309","Prescott National Forest","009","03","GTH7","280","","","","","","2012","2012/04/27 00:00:00+00","118","1045","Human","Missing data/not specified/undetermined","","2012/04/27 00:00:00+00","118","1100","0.1","A","34.53305556","-111.95722222","USFS","AZ","025","04025","Yavapai County"
"-112.518599917","34.569994757","1565181","201432614","FS-1502688","FED","FS-FIRESTAT","FS","USAZPNF","Prescott National Forest","0309","Prescott National Forest","001","001","EKV8","CRUSH 1","","","","","","2012","2012/02/07 00:00:00+00","38","1730","Human","Equipment and vehicle use","","2012/02/08 00:00:00+00","39","1508","0.1","A","34.57","-112.51861111","USFS","AZ","025","04025","Yavapai County"
"-112.384711056","34.529161425","1565182","201432615","FS-1503732","FED","FS-FIRESTAT","FS","USAZPNF","Prescott National Forest","0309","Prescott National Forest","017","120473","EKV8","RUIN","","","","","","2012","2012/06/19 00:00:00+00","171","1106","Human","Equipment and vehicle use","","2012/06/19 00:00:00+00","171","1120","0.1","A","34.52916667","-112.38472222","USFS","AZ","025","04025","Yavapai County"
"-111.905822257","34.559716944","1565183","201432616","FS-1510865","FED","FS-FIRESTAT","FS","USAZPNF","Prescott National Forest","0309","Prescott National Forest","040","12","EKV8","GADDIS","","","","","","2012","2012/11/19 00:00:00+00","324","1605","Human","Missing data/not specified/undetermined","","2012/11/19 00:00:00+00","324","1645","0.1","A","34.55972222","-111.90583333","USFS","AZ","025","04025","Yavapai County"
"-111.880266713","34.548605834","1565184","201432617","FS-1510750","FED","FS-FIRESTAT","FS","USAZPNF","Prescott National Forest","0309","Prescott National Forest","039","11","HAU9","COPPER CANYON","","","","","","2012","2012/11/14 00:00:00+00","319","1835","Human","Missing data/not specified/undetermined","","2012/11/15 00:00:00+00","320","0945","0.1","A","34.54861111","-111.88027778","USFS","AZ","025","04025","Yavapai County"
"-112.445544395","34.396939216","1565185","201432618","FS-1510524","FED","FS-FIRESTAT","FS","USAZPNF","Prescott National Forest","0309","Prescott National Forest","032","20","EKV8","GOLDEN","","","","","","2012","2012/08/31 00:00:00+00","244","1258","Natural","Natural","","2012/08/31 00:00:00+00","244","1550","0.1","A","34.39694444","-112.44555556","STATE OR PRIVATE","AZ","025","04025","Yavapai County"
"-112.283044445","34.176105906","1565186","201432619","FS-1502830","FED","FS-FIRESTAT","FS","USAZPNF","Prescott National Forest","0309","Prescott National Forest","005","4","GQL1","SUMMER","","","","","","2012","2012/03/27 00:00:00+00","87","1449","Human","Debris and open burning","","2012/03/29 00:00:00+00","89","1530","1","B","34.17611111","-112.28305556","USFS","AZ","025","04025","Yavapai County"
"-112.480266561","34.966383593","1565187","201432620","FS-1504632","FED","FS-FIRESTAT","FS","USAZPNF","Prescott National Forest","0309","Prescott National Forest","019","3","G0JG","FEATHER","","","","","","2012","2012/07/02 00:00:00+00","184","0750","Human","Power generation/transmission/distribution","","2012/07/02 00:00:00+00","184","1411","0.36","B","34.96638889","-112.48027778","STATE OR PRIVATE","AZ","025","04025","Yavapai County"
"-112.427211056","34.43499477","1565188","201432621","FS-1506276","FED","FS-FIRESTAT","FS","USAZPNF","Prescott National Forest","0309","Prescott National Forest","028","17","EKV8","HASSAYAMPA","","","","","","2012","2012/08/15 00:00:00+00","228","1512","Natural","Natural","","2012/08/15 00:00:00+00","228","1921","0.1","A","34.435","-112.42722222","USFS","AZ","025","04025","Yavapai County"
"-112.257488882","34.276383671","1565189","201432623","FS-1511287","FED","FS-FIRESTAT","FS","USAZPNF","Prescott National Forest","0309","Prescott National Forest","041","25","HBS5","MIDDLETON","","","","","","2012","2012/12/19 00:00:00+00","354","2030","Human","Power generation/transmission/distribution","","2012/12/20 00:00:00+00","355","0905","0.1","A","34.27638889","-112.2575","USFS","AZ","025","04025","Yavapai County"
"-111.916100037","34.538050287","1565190","201432624","FS-1503904","FED","FS-FIRESTAT","FS","USAZPNF","Prescott National Forest","0309","Prescott National Forest","016","6","GXP7","COPPER","","","","","","2012","2012/06/12 00:00:00+00","164","2105","Human","Equipment and vehicle use","","2012/06/13 00:00:00+00","165","0043","3","B","34.53805556","-111.91611111","USFS","AZ","025","04025","Yavapai County"
"-112.36943329","34.400828101","1565191","201432625","FS-1505271","FED","FS-FIRESTAT","FS","USAZPNF","Prescott National Forest","0309","Prescott National Forest","021","12","EKV8","BIG","","","","","","2012","2012/07/23 00:00:00+00","205","0845","Natural","Natural","","2012/07/23 00:00:00+00","205","1030","0.1","A","34.40083333","-112.36944444","USFS","AZ","025","04025","Yavapai County"
"-111.909155598","34.549161395","1565192","201432626","FS-1504636","FED","FS-FIRESTAT","FS","USAZPNF","Prescott National Forest","0309","Prescott National Forest","007","2","EKV8","285","","","","","","2012","2012/04/22 00:00:00+00","113","1539","Human","Missing data/not specified/undetermined","","2012/04/22 00:00:00+00","113","1640","1","B","34.54916667","-111.90916667","USFS","AZ","025","04025","Yavapai County"
"-112.156933308","34.685550281","1565193","201432627","FS-1510755","FED","FS-FIRESTAT","FS","USAZPNF","Prescott National Forest","0309","Prescott National Forest","031","8","EKV8","WATERWAY","","","","","","2012","2012/08/25 00:00:00+00","238","1830","Natural","Natural","","2012/08/26 00:00:00+00","239","1050","0.1","A","34.68555556","-112.15694444","USFS","AZ","025","04025","Yavapai County"
"-112.327766656","34.16832813","1565194","201432628","FS-1508563","FED","FS-FIRESTAT","FS","USAZPNF","Prescott National Forest","0309","Prescott National Forest","035","22","EKV8","BARTOL","","","","","","2012","2012/09/06 00:00:00+00","250","0815","Natural","Natural","","2012/09/06 00:00:00+00","250","1150","0.1","A","34.16833333","-112.32777778","USFS","AZ","025","04025","Yavapai County"
"-112.438322165","34.419161442","1565195","201432629","FS-1503091","FED","FS-FIRESTAT","FS","USAZPNF","Prescott National Forest","0309","Prescott National Forest","008","6","GS98","TRITLE","","","","","","2012","2012/04/25 00:00:00+00","116","1026","Human","Missing data/not specified/undetermined","","2012/04/26 00:00:00+00","117","1245","1.5","B","34.41916667","-112.43833333","USFS","AZ","025","04025","Yavapai County"
"-112.284988885","34.169439237","1565196","201432630","FS-1502687","FED","FS-FIRESTAT","FS","USAZPNF","Prescott National Forest","0309","Prescott National Forest","003","002","EKV8","HAZLETT","","","","","","2012","2012/03/14 00:00:00+00","74","1350","Human","Recreation and ceremony","","2012/03/14 00:00:00+00","74","1438","0.1","A","34.16944444","-112.285","USFS","AZ","025","04025","Yavapai County"
"-111.983044463","34.667216934","1565197","201432631","FS-1502423","FED","FS-FIRESTAT","FS","USAZPNF","Prescott National Forest","0309","Prescott National Forest","002","1","EKV8","WILBUR","","","","","","2012","2012/02/22 00:00:00+00","53","1430","Human","Recreation and ceremony","","2012/02/22 00:00:00+00","53","1632","0.01","A","34.66722222","-111.98305556","USFS","AZ","025","04025","Yavapai County"
"-112.504711036","34.488605877","1565198","201432632","FS-1507026","FED","FS-FIRESTAT","FS","USAZPNF","Prescott National Forest","0309","Prescott National Forest","027","16","EKV8","WOLVERTON","","","","","","2012","2012/08/13 00:00:00+00","226","1436","Natural","Natural","","2012/08/13 00:00:00+00","226","1932","0.1","A","34.48861111","-112.50472222","USFS","AZ","025","04025","Yavapai County"
"-112.10998889","34.530550299","1565199","201432633","FS-1503290","FED","FS-FIRESTAT","FS","USAZPNF","Prescott National Forest","0309","Prescott National Forest","012","4","EKV8","GENERAL","","","","","","2012","2012/05/16 00:00:00+00","137","0948","Human","Missing data/not specified/undetermined","","2012/05/16 00:00:00+00","137","1032","0.1","A","34.53055556","-112.11","USFS","AZ","025","04025","Yavapai County"
"-112.349711068","34.470272541","1565200","201432634","FS-1506595","FED","FS-FIRESTAT","FS","USAZPNF","Prescott National Forest","0309","Prescott National Forest","029","18","EKV8","ELLIOT","","","","","","2012","2012/08/20 00:00:00+00","233","1532","Natural","Natural","","2012/08/23 00:00:00+00","236","1530","0.1","A","34.47027778","-112.34972222","USFS","AZ","025","04025","Yavapai County"
"-112.831933159","34.890828063","1565201","201432635","FS-1505263","FED","FS-FIRESTAT","FS","USAZPNF","Prescott National Forest","0309","Prescott National Forest","022","4","EKV8","BALD","","","","","","2012","2012/07/23 00:00:00+00","205","1524","Natural","Natural","","2012/07/24 00:00:00+00","206","1350","0.1","A","34.89083333","-112.83194444","USFS","AZ","025","04025","Yavapai County"
"-112.292488811","35.044994682","1565202","201432636","FS-1503618","FED","FS-FIRESTAT","FS","USAZPNF","Prescott National Forest","0309","Prescott National Forest","015","02","GXC7","MATTERHORN","","","","","","2012","2012/06/11 00:00:00+00","163","0935","Human","Equipment and vehicle use","","2012/06/11 00:00:00+00","163","1130","0.1","A","35.045","-112.2925","USFS","AZ","025","04025","Yavapai County"
"-112.21471112","34.148050356","1565203","201432637","FS-1506594","FED","FS-FIRESTAT","FS","USAZPNF","Prescott National Forest","0309","Prescott National Forest","030","19","EKV8","RATTLESNAKE","","","","","","2012","2012/08/20 00:00:00+00","233","1638","Natural","Natural","","2012/08/28 00:00:00+00","241","1300","13","C","34.14805556","-112.21472222","USFS","AZ","025","04025","Yavapai County"
"-112.541377693","34.55805032","1565204","201432638","FS-1504633","FED","FS-FIRESTAT","FS","USAZPNF","Prescott National Forest","0309","Prescott National Forest","018","10","G0BK","SPENCE","","","","","","2012","2012/06/30 00:00:00+00","182","1600","Human","Power generation/transmission/distribution","","2012/07/01 00:00:00+00","183","1305","3","B","34.55805556","-112.54138889","USFS","AZ","025","04025","Yavapai County"
"-112.197488842","34.895828026","1565205","201432639","FS-1504630","FED","FS-FIRESTAT","FS","USAZPNF","Prescott National Forest","0309","Prescott National Forest","011","1","EKV8","WILDCAT","","","","","","2012","2012/05/15 00:00:00+00","136","1743","Human","Power generation/transmission/distribution","","2012/05/15 00:00:00+00","136","1925","0.1","A","34.89583333","-112.1975","USFS","AZ","025","04025","Yavapai County"
"-112.391933274","34.532772535","1565206","201432640","FS-1503588","FED","FS-FIRESTAT","FS","USAZPNF","Prescott National Forest","0309","Prescott National Forest","014","8","GW9J","WALKER","","","","","","2012","2012/06/10 00:00:00+00","162","1155","Human","Missing data/not specified/undetermined","","2012/06/10 00:00:00+00","162","1220","0.1","A","34.53277778","-112.39194444","USFS","AZ","025","04025","Yavapai County"
"-106.626101028","35.855549799","1565207","201432641","FS-1510663","FED","FS-FIRESTAT","FS","USNMSNF","Santa Fe National Forest","0310","Santa Fe National Forest","071","27","G5V0","FAREWELL","","","","","","2012","2012/08/11 00:00:00+00","224","1555","Human","Recreation and ceremony","","2012/08/11 00:00:00+00","224","1705","0.1","A","35.85555556","-106.62611111","USFS","NM","043","35043","Sandoval County"
"-105.858878998","35.617216451","1565208","201432642","FS-1504405","FED","FS-FIRESTAT","FS","USNMSNF","Santa Fe National Forest","0310","Santa Fe National Forest","002","1","EKV9","GARCIA","","","","","","2012","2012/05/23 00:00:00+00","144","1500","Natural","Natural","","2012/05/24 00:00:00+00","145","1200","0.5","B","35.61722222","-105.85888889","USFS","NM","049","35049","Santa Fe County"
"-106.908045394","36.104994219","1565209","201432643","FS-1504732","FED","FS-FIRESTAT","FS","USNMSNF","Santa Fe National Forest","0310","Santa Fe National Forest","032","2","EKV9","INDEPENDENCE","","","","","","2012","2012/07/04 00:00:00+00","186","1830","Natural","Natural","","2012/07/05 00:00:00+00","187","1145","0.1","A","36.105","-106.90805556","USFS","NM","043","35043","Sandoval County"
"-105.641934594","35.647494214","1565210","201432644","FS-1507483","FED","FS-FIRESTAT","FS","USNMSNF","Santa Fe National Forest","0310","Santa Fe National Forest","067","12","EKV9","ESCONDIDO","","","","","","2012","2012/08/05 00:00:00+00","218","1107","Natural","Natural","","2012/08/05 00:00:00+00","218","1500","0.1","A","35.6475","-105.64194444","USFS","NM","047","35047","San Miguel County"
"-106.563045508","35.665827594","1565211","201432645","FS-1510585","FED","FS-FIRESTAT","FS","USNMSNF","Santa Fe National Forest","0310","Santa Fe National Forest","010","4","GWQ9","BEAR SPRINGS","2012_NM-SNF-000112_BEAR SPRINGS","","","","","2012","2012/06/03 00:00:00+00","155","1830","Natural","Natural","","2012/06/12 00:00:00+00","164","1830","622","E","35.66583333","-106.56305556","USFS","NM","043","35043","Sandoval County"
"-106.58360104","35.820272022","1565212","201432646","FS-1504033","FED","FS-FIRESTAT","FS","USNMSNF","Santa Fe National Forest","0310","Santa Fe National Forest","018","008","GYY8","EAST FORK","","","","","","2012","2012/06/21 00:00:00+00","173","1615","Human","Recreation and ceremony","","2012/06/25 00:00:00+00","177","1830","0.25","A","35.82027778","-106.58361111","USFS","NM","043","35043","Sandoval County"
"-106.735823233","35.743049822","1565213","201432647","FS-1510648","FED","FS-FIRESTAT","FS","USNMSNF","Santa Fe National Forest","0310","Santa Fe National Forest","030","15","EKV9","RUIN","","","","","","2012","2012/07/03 00:00:00+00","185","1130","Natural","Natural","","2012/07/04 00:00:00+00","186","1330","0.2","A","35.74305556","-106.73583333","USFS","NM","043","35043","Sandoval County"
"-106.630267682","36.023049775","1565214","201432648","FS-1506492","FED","FS-FIRESTAT","FS","USNMSNF","Santa Fe National Forest","0310","Santa Fe National Forest","060","8","EKV9","JUNGLE","","","","","","2012","2012/07/28 00:00:00+00","210","1538","Natural","Natural","","2012/08/01 00:00:00+00","214","1155","0.75","B","36.02305556","-106.63027778","USFS","NM","043","35043","Sandoval County"
"-105.705267916","35.688049771","1565215","201432649","FS-1504411","FED","FS-FIRESTAT","FS","USNMSNF","Santa Fe National Forest","0310","Santa Fe National Forest","008","3","EKV9","CHURCH","","","","","","2012","2012/06/03 00:00:00+00","155","1700","Natural","Natural","","2012/06/05 00:00:00+00","157","1400","1","B","35.68805556","-105.70527778","USFS","NM","047","35047","San Miguel County"
"-106.672767685","35.877216459","1565216","201432650","FS-1504030","FED","FS-FIRESTAT","FS","USNMSNF","Santa Fe National Forest","0310","Santa Fe National Forest","023","12","GZ74","604","","","","","","2012","2012/06/28 00:00:00+00","180","1230","Human","Recreation and ceremony","","2012/06/28 00:00:00+00","180","1335","0.1","A","35.87722222","-106.67277778","USFS","NM","043","35043","Sandoval County"
"-106.856656538","35.848605364","1565217","201432651","FS-1503772","FED","FS-FIRESTAT","FS","USNMSNF","Santa Fe National Forest","0310","Santa Fe National Forest","004","002","GV2U","TIMBERLINE 2","","","","","","2012","2012/05/28 00:00:00+00","149","1300","Human","Recreation and ceremony","","2012/05/28 00:00:00+00","149","1315","0.1","A","35.84861111","-106.85666667","USFS","NM","043","35043","Sandoval County"
"-106.760267642","36.152771984","1565218","201432652","FS-1504783","FED","FS-FIRESTAT","FS","USNMSNF","Santa Fe National Forest","0310","Santa Fe National Forest","040","3","EKV9","JOSE","","","","","","2012","2012/07/02 00:00:00+00","184","1530","Natural","Natural","","2012/07/20 00:00:00+00","202","1245","0.25","A","36.15277778","-106.76027778","USFS","NM","039","35039","Rio Arriba County"
"-105.682490141","35.694994209","1565219","201432653","FS-1504417","FED","FS-FIRESTAT","FS","USNMSNF","Santa Fe National Forest","0310","Santa Fe National Forest","027","8","EKV9","WINDY BRIDGE","","","","","","2012","2012/07/02 00:00:00+00","184","1800","Natural","Natural","","2012/07/03 00:00:00+00","185","1030","0.1","A","35.695","-105.6825","USFS","NM","047","35047","San Miguel County"
"-106.901378722","36.134716435","1565220","201432654","FS-1505883","FED","FS-FIRESTAT","FS","USNMSNF","Santa Fe National Forest","0310","Santa Fe National Forest","035","4","EKV9","UPPER LA JARA","","","","","","2012","2012/07/06 00:00:00+00","188","1010","Natural","Natural","","2012/07/07 00:00:00+00","189","1255","0.5","B","36.13472222","-106.90138889","USFS","NM","043","35043","Sandoval County"
"-106.629156583","35.901938673","1565221","201432655","FS-1510709","FED","FS-FIRESTAT","FS","USNMSNF","Santa Fe National Forest","0310","Santa Fe National Forest","017","7","GX7W","THOMPSON RIDGE","","","","","","2012","2012/06/17 00:00:00+00","169","1822","Human","Missing data/not specified/undetermined","","2012/06/23 00:00:00+00","175","1330","0.75","B","35.90194444","-106.62916667","USFS","NM","043","35043","Sandoval County"
"-106.71554541","36.390549726","1565222","201432656","FS-1506232","FED","FS-FIRESTAT","FS","USNMSNF","Santa Fe National Forest","0310","Santa Fe National Forest","076","16","EKV9","GOLONDRINA","","","","","","2012","2012/08/14 00:00:00+00","227","1320","Natural","Natural","","2012/08/17 00:00:00+00","230","1515","0.25","A","36.39055556","-106.71555556","USFS","NM","039","35039","Rio Arriba County"
"-105.638879043","35.661660882","1565223","201432657","FS-1507481","FED","FS-FIRESTAT","FS","USNMSNF","Santa Fe National Forest","0310","Santa Fe National Forest","056","11","EKV9","SCAR","","","","","","2012","2012/07/24 00:00:00+00","206","1707","Natural","Natural","","2012/07/25 00:00:00+00","207","1230","0.5","B","35.66166667","-105.63888889","USFS","NM","047","35047","San Miguel County"
"-105.611656829","35.666938649","1565224","201432658","FS-1504412","FED","FS-FIRESTAT","FS","USNMSNF","Santa Fe National Forest","0310","Santa Fe National Forest","009","4","EKV9","COW CREEK","","","","","","2012","2012/06/03 00:00:00+00","155","1600","Natural","Natural","","2012/06/04 00:00:00+00","156","0730","0.25","A","35.66694444","-105.61166667","USFS","NM","047","35047","San Miguel County"
"-106.675823237","35.854994242","1565225","201432659","FS-1510626","FED","FS-FIRESTAT","FS","USNMSNF","Santa Fe National Forest","0310","Santa Fe National Forest","024","13","GZ75","MAYOR","","","","","","2012","2012/06/29 00:00:00+00","181","1630","Human","Recreation and ceremony","","2012/06/29 00:00:00+00","181","1730","0.1","A","35.855","-106.67583333","USFS","NM","043","35043","Sandoval County"
"-106.816378753","36.002772009","1565226","201432660","FS-1504835","FED","FS-FIRESTAT","FS","USNMSNF","Santa Fe National Forest","0310","Santa Fe National Forest","052","7","EKV9","VACAS","","","","","","2012","2012/07/22 00:00:00+00","204","1248","Natural","Natural","","2012/07/22 00:00:00+00","204","1350","0.1","A","36.00277778","-106.81638889","USFS","NM","043","35043","Sandoval County"
"-105.604712382","35.654716431","1565227","201432661","FS-1504418","FED","FS-FIRESTAT","FS","USNMSNF","Santa Fe National Forest","0310","Santa Fe National Forest","034","9","EKV9","RITO","","","","","","2012","2012/07/05 00:00:00+00","187","1200","Natural","Natural","","2012/07/06 00:00:00+00","188","1245","0.1","A","35.65472222","-105.60472222","USFS","NM","047","35047","San Miguel County"
"-105.701934572","35.750549762","1565228","201432662","FS-1509135","FED","FS-FIRESTAT","FS","USNMSNF","Santa Fe National Forest","0310","Santa Fe National Forest","087","14","EKV9","HOLY INDIAN","","","","","","2012","2012/10/04 00:00:00+00","278","1415","Natural","Natural","","2012/10/05 00:00:00+00","279","1630","0.5","B","35.75055556","-105.70194444","USFS","NM","047","35047","San Miguel County"
"-106.259712203","36.026383083","1565229","201432663","FS-1507472","FED","FS-FIRESTAT","FS","USNMSNF","Santa Fe National Forest","0310","Santa Fe National Forest","037","4","G03G","144","","","","","","2012","2012/07/06 00:00:00+00","188","1007","Human","Recreation and ceremony","","2012/07/06 00:00:00+00","188","1110","0.1","A","36.02638889","-106.25972222","USFS","NM","039","35039","Rio Arriba County"
"-106.778600995","35.84610536","1565230","201432664","FS-1504023","FED","FS-FIRESTAT","FS","USNMSNF","Santa Fe National Forest","0310","Santa Fe National Forest","022","11","GZK6","FSRD 376","","","","","","2012","2012/06/26 00:00:00+00","178","1115","Human","Recreation and ceremony","","2012/06/26 00:00:00+00","178","1247","0.1","A","35.84611111","-106.77861111","USFS","NM","043","35043","Sandoval County"
"-106.746934305","36.147494204","1565231","201432665","FS-1506488","FED","FS-FIRESTAT","FS","USNMSNF","Santa Fe National Forest","0310","Santa Fe National Forest","049","6","EKV9","BEAR PAW-2","","","","","","2012","2012/07/19 00:00:00+00","201","1429","Natural","Natural","","2012/07/24 00:00:00+00","206","1130","0.1","A","36.1475","-106.74694444","USFS","NM","039","35039","Rio Arriba County"
"-106.808600953","36.246660863","1565232","201432666","FS-1508679","FED","FS-FIRESTAT","FS","USNMSNF","Santa Fe National Forest","0310","Santa Fe National Forest","086","10","G9BG","CAPULIN","","","","","","2012","2012/10/02 00:00:00+00","276","1617","Human","Recreation and ceremony","","2012/10/02 00:00:00+00","276","1900","0.1","A","36.24666667","-106.80861111","USFS","NM","039","35039","Rio Arriba County"
"-106.590823257","35.83860535","1565233","201432667","FS-1510673","FED","FS-FIRESTAT","FS","USNMSNF","Santa Fe National Forest","0310","Santa Fe National Forest","029","2","EMC1","EL CAJETE","","","","","","2012","2012/07/03 00:00:00+00","185","1215","Natural","Natural","","2012/07/03 00:00:00+00","185","1700","0.2","A","35.83861111","-106.59083333","OTHER FEDERAL","NM","043","35043","Sandoval County"
"-106.664989906","35.896383126","1565234","201432668","FS-1510839","FED","FS-FIRESTAT","FS","USNMSNF","Santa Fe National Forest","0310","Santa Fe National Forest","088","31","G9LH","144 BRAVO","","","","","","2012","2012/10/09 00:00:00+00","283","1152","Human","Recreation and ceremony","","2012/10/09 00:00:00+00","283","1215","0.1","A","35.89638889","-106.665","USFS","NM","043","35043","Sandoval County"
"-106.914156498","36.155271992","1565235","201432669","FS-1505559","FED","FS-FIRESTAT","FS","USNMSNF","Santa Fe National Forest","0310","Santa Fe National Forest","058","7","EKV9","SALADO","","","","","","2012","2012/07/28 00:00:00+00","210","0830","Natural","Natural","","2012/07/29 00:00:00+00","211","1530","0.1","A","36.15527778","-106.91416667","USFS","NM","039","35039","Rio Arriba County"
"-106.910823163","36.109994219","1565236","201432670","FS-1504739","FED","FS-FIRESTAT","FS","USNMSNF","Santa Fe National Forest","0310","Santa Fe National Forest","038","5","EKV9","LOWER LA JARA","","","","","","2012","2012/07/06 00:00:00+00","188","1029","Natural","Natural","","2012/07/08 00:00:00+00","190","1210","0.1","A","36.11","-106.91083333","USFS","NM","043","35043","Sandoval County"
"-105.415267979","35.710827521","1565237","201432671","FS-1507624","FED","FS-FIRESTAT","FS","USNMSNF","Santa Fe National Forest","0310","Santa Fe National Forest","016","6","GX8G","FIVE","","","","","","2012","2012/06/17 00:00:00+00","169","1747","Human","Recreation and ceremony","","2012/06/17 00:00:00+00","169","1800","0.1","A","35.71083333","-105.41527778","USFS","NM","047","35047","San Miguel County"
"-105.693323476","35.604438663","1565238","201432672","FS-1504420","FED","FS-FIRESTAT","FS","USNMSNF","Santa Fe National Forest","0310","Santa Fe National Forest","039","10","EKV9","MOLINO","","","","","","2012","2012/07/06 00:00:00+00","188","2000","Natural","Natural","","2012/07/08 00:00:00+00","190","1300","0.1","A","35.60444444","-105.69333333","USFS","NM","047","35047","San Miguel County"
"-106.930545392","36.072494225","1565239","201432673","FS-1504834","FED","FS-FIRESTAT","FS","USNMSNF","Santa Fe National Forest","0310","Santa Fe National Forest","033","3","EKV9","SULLIVAN","","","","","","2012","2012/07/04 00:00:00+00","186","1923","Natural","Natural","","2012/07/05 00:00:00+00","187","1125","0.1","A","36.0725","-106.93055556","USFS","NM","043","35043","Sandoval County"
"-106.869434293","35.988049794","1565240","201432674","FS-1508681","FED","FS-FIRESTAT","FS","USNMSNF","Santa Fe National Forest","0310","Santa Fe National Forest","082","17","EKV9","BLUE","","","","","","2012","2012/09/25 00:00:00+00","269","1635","Natural","Natural","","2012/09/26 00:00:00+00","270","1117","0.01","A","35.98805556","-106.86944444","USFS","NM","043","35043","Sandoval County"
"-106.789989828","36.453049722","1565241","201432675","FS-1508912","FED","FS-FIRESTAT","FS","USNMSNF","Santa Fe National Forest","0310","Santa Fe National Forest","085","18","EKV9","LIVEMAN","","","","","","2012","2012/09/30 00:00:00+00","274","1800","Natural","Natural","","2012/10/01 00:00:00+00","275","1430","0.25","A","36.45305556","-106.79","USFS","NM","039","35039","Rio Arriba County"
"-106.869989866","35.833327587","1565242","201432676","FS-1506631","FED","FS-FIRESTAT","FS","USNMSNF","Santa Fe National Forest","0310","Santa Fe National Forest","063","10","EKV9","BALES","","","","","","2012","2012/07/29 00:00:00+00","211","1535","Natural","Natural","","2012/08/01 00:00:00+00","214","1345","2.2","B","35.83333333","-106.87","USFS","NM","043","35043","Sandoval County"
"-105.849712315","35.788605314","1565243","201432677","FS-1507461","FED","FS-FIRESTAT","FS","USNMSNF","Santa Fe National Forest","0310","Santa Fe National Forest","006","1","GWA6","SECTION 14","","","","","","2012","2012/06/01 00:00:00+00","153","1600","Human","Recreation and ceremony","","2012/06/01 00:00:00+00","153","1645","0.1","A","35.78861111","-105.84972222","USFS","NM","049","35049","Santa Fe County"
"-106.621656589","35.85110535","1565244","201432678","FS-1503787","FED","FS-FIRESTAT","FS","USNMSNF","Santa Fe National Forest","0310","Santa Fe National Forest","005","003","GV8U","REDONDO","","","","","","2012","2012/05/31 00:00:00+00","152","1448","Human","Recreation and ceremony","","2012/06/03 00:00:00+00","155","1115","1.2","B","35.85111111","-106.62166667","USFS","NM","043","35043","Sandoval County"
"-106.538601039","35.94943866","1565245","201432679","FS-1510629","FED","FS-FIRESTAT","FS","USNMSNF","Santa Fe National Forest","0310","Santa Fe National Forest","025","1","EMC1","ROSA","","","","","","2012","2012/06/29 00:00:00+00","181","1730","Natural","Natural","","2012/07/01 00:00:00+00","183","1325","0.5","B","35.94944444","-106.53861111","OTHER FEDERAL","NM","043","35043","Sandoval County"
"-105.41221242","35.709994191","1565246","201432680","FS-1504415","FED","FS-FIRESTAT","FS","USNMSNF","Santa Fe National Forest","0310","Santa Fe National Forest","014","5","GX6H","261","","","","","","2012","2012/06/17 00:00:00+00","169","1250","Human","Recreation and ceremony","","2012/06/17 00:00:00+00","169","1325","0.1","A","35.71","-105.41222222","USFS","NM","047","35047","San Miguel County"
"-106.70526768","35.858883133","1565247","201432681","FS-1510682","FED","FS-FIRESTAT","FS","USNMSNF","Santa Fe National Forest","0310","Santa Fe National Forest","062","25","G33W","BREAKS","","","","","","2012","2012/07/29 00:00:00+00","211","1400","Human","Recreation and ceremony","","2012/07/29 00:00:00+00","211","1420","0.1","A","35.85888889","-106.70527778","USFS","NM","043","35043","Sandoval County"
