"ï»¿X","Y","OBJECTID","FOD_ID","FPA_ID","SOURCE_SYSTEM_TYPE","SOURCE_SYSTEM","NWCG_REPORTING_AGENCY","NWCG_REPORTING_UNIT_ID","NWCG_REPORTING_UNIT_NAME","SOURCE_REPORTING_UNIT","SOURCE_REPORTING_UNIT_NAME","LOCAL_FIRE_REPORT_ID","LOCAL_INCIDENT_ID","FIRE_CODE","FIRE_NAME","ICS_209_PLUS_INCIDENT_JOIN_ID","ICS_209_PLUS_COMPLEX_JOIN_ID","MTBS_ID","MTBS_FIRE_NAME","COMPLEX_NAME","FIRE_YEAR","DISCOVERY_DATE","DISCOVERY_DOY","DISCOVERY_TIME","NWCG_CAUSE_CLASSIFICATION","NWCG_GENERAL_CAUSE","NWCG_CAUSE_AGE_CATEGORY","CONT_DATE","CONT_DOY","CONT_TIME","FIRE_SIZE","FIRE_SIZE_CLASS","LATITUDE","LONGITUDE","OWNER_DESCR","STATE","COUNTY","FIPS_CODE","FIPS_NAME"
"-118.200585651","48.298293892","280001","285443","W-557449","FED","DOI-WFMI","BIA","USWACOA","Colville Agency","WACOA","Colville Agency","42","","D4GY","MOCCASIN REST","","","","","","2008","2008/03/13 00:00:00+00","73","1534","Human","Arson/incendiarism","","2008/03/13 00:00:00+00","73","1627","2.5","B","48.2983","-118.2006","BIA","WA","","",""
"-118.194985645","48.32559389","280002","285444","W-557452","FED","DOI-WFMI","BIA","USWACOA","Colville Agency","WACOA","Colville Agency","43","","D4GZ","HOFFMAN # 1","","","","","","2008","2008/03/18 00:00:00+00","78","1230","Human","Debris and open burning","","2008/03/18 00:00:00+00","78","1538","3","B","48.3256","-118.195","BIA","WA","","",""
"-118.974985553","48.123093987","280003","285445","W-557454","FED","DOI-WFMI","BIA","USWACOA","Colville Agency","WACOA","Colville Agency","44","","D4G0","WHALAWITSA","","","","","","2008","2008/03/19 00:00:00+00","79","1945","Human","Debris and open burning","","2008/03/20 00:00:00+00","80","0900","0.7","B","48.1231","-118.975","BIA","WA","","",""
"-118.215585654","48.274393895","280004","285446","W-557457","FED","DOI-WFMI","BIA","USWACOA","Colville Agency","WACOA","Colville Agency","45","","D4LJ","SILVER CREEK FIRE","","","","","","2008","2008/03/20 00:00:00+00","80","1450","Human","Arson/incendiarism","","2008/03/20 00:00:00+00","80","1553","69","C","48.2744","-118.2156","BIA","WA","","",""
"-119.306685437","48.350794009","280005","285447","W-558641","FED","DOI-WFMI","BIA","USWACOA","Colville Agency","WACOA","Colville Agency","46","","D4YF","TIMBERLINE RANCH","","","","","","2008","2008/04/01 00:00:00+00","92","1502","Human","Debris and open burning","","2008/04/02 00:00:00+00","93","1244","2.3","B","48.3508","-119.3067","BIA","WA","","",""
"-119.211085442","48.403093996","280006","285448","W-557459","FED","DOI-WFMI","BIA","USWACOA","Colville Agency","WACOA","Colville Agency","47","","D4YG","EILEEN CARSON","","","","","","2008","2008/04/02 00:00:00+00","93","1358","Human","Debris and open burning","","2008/04/02 00:00:00+00","93","1643","3","B","48.4031","-119.2111","BIA","WA","","",""
"-119.457785416","48.327194027","280007","285449","W-558665","FED","DOI-WFMI","BIA","USWACOA","Colville Agency","WACOA","Colville Agency","48","","D4YL","OLD LOUIE ORR PLACE","","","","","","2008","2008/04/02 00:00:00+00","93","1510","Human","Debris and open burning","","2008/04/02 00:00:00+00","93","1634","0.3","B","48.3272","-119.4578","BIA","WA","","",""
"-118.696385606","48.111693958","280008","285450","W-557463","FED","DOI-WFMI","BIA","USWACOA","Colville Agency","WACOA","Colville Agency","49","","D4YH","BARNEY'S PARK","","","","","","2008","2008/04/03 00:00:00+00","94","1450","Human","Debris and open burning","","2008/04/03 00:00:00+00","94","1658","0.5","B","48.1117","-118.6964","BIA","WA","","",""
"-118.996085552","48.11059399","280009","285451","W-558286","FED","DOI-WFMI","BIA","USWACOA","Colville Agency","WACOA","Colville Agency","50","","D42C","ROUND HOUSE","","","","","","2008","2008/04/05 00:00:00+00","96","1800","Human","Missing data/not specified/undetermined","","2008/04/05 00:00:00+00","96","1900","6","B","48.1106","-118.9961","BIA","WA","","",""
"-119.233285477","48.244994008","280010","285452","W-557471","FED","DOI-WFMI","BIA","USWACOA","Colville Agency","WACOA","Colville Agency","51","","D48A","KARTAR CREEK","","","","","","2008","2008/04/10 00:00:00+00","101","1651","Human","Missing data/not specified/undetermined","","2008/04/11 00:00:00+00","102","1600","8.1","B","48.245","-119.2333","BIA","WA","","",""
"-118.276685643","48.272493902","280011","285453","W-572779","FED","DOI-WFMI","BIA","USWACOA","Colville Agency","WACOA","Colville Agency","52","","D5AL","METEOR FIRE","","","","","","2008","2008/04/12 00:00:00+00","103","1111","Human","Debris and open burning","","2008/04/12 00:00:00+00","103","1227","3","B","48.2725","-118.2767","BIA","WA","","",""
"-118.722185608","48.081693962","280012","285454","W-557472","FED","DOI-WFMI","BIA","USWACOA","Colville Agency","WACOA","Colville Agency","53","","D5EA","JACK CREEK FIRE","","","","","","2008","2008/04/12 00:00:00+00","103","1904","Human","Debris and open burning","","2008/04/12 00:00:00+00","103","2030","8","B","48.0817","-118.7222","BIA","WA","","",""
"-119.327485436","48.342494012","280013","285455","W-557849","FED","DOI-WFMI","BIA","USWACOA","Colville Agency","WACOA","Colville Agency","54","","D5AM","HALEY CREEK ROAD","","","","","","2008","2008/04/12 00:00:00+00","103","1916","Human","Missing data/not specified/undetermined","","2008/04/14 00:00:00+00","105","1029","7.1","B","48.3425","-119.3275","BIA","WA","","",""
"-118.220785644","48.312793893","280014","285456","W-558287","FED","DOI-WFMI","BIA","USWACOA","Colville Agency","WACOA","Colville Agency","55","","D5D9","MICHEL'S FIRE","","","","","","2008","2008/04/13 00:00:00+00","104","1835","Human","Missing data/not specified/undetermined","","2008/04/14 00:00:00+00","105","0900","0.7","B","48.3128","-118.2208","BIA","WA","","",""
"-119.345585426","48.369994013","280015","285457","W-557473","FED","DOI-WFMI","BIA","USWACOA","Colville Agency","WACOA","Colville Agency","56","","D5NF","48 HALEY CREEK ROAD","","","","","","2008","2008/04/17 00:00:00+00","108","1945","Human","Debris and open burning","","2008/04/18 00:00:00+00","109","1032","0.3","B","48.37","-119.3456","BIA","WA","","",""
"-119.519185412","48.302794036","280016","285458","W-558288","FED","DOI-WFMI","BIA","USWACOA","Colville Agency","WACOA","Colville Agency","57","","D50L","REINBOLDS","","","","","","2008","2008/04/20 00:00:00+00","111","1333","Human","Debris and open burning","","2008/04/20 00:00:00+00","111","1603","1","B","48.3028","-119.5192","BIA","WA","","",""
"-118.193285646","48.32309389","280017","285459","W-557850","FED","DOI-WFMI","BIA","USWACOA","Colville Agency","WACOA","Colville Agency","58","","D51T","CONRAD FIRE","","","","","","2008","2008/04/26 00:00:00+00","117","1356","Human","Debris and open burning","","2008/04/26 00:00:00+00","117","1625","0.5","B","48.3231","-118.1933","BIA","WA","","",""
"-118.268885627","48.343093897","280018","285460","W-572780","FED","DOI-WFMI","BIA","USWACOA","Colville Agency","WACOA","Colville Agency","59","","D6G3","RUSHTON","","","","","","2008","2008/05/05 00:00:00+00","126","1442","Human","Arson/incendiarism","","2008/05/05 00:00:00+00","126","1733","1","B","48.3431","-118.2689","BIA","WA","","",""
"-119.552185456","48.098594051","280019","285461","W-558289","FED","DOI-WFMI","BIA","USWACOA","Colville Agency","WACOA","Colville Agency","61","","D6KJ","556 JACK WELLS ROAD","","","","","","2008","2008/05/07 00:00:00+00","128","1511","Human","Debris and open burning","","2008/05/07 00:00:00+00","128","1839","0.5","B","48.0986","-119.5522","BIA","WA","","",""
"-118.193885646","48.32139389","280020","285462","W-558652","FED","DOI-WFMI","BIA","USWACOA","Colville Agency","WACOA","Colville Agency","60","","D6JD","HALL CREEK CEMETERY","","","","","","2008","2008/05/07 00:00:00+00","128","1521","Human","Debris and open burning","","2008/05/07 00:00:00+00","128","1843","1","B","48.3214","-118.1939","BIA","WA","","",""
"-118.977185545","48.152793986","280021","285463","W-558290","FED","DOI-WFMI","BIA","USWACOA","Colville Agency","WACOA","Colville Agency","63","","D61A","MOON FIRE","","","","","","2008","2008/05/12 00:00:00+00","133","1412","Human","Misuse of fire by a minor","Minor","2008/05/12 00:00:00+00","133","1621","0.1","A","48.1528","-118.9772","BIA","WA","","",""
"-118.718585611","48.071893963","280022","285464","W-558291","FED","DOI-WFMI","BIA","USWACOA","Colville Agency","WACOA","Colville Agency","64","","D6WH","MEADOW CREEK","","","","","","2008","2008/05/15 00:00:00+00","136","1349","Human","Missing data/not specified/undetermined","","2008/05/15 00:00:00+00","136","1935","3.4","B","48.0719","-118.7186","BIA","WA","","",""
"-118.690285613","48.084693959","280023","285465","W-558693","FED","DOI-WFMI","BIA","USWACOA","Colville Agency","WACOA","Colville Agency","65","","D62E","ALICE FLATS","","","","","","2008","2008/05/17 00:00:00+00","138","0950","Human","Other causes","","2008/05/17 00:00:00+00","138","1133","0.3","B","48.0847","-118.6903","BIA","WA","","",""
"-118.192185647","48.31969389","280024","285466","W-558292","FED","DOI-WFMI","BIA","USWACOA","Colville Agency","WACOA","Colville Agency","66","","D62F","HALL CREEK CEMETERY","","","","","","2008","2008/05/17 00:00:00+00","138","1457","Human","Debris and open burning","","2008/05/17 00:00:00+00","138","1650","0.1","A","48.3197","-118.1922","BIA","WA","","",""
"-118.684385615","48.082793958","280025","285467","W-558649","FED","DOI-WFMI","BIA","USWACOA","Colville Agency","WACOA","Colville Agency","69","","D7AV","ALICE FLATS 3","","","","","","2008","2008/05/19 00:00:00+00","140","0130","Human","Arson/incendiarism","","2008/05/19 00:00:00+00","140","0930","0.1","A","48.0828","-118.6844","BIA","WA","","",""
"-118.680785616","48.081393958","280026","285468","W-558644","FED","DOI-WFMI","BIA","USWACOA","Colville Agency","WACOA","Colville Agency","67","","D7AU","ALICE FLATS 1","","","","","","2008","2008/05/19 00:00:00+00","140","0130","Human","Arson/incendiarism","","2008/05/19 00:00:00+00","140","0930","0.1","A","48.0814","-118.6808","BIA","WA","","",""
"-118.698085612","48.08249396","280027","285469","W-558647","FED","DOI-WFMI","BIA","USWACOA","Colville Agency","WACOA","Colville Agency","68","","D7AW","ALICE FLATS 2","","","","","","2008","2008/05/19 00:00:00+00","140","0130","Human","Arson/incendiarism","","2008/05/19 00:00:00+00","140","0930","0.1","A","48.0825","-118.6981","BIA","WA","","",""
"-118.906885539","48.227793973","280028","285470","W-558650","FED","DOI-WFMI","BIA","USWACOA","Colville Agency","WACOA","Colville Agency","70","","D61S","OWHI LAKE","","","","","","2008","2008/05/19 00:00:00+00","140","1332","Human","Debris and open burning","","2008/05/19 00:00:00+00","140","1618","0.1","A","48.2278","-118.9069","BIA","WA","","",""
"-118.991885502","48.315793977","280029","285471","W-572760","FED","DOI-WFMI","BIA","USWACOA","Colville Agency","WACOA","Colville Agency","71","","D7H2","NORTH STAR 44","","","","","","2008","2008/05/30 00:00:00+00","151","1259","Human","Debris and open burning","","2008/06/01 00:00:00+00","153","1645","10.9","C","48.3158","-118.9919","BIA","WA","","",""
"-118.225585657","48.253293898","280030","285472","W-559285","FED","DOI-WFMI","BIA","USWACOA","Colville Agency","WACOA","Colville Agency","72","","D7J6","STRANGER MOUNTAIN","","","","","","2008","2008/05/30 00:00:00+00","151","1452","Human","Debris and open burning","","2008/05/31 00:00:00+00","152","1717","1.8","B","48.2533","-118.2256","BIA","WA","","",""
"-118.971685534","48.201893982","280031","285473","W-558694","FED","DOI-WFMI","BIA","USWACOA","Colville Agency","WACOA","Colville Agency","73","","D7J8","ARIPA FIRE","","","","","","2008","2008/05/31 00:00:00+00","152","0532","Human","Recreation and ceremony","","2008/05/31 00:00:00+00","152","1830","0.1","A","48.2019","-118.9717","BIA","WA","","",""
"-119.126385448","48.438893984","280032","285474","W-572763","FED","DOI-WFMI","BIA","USWACOA","Colville Agency","WACOA","Colville Agency","74","","D70M","HADEN CREEK ROAD","","","","","","2008","2008/06/13 00:00:00+00","165","1231","Human","Debris and open burning","","2008/06/13 00:00:00+00","165","1615","1","B","48.4389","-119.1264","PRIVATE","WA","","",""
"-118.180285655","48.29669389","280033","285475","W-575708","FED","DOI-WFMI","BIA","USWACOA","Colville Agency","WACOA","Colville Agency","75","","D8DE","STRANGER CREEK","","","","","","2008","2008/06/19 00:00:00+00","171","0705","Human","Recreation and ceremony","","2008/06/19 00:00:00+00","171","1128","0.2","A","48.2967","-118.1803","BIA","WA","","",""
"-119.008585544","48.13439399","280034","285476","W-575761","FED","DOI-WFMI","BIA","USWACOA","Colville Agency","WACOA","Colville Agency","79","","D8R3","NESPELEM DUMP","","","","","","2008","2008/06/22 00:00:00+00","174","2259","Human","Debris and open burning","","2008/06/28 00:00:00+00","180","1800","20","C","48.1344","-119.0086","BIA","WA","","",""
"-118.967485538","48.188893982","280035","285477","W-577777","FED","DOI-WFMI","BIA","USWACOA","Colville Agency","WACOA","Colville Agency","82","","D8Z6","GOLD LAKE ROAD","","","","","","2008","2008/06/26 00:00:00+00","178","0737","Human","Recreation and ceremony","","2008/06/26 00:00:00+00","178","0840","0.1","A","48.1889","-118.9675","BIA","WA","","",""
"-118.221685609","48.452793884","280036","285478","W-577780","FED","DOI-WFMI","BIA","USWACOA","Colville Agency","WACOA","Colville Agency","85","","D9DX","BARNABY CREEK CAMP","","","","","","2008","2008/06/30 00:00:00+00","182","0819","Human","Recreation and ceremony","","2008/06/30 00:00:00+00","182","1127","0.1","A","48.4528","-118.2217","BIA","WA","","",""
"-118.194385651","48.302793891","280037","285479","W-577782","FED","DOI-WFMI","BIA","USWACOA","Colville Agency","WACOA","Colville Agency","86","","D9HB","LOWER HUD # 1","","","","","","2008","2008/06/30 00:00:00+00","182","1939","Human","Missing data/not specified/undetermined","","2008/06/30 00:00:00+00","182","2151","0.3","B","48.3028","-118.1944","BIA","WA","","",""
"-119.40058541","48.393094017","280038","285480","W-580493","FED","DOI-WFMI","BIA","USWACOA","Colville Agency","WACOA","Colville Agency","88","","D9HM","VAN BRUNT","","","","","","2008","2008/06/30 00:00:00+00","182","2047","Natural","Natural","","2008/07/01 00:00:00+00","183","1136","0.1","A","48.3931","-119.4006","BIA","WA","","",""
"-118.945285574","48.055293988","280039","285481","W-579742","FED","DOI-WFMI","BIA","USWACOA","Colville Agency","WACOA","Colville Agency","89","","D9HN","REBECCA LAKE","","","","","","2008","2008/06/30 00:00:00+00","182","2145","Natural","Natural","","2008/07/01 00:00:00+00","183","0945","109","D","48.0553","-118.9453","BIA","WA","","",""
"-118.956085576","48.03859399","280040","285482","W-580440","FED","DOI-WFMI","BIA","USWACOA","Colville Agency","WACOA","Colville Agency","90","","EC1D","OLBRECHTS","","","","","","2008","2008/06/30 00:00:00+00","182","2326","Natural","Natural","","2008/07/01 00:00:00+00","183","1200","0.3","B","48.0386","-118.9561","BIA","WA","","",""
"-119.140785471","48.333893992","280041","285483","W-580496","FED","DOI-WFMI","BIA","USWACOA","Colville Agency","WACOA","Colville Agency","115","","EL12","TRAIL CREEK","","","","","","2008","2008/07/01 00:00:00+00","183","0701","Natural","Natural","","2008/07/01 00:00:00+00","183","1600","0.1","A","48.3339","-119.1408","BIA","WA","","",""
"-118.632485625","48.078093953","280042","285484","W-580494","FED","DOI-WFMI","BIA","USWACOA","Colville Agency","WACOA","Colville Agency","91","","D9MU","WATSON RIDGE","","","","","","2008","2008/07/01 00:00:00+00","183","0801","Natural","Natural","","2008/07/01 00:00:00+00","183","1640","0.1","A","48.0781","-118.6325","BIA","WA","","",""
"-119.276685423","48.432794001","280043","285485","W-580495","FED","DOI-WFMI","BIA","USWACOA","Colville Agency","WACOA","Colville Agency","92","","D9MV","STAPLOOP","","","","","","2008","2008/07/01 00:00:00+00","183","0831","Natural","Natural","","2008/07/01 00:00:00+00","183","2048","0.1","A","48.4328","-119.2767","BIA","WA","","",""
"-118.660785597","48.17219395","280044","285486","W-577784","FED","DOI-WFMI","BIA","USWACOA","Colville Agency","WACOA","Colville Agency","93","","D9MW","LOUIE CREEK","","","","","","2008","2008/07/01 00:00:00+00","183","0831","Natural","Natural","","2008/07/03 00:00:00+00","185","1800","0.1","A","48.1722","-118.6608","BIA","WA","","",""
"-118.488285663","48.02859394","280045","285487","W-577786","FED","DOI-WFMI","BIA","USWACOA","Colville Agency","WACOA","Colville Agency","94","","D9MX","CANTEEN CREEK","","","","","","2008","2008/07/01 00:00:00+00","183","1129","Natural","Natural","","2008/07/02 00:00:00+00","184","0941","0.5","B","48.0286","-118.4883","BIA","WA","","",""
"-118.235585622","48.39029389","280046","285488","W-577790","FED","DOI-WFMI","BIA","USWACOA","Colville Agency","WACOA","Colville Agency","97","","D9MY","BARNABY CREEK # 1","","","","","","2008","2008/07/01 00:00:00+00","183","1257","Natural","Natural","","2008/07/03 00:00:00+00","185","1800","2","B","48.3903","-118.2356","BIA","WA","","",""
"-118.21388563","48.373593889","280047","285489","W-577964","FED","DOI-WFMI","BIA","USWACOA","Colville Agency","WACOA","Colville Agency","100","","D9M0","BARNABY CREEK # 2","","","","","","2008","2008/07/01 00:00:00+00","183","1342","Natural","Natural","","2008/07/01 00:00:00+00","183","2037","0.9","B","48.3736","-118.2139","BIA","WA","","",""
"-118.630585583","48.252793942","280048","285490","W-577963","FED","DOI-WFMI","BIA","USWACOA","Colville Agency","WACOA","Colville Agency","99","","D9MZ","KENO MINE","","","","","","2008","2008/07/01 00:00:00+00","183","1402","Natural","Natural","","2008/07/01 00:00:00+00","183","1900","0.3","B","48.2528","-118.6306","BIA","WA","","",""
"-118.82938558","48.119193972","280049","285491","W-577966","FED","DOI-WFMI","BIA","USWACOA","Colville Agency","WACOA","Colville Agency","102","","D9M5","CHUWEAH CREEK","","","","","","2008","2008/07/01 00:00:00+00","183","1526","Natural","Natural","","2008/07/01 00:00:00+00","183","1956","3","B","48.1192","-118.8294","BIA","WA","","",""
"-118.236385669","48.194693903","280050","285492","W-577967","FED","DOI-WFMI","BIA","USWACOA","Colville Agency","WACOA","Colville Agency","103","","D9M1","KEWA","","","","","","2008","2008/07/01 00:00:00+00","183","1637","Natural","Natural","","2008/07/02 00:00:00+00","184","1900","4","B","48.1947","-118.2364","BIA","WA","","",""
"-119.253285425","48.439693998","280051","285493","W-580043","FED","DOI-WFMI","BIA","USWACOA","Colville Agency","WACOA","Colville Agency","105","","D9M3","HADEN CREEK","","","","","","2008","2008/07/01 00:00:00+00","183","1719","Natural","Natural","","2008/07/01 00:00:00+00","183","1830","0.1","A","48.4397","-119.2533","BIA","WA","","",""
"-118.577785641","48.051893949","280052","285494","W-577968","FED","DOI-WFMI","BIA","USWACOA","Colville Agency","WACOA","Colville Agency","104","","D9M2","SILVER CREEK MINE","","","","","","2008","2008/07/01 00:00:00+00","183","1754","Natural","Natural","","2008/07/02 00:00:00+00","184","1300","0.1","A","48.0519","-118.5778","BIA","WA","","",""
"-118.518285608","48.234193931","280053","285495","W-577969","FED","DOI-WFMI","BIA","USWACOA","Colville Agency","WACOA","Colville Agency","106","","D9UH","KLONDYKE CREEK","","","","","","2008","2008/07/01 00:00:00+00","183","1807","Natural","Natural","","2008/07/03 00:00:00+00","185","1800","0.1","A","48.2342","-118.5183","BIA","WA","","",""
"-118.404185671","48.061393929","280054","285496","W-577971","FED","DOI-WFMI","BIA","USWACOA","Colville Agency","WACOA","Colville Agency","108","","D9M4","9 MILE FLATS","","","","","","2008","2008/07/01 00:00:00+00","183","1832","Natural","Natural","","2008/07/01 00:00:00+00","183","2148","0.1","A","48.0614","-118.4042","BIA","WA","","",""
"-119.582785389","48.34749404","280055","285497","W-577973","FED","DOI-WFMI","BIA","USWACOA","Colville Agency","WACOA","Colville Agency","110","","D9MS","JACKASS BUTTE","2008_WA-WFS-901_JACKASS BUTTE","","WA4834611957520080701","JACKASS BUTTE","","2008","2008/07/01 00:00:00+00","183","1858","Natural","Natural","","2008/07/08 00:00:00+00","190","2000","1766","F","48.3475","-119.5828","BIA","WA","","",""
"-119.091885482","48.324393988","280056","285498","W-577976","FED","DOI-WFMI","BIA","USWACOA","Colville Agency","WACOA","Colville Agency","113","","EAD0","PORCUPINE-OMAK CREEK","","","","","","2008","2008/07/01 00:00:00+00","183","2119","Natural","Natural","","2008/07/04 00:00:00+00","186","1800","0.1","A","48.3244","-119.0919","BIA","WA","","",""
"-118.294985595","48.454393892","280057","285499","W-578803","FED","DOI-WFMI","BIA","USWACOA","Colville Agency","WACOA","Colville Agency","114","","D9XR","BRUSH MOUNTAIN","","","","","","2008","2008/07/01 00:00:00+00","183","2230","Natural","Natural","","2008/07/02 00:00:00+00","184","1900","0.3","B","48.4544","-118.295","BIA","WA","","",""
"-118.645585562","48.328093939","280058","285500","W-580441","FED","DOI-WFMI","BIA","USWACOA","Colville Agency","WACOA","Colville Agency","116","","D9XT","IRON CREEK","","","","","","2008","2008/07/02 00:00:00+00","184","1019","Natural","Natural","","2008/07/02 00:00:00+00","184","2048","0.3","B","48.3281","-118.6456","BIA","WA","","",""
"-119.182785492","48.220594004","280059","285501","W-578807","FED","DOI-WFMI","BIA","USWACOA","Colville Agency","WACOA","Colville Agency","118","","D9Q8","COYOTE CREEK","","","","","","2008","2008/07/02 00:00:00+00","184","1212","Natural","Natural","","2008/07/09 00:00:00+00","191","1800","10.6","C","48.2206","-119.1828","BIA","WA","","",""
"-119.230285476","48.247794007","280060","285502","W-578806","FED","DOI-WFMI","BIA","USWACOA","Colville Agency","WACOA","Colville Agency","117","","D9Q7","KARTAR FIRE","","","","","","2008","2008/07/02 00:00:00+00","184","1212","Natural","Natural","","2008/07/09 00:00:00+00","191","1800","81.8","C","48.2478","-119.2303","BIA","WA","","",""
"-118.638285527","48.474193929","280061","285503","W-578808","FED","DOI-WFMI","BIA","USWACOA","Colville Agency","WACOA","Colville Agency","119","","D9UF","13 MILE","","","","","","2008","2008/07/02 00:00:00+00","184","1531","Natural","Natural","","2008/07/02 00:00:00+00","184","1800","0.3","B","48.4742","-118.6383","BIA","WA","","",""
"-118.216385666","48.225593898","280062","285504","W-578810","FED","DOI-WFMI","BIA","USWACOA","Colville Agency","WACOA","Colville Agency","120","","D9XU","BOURGEAU LAKE","","","","","","2008","2008/07/02 00:00:00+00","184","1620","Natural","Natural","","2008/07/02 00:00:00+00","184","2000","0.3","B","48.2256","-118.2164","BIA","WA","","",""
"-118.181085666","48.248893893","280063","285505","W-578812","FED","DOI-WFMI","BIA","USWACOA","Colville Agency","WACOA","Colville Agency","121","","D9XV","LOVERS LANE FIRE","","","","","","2008","2008/07/02 00:00:00+00","184","1725","Natural","Natural","","2008/07/03 00:00:00+00","185","2000","7","B","48.2489","-118.1811","BIA","WA","","",""
"-118.182185668","48.241393894","280064","285506","W-578813","FED","DOI-WFMI","BIA","USWACOA","Colville Agency","WACOA","Colville Agency","122","","D9X4","RATTLESNAKE MOUNTAIN","","","","","","2008","2008/07/02 00:00:00+00","184","1745","Natural","Natural","","2008/07/02 00:00:00+00","184","2142","1.9","B","48.2414","-118.1822","BIA","WA","","",""
"-118.61808557","48.318293936","280065","285507","W-578816","FED","DOI-WFMI","BIA","USWACOA","Colville Agency","WACOA","Colville Agency","123","","D918","30 MILE FIRE","","","","","","2008","2008/07/02 00:00:00+00","184","1823","Natural","Natural","","2008/07/02 00:00:00+00","184","2211","0.3","B","48.3183","-118.6181","BIA","WA","","",""
"-118.472785641","48.131693932","280066","285508","W-578940","FED","DOI-WFMI","BIA","USWACOA","Colville Agency","WACOA","Colville Agency","124","","D9XW","WILMONT","","","","","","2008","2008/07/03 00:00:00+00","185","1259","Natural","Natural","","2008/07/03 00:00:00+00","185","1902","0.3","B","48.1317","-118.4728","BIA","WA","","",""
"-119.458885391","48.429394021","280067","285509","W-578942","FED","DOI-WFMI","BIA","USWACOA","Colville Agency","WACOA","Colville Agency","126","","D9XX","LONE PINE 1130","","","","","","2008","2008/07/03 00:00:00+00","185","1601","Human","Fireworks","Minor","2008/07/03 00:00:00+00","185","1937","0.3","B","48.4294","-119.4589","BIA","WA","","",""
"-118.638285541","48.418093932","280068","285510","W-578944","FED","DOI-WFMI","BIA","USWACOA","Colville Agency","WACOA","Colville Agency","127","","D9XY","13 MILE BLOCK 141","","","","","","2008","2008/07/03 00:00:00+00","185","1620","Natural","Natural","","2008/07/03 00:00:00+00","185","2019","0.3","B","48.4181","-118.6383","BIA","WA","","",""
"-119.081685463","48.411893981","280069","285511","W-578945","FED","DOI-WFMI","BIA","USWACOA","Colville Agency","WACOA","Colville Agency","128","","D9XZ","MOSES MEADOWS","","","","","","2008","2008/07/03 00:00:00+00","185","1843","Natural","Natural","","2008/07/03 00:00:00+00","185","2030","0.1","A","48.4119","-119.0817","BIA","WA","","",""
"-119.00328547","48.440293971","280070","285512","W-580497","FED","DOI-WFMI","BIA","USWACOA","Colville Agency","WACOA","Colville Agency","129","","D9X0","LOONEY CREEK","","","","","","2008","2008/07/03 00:00:00+00","185","1958","Natural","Natural","","2008/07/03 00:00:00+00","185","2300","0.3","B","48.4403","-119.0033","BIA","WA","","",""
"-119.266885485","48.184394015","280071","285513","W-578946","FED","DOI-WFMI","BIA","USWACOA","Colville Agency","WACOA","Colville Agency","130","","D9X1","WHITMORE # 1","","","","","","2008","2008/07/04 00:00:00+00","186","0617","Natural","Natural","","2008/07/04 00:00:00+00","186","1930","0.3","B","48.1844","-119.2669","BIA","WA","","",""
"-119.282785479","48.200594016","280072","285514","W-578949","FED","DOI-WFMI","BIA","USWACOA","Colville Agency","WACOA","Colville Agency","132","","EAD1","WHITMORE # 2","","","","","","2008","2008/07/04 00:00:00+00","186","0617","Natural","Natural","","2008/07/04 00:00:00+00","186","1813","0.3","B","48.2006","-119.2828","BIA","WA","","",""
"-119.256085486","48.191394014","280073","285515","W-579017","FED","DOI-WFMI","BIA","USWACOA","Colville Agency","WACOA","Colville Agency","134","","D9X3","WHITMORE # 3","","","","","","2008","2008/07/04 00:00:00+00","186","0821","Natural","Natural","","2008/07/04 00:00:00+00","186","1333","0.3","B","48.1914","-119.2561","BIA","WA","","",""
"-119.605785463","48.030794061","280074","285516","W-579018","FED","DOI-WFMI","BIA","USWACOA","Colville Agency","WACOA","Colville Agency","135","","EAD4","MITCHELL ORCHARD","","","","","","2008","2008/07/04 00:00:00+00","186","1152","Human","Debris and open burning","","2008/07/04 00:00:00+00","186","1428","0.1","A","48.0308","-119.6058","BIA","WA","","",""
"-119.284385463","48.262194012","280075","285517","W-580456","FED","DOI-WFMI","BIA","USWACOA","Colville Agency","WACOA","Colville Agency","145","","EAD6","DOUBLE SHOT EAST","","","","","","2008","2008/07/04 00:00:00+00","186","1400","Natural","Natural","","2008/07/04 00:00:00+00","186","1800","1.2","B","48.2622","-119.2844","BIA","WA","","",""
"-119.236085473","48.256894007","280076","285518","W-580457","FED","DOI-WFMI","BIA","USWACOA","Colville Agency","WACOA","Colville Agency","146","","EAD7","DOUBLE SHOT WEST","","","","","","2008","2008/07/04 00:00:00+00","186","1400","Natural","Natural","","2008/07/04 00:00:00+00","186","1900","2","B","48.2569","-119.2361","BIA","WA","","",""
"-118.917185538","48.224993975","280077","285519","W-580442","FED","DOI-WFMI","BIA","USWACOA","Colville Agency","WACOA","Colville Agency","136","","EAF7","JOHNSON LAKE","","","","","","2008","2008/07/04 00:00:00+00","186","1455","Natural","Natural","","2008/07/04 00:00:00+00","186","2000","2.7","B","48.225","-118.9172","BIA","WA","","",""
"-119.387785489","48.083094035","280078","285520","W-580499","FED","DOI-WFMI","BIA","USWACOA","Colville Agency","WACOA","Colville Agency","139","","D90K","STUBBLEFIELD POINT","2008_WA-COA-139_STUBBLEFIELD POINT","","WA4807811937320080704","STUBBLEFIELD POINT","","2008","2008/07/04 00:00:00+00","186","1714","Natural","Natural","","2008/07/08 00:00:00+00","190","2000","2209","F","48.0831","-119.3878","BIA","WA","","",""
"-118.788285535","48.332493954","280079","285521","W-579170","FED","DOI-WFMI","BIA","USWACOA","Colville Agency","WACOA","Colville Agency","138","","EAD5","NORTH NANAMKIN","","","","","","2008","2008/07/04 00:00:00+00","186","1719","Natural","Natural","","2008/07/05 00:00:00+00","187","1635","0.1","A","48.3325","-118.7883","BIA","WA","","",""
"-118.791385534","48.334393954","280080","285522","W-579173","FED","DOI-WFMI","BIA","USWACOA","Colville Agency","WACOA","Colville Agency","141","","EAF8","NORTH NANAMKIN 2","","","","","","2008","2008/07/04 00:00:00+00","186","2033","Natural","Natural","","2008/07/05 00:00:00+00","187","1700","0.1","A","48.3344","-118.7914","BIA","WA","","",""
"-118.979385541","48.167193985","280081","285523","W-579177","FED","DOI-WFMI","BIA","USWACOA","Colville Agency","WACOA","Colville Agency","142","","EA4L","NESPELEM BALLFIELD","","","","","","2008","2008/07/04 00:00:00+00","186","2213","Human","Fireworks","Minor","2008/07/04 00:00:00+00","186","2330","0.1","A","48.1672","-118.9794","BIA","WA","","",""
"-119.346385457","48.24469402","280082","285524","W-580293","FED","DOI-WFMI","BIA","USWACOA","Colville Agency","WACOA","Colville Agency","143","","EA4M","BAINES BEACH","","","","","","2008","2008/07/04 00:00:00+00","186","2359","Human","Fireworks","Minor","2008/07/05 00:00:00+00","187","0035","0.1","A","48.2447","-119.3464","BIA","WA","","",""
"-118.97578555","48.133893987","280083","285525","W-579180","FED","DOI-WFMI","BIA","USWACOA","Colville Agency","WACOA","Colville Agency","144","","EA4N","AGENCY BALLFIELD","","","","","","2008","2008/07/05 00:00:00+00","187","0014","Human","Fireworks","Minor","2008/07/05 00:00:00+00","187","0100","0.1","A","48.1339","-118.9758","BIA","WA","","",""
"-118.535585677","47.934193952","280084","285526","W-579184","FED","DOI-WFMI","BIA","USWACOA","Colville Agency","WACOA","Colville Agency","147","","EAD8","GOAT RANCH","","","","","","2008","2008/07/05 00:00:00+00","187","1145","Natural","Natural","","2008/07/05 00:00:00+00","187","2131","5.7","B","47.9342","-118.5356","BIA","WA","","",""
"-118.921685477","48.46939396","280085","285527","W-579197","FED","DOI-WFMI","BIA","USWACOA","Colville Agency","WACOA","Colville Agency","148","","D99M","ROARING RIDGE","","","","","","2008","2008/07/05 00:00:00+00","187","1147","Natural","Natural","","2008/07/09 00:00:00+00","191","0950","9.3","B","48.4694","-118.9217","BIA","WA","","",""
"-118.827485512","48.396393954","280086","285528","W-579211","FED","DOI-WFMI","BIA","USWACOA","Colville Agency","WACOA","Colville Agency","149","","EAD9","BUNGALOW","","","","","","2008","2008/07/05 00:00:00+00","187","1233","Natural","Natural","","2008/07/05 00:00:00+00","187","2259","0.1","A","48.3964","-118.8275","BIA","WA","","",""
"-118.805285527","48.353093954","280087","285529","W-580443","FED","DOI-WFMI","BIA","USWACOA","Colville Agency","WACOA","Colville Agency","150","","EAE4","BEAR CREEK","","","","","","2008","2008/07/05 00:00:00+00","187","1357","Natural","Natural","","2008/07/05 00:00:00+00","187","1800","0.1","A","48.3531","-118.8053","BIA","WA","","",""
"-119.091685501","48.249193992","280088","285530","W-579216","FED","DOI-WFMI","BIA","USWACOA","Colville Agency","WACOA","Colville Agency","153","","EAE1","ARMSTRONG MOUNTAIN","","","","","","2008","2008/07/05 00:00:00+00","187","1500","Natural","Natural","","2008/07/05 00:00:00+00","187","1900","0.1","A","48.2492","-119.0917","BIA","WA","","",""
"-118.322785688","48.050593921","280089","285531","W-579215","FED","DOI-WFMI","BIA","USWACOA","Colville Agency","WACOA","Colville Agency","152","","EAE0","WILMONT","","","","","","2008","2008/07/05 00:00:00+00","187","1556","Natural","Natural","","2008/07/05 00:00:00+00","187","2217","0.3","B","48.0506","-118.3228","BIA","WA","","",""
"-119.248885423","48.451093997","280090","285532","W-579743","FED","DOI-WFMI","BIA","USWACOA","Colville Agency","WACOA","Colville Agency","154","","EAA5","CRAWFISH LAKE","","","","","","2008","2008/07/05 00:00:00+00","187","1707","Natural","Natural","","2008/07/07 00:00:00+00","189","0955","0.1","A","48.4511","-119.2489","BIA","WA","","",""
"-118.395785602","48.35139391","280091","285533","W-580444","FED","DOI-WFMI","BIA","USWACOA","Colville Agency","WACOA","Colville Agency","155","","EA1L","CARSON MOUNTAIN","","","","","","2008","2008/07/06 00:00:00+00","188","1652","Natural","Natural","","2008/07/13 00:00:00+00","195","1754","0.7","B","48.3514","-118.3958","BIA","WA","","",""
"-119.24498549","48.182194013","280092","285534","W-579217","FED","DOI-WFMI","BIA","USWACOA","Colville Agency","WACOA","Colville Agency","156","","EA4P","WHITMORE # 4","","","","","","2008","2008/07/06 00:00:00+00","188","1806","Natural","Natural","","2008/07/06 00:00:00+00","188","2117","0.1","A","48.1822","-119.245","BIA","WA","","",""
"-118.490585663","48.027793941","280093","285535","W-580445","FED","DOI-WFMI","BIA","USWACOA","Colville Agency","WACOA","Colville Agency","158","","EA1M","WHITESTONE","","","","","","2008","2008/07/07 00:00:00+00","189","1638","Natural","Natural","","2008/07/08 00:00:00+00","190","1500","0.1","A","48.0278","-118.4906","BIA","WA","","",""
"-118.72328552","48.44309394","280094","285536","W-579247","FED","DOI-WFMI","BIA","USWACOA","Colville Agency","WACOA","Colville Agency","159","","EA1K","13 MILE CLIFF","","","","","","2008","2008/07/07 00:00:00+00","189","1703","Natural","Natural","","2008/07/07 00:00:00+00","189","2355","1.6","B","48.4431","-118.7233","BIA","WA","","",""
"-118.914385481","48.45859396","280095","285537","W-579249","FED","DOI-WFMI","BIA","USWACOA","Colville Agency","WACOA","Colville Agency","161","","EA7V","ROARING CREEK SOUTH","","","","","","2008","2008/07/09 00:00:00+00","191","1314","Natural","Natural","","2008/07/10 00:00:00+00","192","1930","0.1","A","48.4586","-118.9144","BIA","WA","","",""
"-119.27058544","48.366894005","280096","285538","W-580500","FED","DOI-WFMI","BIA","USWACOA","Colville Agency","WACOA","Colville Agency","163","","EBN6","CACTUS JACK","","","","","","2008","2008/07/10 00:00:00+00","192","1623","Human","Power generation/transmission/distribution","","2008/07/10 00:00:00+00","192","1930","0.6","B","48.3669","-119.2706","BIA","WA","","",""
"-118.306885632","48.293593904","280097","285539","W-579251","FED","DOI-WFMI","BIA","USWACOA","Colville Agency","WACOA","Colville Agency","164","","EBA8","ROUND LAKE","","","","","","2008","2008/07/10 00:00:00+00","192","1653","Natural","Natural","","2008/07/12 00:00:00+00","194","1900","5.8","B","48.2936","-118.3069","BIA","WA","","",""
"-119.42308542","48.339394023","280098","285540","W-580501","FED","DOI-WFMI","BIA","USWACOA","Colville Agency","WACOA","Colville Agency","165","","EA96","HWY 155 MM 73","2008_WA-COA-165_FRENCH VALLEY","","WA4835611937820080710","HWY 155 MM 73","","2008","2008/07/10 00:00:00+00","192","1703","Human","Power generation/transmission/distribution","","2008/07/15 00:00:00+00","197","1800","1420","F","48.3394","-119.4231","BIA","WA","","",""
"-118.294685612","48.387193897","280099","285541","W-579252","FED","DOI-WFMI","BIA","USWACOA","Colville Agency","WACOA","Colville Agency","166","","EA97","ABRAHAM CANYON","2008_WA-COA-000166_ABRAHAM CANYON","2008_WA-COA-000166_ABRAHAM CANYON","","","INCHELIUM COMPLEX","2008","2008/07/10 00:00:00+00","192","1706","Human","Power generation/transmission/distribution","","2008/07/25 00:00:00+00","207","1800","372","E","48.3872","-118.2947","BIA","WA","","",""
"-118.357785622","48.296393909","280100","285542","W-579254","FED","DOI-WFMI","BIA","USWACOA","Colville Agency","WACOA","Colville Agency","168","","EBN7","TWIN LAKES TAVERN","","","","","","2008","2008/07/10 00:00:00+00","192","1715","Human","Power generation/transmission/distribution","","2008/07/10 00:00:00+00","192","2100","0.3","B","48.2964","-118.3578","BIA","WA","","",""
"-118.374385624","48.279393912","280101","285543","W-579446","FED","DOI-WFMI","BIA","USWACOA","Colville Agency","WACOA","Colville Agency","170","","EB4N","TWIN LAKES ROAD","","","","","","2008","2008/07/10 00:00:00+00","192","1803","Human","Power generation/transmission/distribution","","2008/07/10 00:00:00+00","192","2227","0.1","A","48.2794","-118.3744","BIA","WA","","",""
"-118.210585657","48.263893895","280102","285544","W-579449","FED","DOI-WFMI","BIA","USWACOA","Colville Agency","WACOA","Colville Agency","173","","EBY7","BUTLER FLATS","","","","","","2008","2008/07/10 00:00:00+00","192","1914","Human","Power generation/transmission/distribution","","2008/07/11 00:00:00+00","193","2100","44.2","C","48.2639","-118.2106","BIA","WA","","",""
"-118.748285529","48.386393946","280103","285545","W-579451","FED","DOI-WFMI","BIA","USWACOA","Colville Agency","WACOA","Colville Agency","175","","EBN8","ANDERSON CREEK","","","","","","2008","2008/07/10 00:00:00+00","192","2216","Human","Power generation/transmission/distribution","","2008/07/11 00:00:00+00","193","0850","1","B","48.3864","-118.7483","BIA","WA","","",""
"-118.763285523","48.399693947","280104","285546","W-579454","FED","DOI-WFMI","BIA","USWACOA","Colville Agency","WACOA","Colville Agency","177","","EBN9","19 MILE","","","","","","2008","2008/07/12 00:00:00+00","194","1121","Natural","Natural","","2008/07/12 00:00:00+00","194","1954","4.3","B","48.3997","-118.7633","BIA","WA","","",""
"-118.32358568","48.083093919","280105","285547","W-579457","FED","DOI-WFMI","BIA","USWACOA","Colville Agency","WACOA","Colville Agency","180","","EBX7","WILMONT # 3","2008_WA-COA-180_WILMONT","2008_WA-COA-180_WILMONT","","","INCHELIUM COMPLEX","2008","2008/07/13 00:00:00+00","195","1823","Natural","Natural","","2008/07/18 00:00:00+00","200","1800","154","D","48.0831","-118.3236","BIA","WA","","",""
"-118.970785551","48.134693986","280106","285548","W-580502","FED","DOI-WFMI","BIA","USWACOA","Colville Agency","WACOA","Colville Agency","182","","EB4P","AGENCY","","","","","","2008","2008/07/15 00:00:00+00","197","1144","Human","Smoking","","2008/07/15 00:00:00+00","197","1400","2.1","B","48.1347","-118.9708","BIA","WA","","",""
"-118.249385638","48.315593896","280107","285549","W-579461","FED","DOI-WFMI","BIA","USWACOA","Colville Agency","WACOA","Colville Agency","183","","EB4Q","HOLFORD","","","","","","2008","2008/07/15 00:00:00+00","197","1434","Human","Equipment and vehicle use","","2008/07/15 00:00:00+00","197","1545","1.8","B","48.3156","-118.2494","BIA","WA","","",""
"-118.284185661","48.194393908","280108","285550","W-579744","FED","DOI-WFMI","BIA","USWACOA","Colville Agency","WACOA","Colville Agency","184","","EB5H","KEWA BOISE","","","","","","2008","2008/07/15 00:00:00+00","197","1658","Human","Debris and open burning","","2008/07/15 00:00:00+00","197","2009","0.1","A","48.1944","-118.2842","BIA","WA","","",""
"-119.22028545","48.362793999","280109","285551","W-580446","FED","DOI-WFMI","BIA","USWACOA","Colville Agency","WACOA","Colville Agency","187","","EC6C","LYMAN LAKE TURNOFF","","","","","","2008","2008/07/22 00:00:00+00","204","1502","Human","Arson/incendiarism","","2008/07/22 00:00:00+00","204","2100","2.1","B","48.3628","-119.2203","BIA","WA","","",""
"-118.21028566","48.252193896","280110","285552","W-580447","FED","DOI-WFMI","BIA","USWACOA","Colville Agency","WACOA","Colville Agency","191","","EDY0","BUTLER FLATS #2","","","","","","2008","2008/07/26 00:00:00+00","208","0802","Human","Other causes","","2008/07/26 00:00:00+00","208","1200","0.1","A","48.2522","-118.2103","BIA","WA","","",""
"-118.210285656","48.268893895","280111","285553","W-579637","FED","DOI-WFMI","BIA","USWACOA","Colville Agency","WACOA","Colville Agency","192","","EDY1","HIDDEN BEACH","","","","","","2008","2008/07/26 00:00:00+00","208","1015","Human","Recreation and ceremony","","2008/07/26 00:00:00+00","208","1120","0.1","A","48.2689","-118.2103","BIA","WA","","",""
"-119.489385393","48.398594027","280112","285554","W-580448","FED","DOI-WFMI","BIA","USWACOA","Colville Agency","WACOA","Colville Agency","198","","EE66","OMAK EAST","","","","","","2008","2008/08/05 00:00:00+00","218","1659","Human","Missing data/not specified/undetermined","","2008/08/05 00:00:00+00","218","2030","5","B","48.3986","-119.4894","BIA","WA","","",""
"-119.07688553","48.142193997","280113","285555","W-579697","FED","DOI-WFMI","BIA","USWACOA","Colville Agency","WACOA","Colville Agency","200","","EFC2","RIVER ROAD # 1","","","","","","2008","2008/08/07 00:00:00+00","220","0055","Human","Arson/incendiarism","","2008/08/07 00:00:00+00","220","1930","20","C","48.1422","-119.0769","BIA","WA","","",""
"-119.47418541","48.339994028","280114","285556","W-579698","FED","DOI-WFMI","BIA","USWACOA","Colville Agency","WACOA","Colville Agency","201","","EFN0","ANTOINE PASS","","","","","","2008","2008/08/07 00:00:00+00","220","0134","Human","Arson/incendiarism","","2008/08/07 00:00:00+00","220","1200","3.5","B","48.34","-119.4742","BIA","WA","","",""
"-119.11938552","48.150794001","280115","285557","W-579699","FED","DOI-WFMI","BIA","USWACOA","Colville Agency","WACOA","Colville Agency","202","","EFN1","LOWER COYOTE CREEK","","","","","","2008","2008/08/07 00:00:00+00","220","0135","Human","Arson/incendiarism","","2008/08/08 00:00:00+00","221","1900","21","C","48.1508","-119.1194","BIA","WA","","",""
"-119.216885508","48.127194013","280116","285558","W-579700","FED","DOI-WFMI","BIA","USWACOA","Colville Agency","WACOA","Colville Agency","203","","EFN2","WHITMORE # 5","","","","","","2008","2008/08/07 00:00:00+00","220","0135","Human","Arson/incendiarism","","2008/08/08 00:00:00+00","221","1900","21","C","48.1272","-119.2169","BIA","WA","","",""
"-119.152485471","48.324693994","280117","285559","W-580505","FED","DOI-WFMI","BIA","USWACOA","Colville Agency","WACOA","Colville Agency","204","","EFN3","OMAK LOOKOUT ROAD","","","","","","2008","2008/08/07 00:00:00+00","220","0139","Human","Arson/incendiarism","","2008/08/07 00:00:00+00","220","0400","0.1","A","48.3247","-119.1525","BIA","WA","","",""
"-119.171885514","48.138594008","280118","285560","W-583177","FED","DOI-WFMI","BIA","USWACOA","Colville Agency","WACOA","Colville Agency","205","","EFC0","COLUMBIA RIVER ROAD","2008_WA-COA-205_COLUMBIA RIVER ROAD","","WA4819811919920080807","COLUMBIA RIVER ROAD","","2008","2008/08/07 00:00:00+00","220","0310","Human","Arson/incendiarism","","2008/08/21 00:00:00+00","234","1800","22155","G","48.1386","-119.1719","BIA","WA","","",""
"-118.217785644","48.312493893","280119","285561","W-580024","FED","DOI-WFMI","BIA","USWACOA","Colville Agency","WACOA","Colville Agency","206","","EF0Y","WATER TANK","","","","","","2008","2008/08/08 00:00:00+00","221","1250","Natural","Natural","","2008/08/08 00:00:00+00","221","1419","0.1","A","48.3125","-118.2178","BIA","WA","","",""
"-118.676085573","48.261093946","280120","285562","W-580449","FED","DOI-WFMI","BIA","USWACOA","Colville Agency","WACOA","Colville Agency","208","","EF0W","LOWER 30 MILE","","","","","","2008","2008/08/08 00:00:00+00","221","1559","Natural","Natural","","2008/08/08 00:00:00+00","221","1650","1","B","48.2611","-118.6761","BIA","WA","","",""
"-118.478885685","47.944393945","280121","285563","W-579702","FED","DOI-WFMI","BIA","USWACOA","Colville Agency","WACOA","Colville Agency","209","","EF2U","SOUTH REDFORD CANYON","","","","","","2008","2008/08/08 00:00:00+00","221","2148","Natural","Natural","","2008/08/09 00:00:00+00","222","1900","1","B","47.9444","-118.4789","BIA","WA","","",""
"-118.432785678","48.011393935","280122","285564","W-580450","FED","DOI-WFMI","BIA","USWACOA","Colville Agency","WACOA","Colville Agency","210","","EF2V","CANTEEN CREEK","","","","","","2008","2008/08/09 00:00:00+00","222","0129","Natural","Natural","","2008/08/09 00:00:00+00","222","1330","0.1","A","48.0114","-118.4328","BIA","WA","","",""
"-118.498085573","48.391893918","280123","285565","W-579745","FED","DOI-WFMI","BIA","USWACOA","Colville Agency","WACOA","Colville Agency","211","","EF45","SOUTH GRIZZLY MOUNTA","","","","","","2008","2008/08/09 00:00:00+00","222","1322","Natural","Natural","","2008/08/10 00:00:00+00","223","1800","1","B","48.3919","-118.4981","BIA","WA","","",""
"-119.665785391","48.282794053","280124","285566","W-580503","FED","DOI-WFMI","BIA","USWACOA","Colville Agency","WACOA","Colville Agency","212","","EF4R","SOAP LAKE MOUNTAIN","","","","","","2008","2008/08/09 00:00:00+00","222","1505","Natural","Natural","","2008/08/10 00:00:00+00","223","1800","211","D","48.2828","-119.6658","BIA","WA","","",""
"-119.478585408","48.346694029","280125","285567","W-580451","FED","DOI-WFMI","BIA","USWACOA","Colville Agency","WACOA","Colville Agency","213","","EF43","ANTOINE PASS RIDGE","","","","","","2008","2008/08/09 00:00:00+00","222","1525","Natural","Natural","","2008/08/10 00:00:00+00","223","1045","7","B","48.3467","-119.4786","BIA","WA","","",""
"-119.41028539","48.469194014","280126","285568","W-579705","FED","DOI-WFMI","BIA","USWACOA","Colville Agency","WACOA","Colville Agency","216","","EF44","POT HOLES","","","","","","2008","2008/08/09 00:00:00+00","222","1558","Natural","Natural","","2008/08/11 00:00:00+00","224","1800","4.5","B","48.4692","-119.4103","BIA","WA","","",""
"-118.482185601","48.292493923","280127","285569","W-580452","FED","DOI-WFMI","BIA","USWACOA","Colville Agency","WACOA","Colville Agency","217","","EF60","BEAVER DAM","","","","","","2008","2008/08/09 00:00:00+00","222","1745","Natural","Natural","","2008/08/09 00:00:00+00","222","1900","0.1","A","48.2925","-118.4822","BIA","WA","","",""
"-118.72748551","48.480793938","280128","285570","W-579751","FED","DOI-WFMI","BIA","USWACOA","Colville Agency","WACOA","Colville Agency","223","","EGV4","13 MILE CAMPGROUND","","","","","","2008","2008/08/14 00:00:00+00","227","1204","Human","Missing data/not specified/undetermined","","2008/08/14 00:00:00+00","227","1226","0.1","A","48.4808","-118.7275","BIA","WA","","",""
"-118.42918568","48.004693936","280129","285571","W-580025","FED","DOI-WFMI","BIA","USWACOA","Colville Agency","WACOA","Colville Agency","224","","EG1K","CANTEEN SLOPOVER","","","","","","2008","2008/08/15 00:00:00+00","228","1315","Human","Debris and open burning","","2008/08/15 00:00:00+00","228","1800","0.1","A","48.0047","-118.4292","BIA","WA","","",""
"-119.024685536","48.153093991","280130","285572","W-579758","FED","DOI-WFMI","BIA","USWACOA","Colville Agency","WACOA","Colville Agency","233","","EH0K","CATTLEGUARD","","","","","","2008","2008/08/16 00:00:00+00","229","1011","Human","Missing data/not specified/undetermined","","2008/08/16 00:00:00+00","229","1011","0.1","A","48.1531","-119.0247","BIA","WA","","",""
"-118.664385617","48.089693956","280131","285573","W-581776","FED","DOI-WFMI","BIA","USWACOA","Colville Agency","WACOA","Colville Agency","226","","EG63","ALICE CREEK","","","","","","2008","2008/08/18 00:00:00+00","231","0644","Human","Missing data/not specified/undetermined","","2008/08/18 00:00:00+00","231","1600","6.7","B","48.0897","-118.6644","BIA","WA","","",""
"-119.459985392","48.424994022","280132","285574","W-580453","FED","DOI-WFMI","BIA","USWACOA","Colville Agency","WACOA","Colville Agency","234","","EH1Q","HOMESTEAD TRAILER CO","","","","","","2008","2008/08/23 00:00:00+00","236","1344","Human","Equipment and vehicle use","","2008/08/23 00:00:00+00","236","1600","0.1","A","48.425","-119.46","BIA","WA","","",""
"-118.817785564","48.191393966","280133","285575","W-579759","FED","DOI-WFMI","BIA","USWACOA","Colville Agency","WACOA","Colville Agency","235","","EH2K","SHILOH ROAD","","","","","","2008","2008/08/24 00:00:00+00","237","1347","Human","Arson/incendiarism","","2008/08/24 00:00:00+00","237","1503","0.1","A","48.1914","-118.8178","BIA","WA","","",""
"-118.977485541","48.168093985","280134","285576","W-580454","FED","DOI-WFMI","BIA","USWACOA","Colville Agency","WACOA","Colville Agency","237","","EH7V","NANAMKIN","","","","","","2008","2008/08/26 00:00:00+00","239","1215","Human","Misuse of fire by a minor","Minor","2008/08/26 00:00:00+00","239","1215","0.1","A","48.1681","-118.9775","BIA","WA","","",""
"-119.622785392","48.306094047","280135","285577","W-580455","FED","DOI-WFMI","BIA","USWACOA","Colville Agency","WACOA","Colville Agency","239","","EJR2","MILE MARKER 283 ON H","","","","","","2008","2008/08/30 00:00:00+00","243","1032","Human","Debris and open burning","","2008/08/30 00:00:00+00","243","1600","4.4","B","48.3061","-119.6228","BIA","WA","","",""
"-119.490585392","48.403594026","280136","285578","W-580506","FED","DOI-WFMI","BIA","USWACOA","Colville Agency","WACOA","Colville Agency","242","","EJ1L","HWY 280.89","","","","","","2008","2008/09/01 00:00:00+00","245","1519","Human","Recreation and ceremony","","2008/09/01 00:00:00+00","245","1745","0.1","A","48.4036","-119.4906","BIA","WA","","",""
"-118.151385666","48.273593888","280137","285579","W-579771","FED","DOI-WFMI","BIA","USWACOA","Colville Agency","WACOA","Colville Agency","247","","EKJ3","AA CAMPFIRE # 1","","","","","","2008","2008/09/10 00:00:00+00","254","1522","Human","Recreation and ceremony","","2008/09/10 00:00:00+00","254","1737","0.1","A","48.2736","-118.1514","BIA","WA","","",""
"-118.318085635","48.273593906","280138","285580","W-579772","FED","DOI-WFMI","BIA","USWACOA","Colville Agency","WACOA","Colville Agency","248","","EKU2","AA CAMPFIRE # 2","","","","","","2008","2008/09/11 00:00:00+00","255","1434","Human","Recreation and ceremony","","2008/09/11 00:00:00+00","255","1640","0.1","A","48.2736","-118.3181","BIA","WA","","",""
"-118.153285665","48.276393888","280139","285581","W-580030","FED","DOI-WFMI","BIA","USWACOA","Colville Agency","WACOA","Colville Agency","249","","EKX8","BOAT LAUNCH # 1","","","","","","2008","2008/09/12 00:00:00+00","256","1302","Human","Recreation and ceremony","","2008/09/12 00:00:00+00","256","1428","0.1","A","48.2764","-118.1533","BIA","WA","","",""
"-118.153285665","48.276393888","280140","285582","W-579773","FED","DOI-WFMI","BIA","USWACOA","Colville Agency","WACOA","Colville Agency","250","","EK00","BOAT LAUNCH # 2","","","","","","2008","2008/09/14 00:00:00+00","258","0947","Human","Recreation and ceremony","","2008/09/14 00:00:00+00","258","1113","0.1","A","48.2764","-118.1533","BIA","WA","","",""
"-118.318085635","48.273593906","280141","285583","W-579774","FED","DOI-WFMI","BIA","USWACOA","Colville Agency","WACOA","Colville Agency","252","","EK85","AA CAMPFIRE # 3","","","","","","2008","2008/09/16 00:00:00+00","260","0919","Human","Recreation and ceremony","","2008/09/16 00:00:00+00","260","1149","0.1","A","48.2736","-118.3181","BIA","WA","","",""
"-118.269685692","48.074193914","280142","285584","W-583375","FED","DOI-WFMI","BIA","USWACOA","Colville Agency","WACOA","Colville Agency","258","","EMR8","ROGERS BAR ROAD","","","","","","2008","2008/10/03 00:00:00+00","277","1444","Human","Missing data/not specified/undetermined","","2008/10/04 00:00:00+00","278","1653","0.5","B","48.0742","-118.2697","BIA","WA","","",""
"-118.264385688","48.097493912","280143","285585","W-583376","FED","DOI-WFMI","BIA","USWACOA","Colville Agency","WACOA","Colville Agency","259","","EMR9","SILVER CREEK MARKER","","","","","","2008","2008/10/03 00:00:00+00","277","1515","Human","Missing data/not specified/undetermined","","2008/10/04 00:00:00+00","278","1653","0.1","A","48.0975","-118.2644","BIA","WA","","",""
"-118.365785678","48.061393925","280144","285586","W-582807","FED","DOI-WFMI","BIA","USWACOA","Colville Agency","WACOA","Colville Agency","260","","EM0J","GORDAN FIRE","","","","","","2008","2008/10/05 00:00:00+00","279","1356","Human","Debris and open burning","","2008/10/05 00:00:00+00","279","1654","0.2","A","48.0614","-118.3658","PRIVATE","WA","","",""
"-118.946685574","48.054193988","280145","285587","W-583185","FED","DOI-WFMI","BIA","USWACOA","Colville Agency","WACOA","Colville Agency","261","","EM1S","REBECCA LAKE #2","","","","","","2008","2008/10/08 00:00:00+00","282","1311","Human","Power generation/transmission/distribution","","2008/10/08 00:00:00+00","282","1440","0.1","A","48.0542","-118.9467","BIA","WA","","",""
"-119.456385391","48.430594021","280146","285588","W-583186","FED","DOI-WFMI","BIA","USWACOA","Colville Agency","WACOA","Colville Agency","262","","EM5V","SECOND HUD","","","","","","2008","2008/10/10 00:00:00+00","284","1223","Human","Missing data/not specified/undetermined","","2008/10/10 00:00:00+00","284","1411","2","B","48.4306","-119.4564","BIA","WA","","",""
"-118.25828563","48.341393896","280147","285589","W-583372","FED","DOI-WFMI","BIA","USWACOA","Colville Agency","WACOA","Colville Agency","263","","EM5W","MELVIN KHEEL RESIDEN","","","","","","2008","2008/10/10 00:00:00+00","284","1744","Human","Debris and open burning","","2008/10/10 00:00:00+00","284","1900","1","B","48.3414","-118.2583","BIA","WA","","",""
"-118.969185542","48.171393984","280148","285590","W-583373","FED","DOI-WFMI","BIA","USWACOA","Colville Agency","WACOA","Colville Agency","264","","EM5X","OLD HUD HILL","","","","","","2008","2008/10/12 00:00:00+00","286","1658","Human","Fireworks","","2008/10/12 00:00:00+00","286","1730","0.1","A","48.1714","-118.9692","BIA","WA","","",""
"-118.30218569","48.060793918","280149","285591","W-582848","FED","DOI-WFMI","BIA","USWACOA","Colville Agency","WACOA","Colville Agency","265","","EM60","CAMP WILMONT","2008_WA-COA-265_CAMP WILMONT","","","","","2008","2008/10/14 00:00:00+00","288","1136","Human","Arson/incendiarism","","2008/10/18 00:00:00+00","292","1800","480","E","48.0608","-118.3022","BIA","WA","","",""
"-118.167485659","48.289193889","280150","285592","W-583187","FED","DOI-WFMI","BIA","USWACOA","Colville Agency","WACOA","Colville Agency","268","","ENA9","SEWAGE FIRE","","","","","","2008","2008/10/20 00:00:00+00","294","0801","Human","Debris and open burning","","2008/10/20 00:00:00+00","294","1800","4","B","48.2892","-118.1675","PRIVATE","WA","","",""
"-118.240785677","48.159693905","280151","285593","W-582811","FED","DOI-WFMI","BIA","USWACOA","Colville Agency","WACOA","Colville Agency","270","","EN3T","NEZ PERCE CREEK","","","","","","2008","2008/10/29 00:00:00+00","303","1654","Human","Missing data/not specified/undetermined","","2008/10/30 00:00:00+00","304","0900","3.9","B","48.1597","-118.2408","BIA","WA","","",""
"-118.701385627","48.017193964","280152","285594","W-582808","FED","DOI-WFMI","BIA","USWACOA","Colville Agency","WACOA","Colville Agency","271","","EN3U","TOLMAN FLATS","","","","","","2008","2008/10/30 00:00:00+00","304","0819","Human","Missing data/not specified/undetermined","","2008/10/30 00:00:00+00","304","1300","0.2","A","48.0172","-118.7014","PRIVATE","WA","","",""
"-118.994685545","48.137793988","280153","285595","W-583192","FED","DOI-WFMI","BIA","USWACOA","Colville Agency","WACOA","Colville Agency","274","","EP8X","DUMP ROAD FIRE","","","","","","2008","2008/11/18 00:00:00+00","323","0800","Human","Debris and open burning","","2008/11/18 00:00:00+00","323","0845","0.1","A","48.1378","-118.9947","BIA","WA","","",""
"-118.942095584","48.01549399","280154","285596","W-585864","FED","DOI-WFMI","BIA","USWACOA","Colville Agency","WACOA","Colville Agency","58","","ES69","THREE FIRES","","","","","","2009","2009/03/20 00:00:00+00","79","1407","Human","Arson/incendiarism","","2009/03/20 00:00:00+00","79","1550","0.2","A","48.0155","-118.94211","BIA","WA","","",""
"-118.981875567","48.058683992","280155","285597","W-585868","FED","DOI-WFMI","BIA","USWACOA","Colville Agency","WACOA","Colville Agency","59","","ES7B","NORTH BELVEDERE","","","","","","2009","2009/03/20 00:00:00+00","79","1419","Human","Missing data/not specified/undetermined","","2009/03/20 00:00:00+00","79","1614","0.1","A","48.05869","-118.98189","BIA","WA","","",""
"-119.706045402","48.207524062","280156","285598","W-585892","FED","DOI-WFMI","BIA","USWACOA","Colville Agency","WACOA","Colville Agency","60","","ETF3","MALOTT TRAIN TRESTLE","","","","","","2009","2009/03/21 00:00:00+00","80","1622","Human","Missing data/not specified/undetermined","","2009/03/21 00:00:00+00","80","2000","0.3","B","48.20753","-119.70606","BIA","WA","","",""
"-118.699125606","48.106393958","280157","285599","W-585915","FED","DOI-WFMI","BIA","USWACOA","Colville Agency","WACOA","Colville Agency","62","","ETR6","BARNEYS PARK","","","","","","2009","2009/03/26 00:00:00+00","85","1517","Human","Missing data/not specified/undetermined","","2009/03/26 00:00:00+00","85","1723","0.6","B","48.1064","-118.69914","BIA","WA","","",""
"-118.280735691","48.069823915","280158","285600","W-585917","FED","DOI-WFMI","BIA","USWACOA","Colville Agency","WACOA","Colville Agency","63","","ETR7","SILVER CREEK CHURCH","","","","","","2009","2009/03/27 00:00:00+00","86","1416","Human","Debris and open burning","","2009/03/27 00:00:00+00","86","2055","57.5","C","48.06983","-118.28075","BIA","WA","","",""
"-118.378585697","47.973593932","280159","285601","W-585918","FED","DOI-WFMI","BIA","USWACOA","Colville Agency","WACOA","Colville Agency","64","","ETR8","SIX MILE","","","","","","2009","2009/03/28 00:00:00+00","87","1030","Human","Missing data/not specified/undetermined","","2009/03/28 00:00:00+00","87","1245","0.1","A","47.9736","-118.3786","BIA","WA","","",""
"-118.648885629","48.049693956","280160","285602","W-585919","FED","DOI-WFMI","BIA","USWACOA","Colville Agency","WACOA","Colville Agency","65","","ETT3","MONAGHAN RANCH","","","","","","2009","2009/03/31 00:00:00+00","90","0911","Human","Missing data/not specified/undetermined","","2009/03/31 00:00:00+00","90","1008","3.2","B","48.0497","-118.6489","BIA","WA","","",""
"-118.252485669","48.182273905","280161","285603","W-585920","FED","DOI-WFMI","BIA","USWACOA","Colville Agency","WACOA","Colville Agency","67","","ET9K","KEWA FIRE","","","","","","2009","2009/04/10 00:00:00+00","100","1756","Human","Missing data/not specified/undetermined","","2009/04/10 00:00:00+00","100","1900","5","B","48.18228","-118.2525","BIA","WA","","",""
"-118.510585674","47.967493947","280162","285604","W-589861","FED","DOI-WFMI","BIA","USWACOA","Colville Agency","WACOA","Colville Agency","68","","EU2T","BRODY CREEK","","","","","","2009","2009/04/18 00:00:00+00","108","1400","Human","Arson/incendiarism","","2009/04/18 00:00:00+00","108","1440","0.3","B","47.9675","-118.5106","BIA","WA","","",""
"-118.279185607","48.417193893","280163","285605","W-589867","FED","DOI-WFMI","BIA","USWACOA","Colville Agency","WACOA","Colville Agency","69","","EU42","BRUSH MOUNTAIN","","","","","","2009","2009/04/22 00:00:00+00","112","0630","Human","Missing data/not specified/undetermined","","2009/04/22 00:00:00+00","112","0630","1","B","48.4172","-118.2792","BIA","WA","","",""
"-118.984095521","48.24707398","280164","285606","W-585947","FED","DOI-WFMI","BIA","USWACOA","Colville Agency","WACOA","Colville Agency","70","","EU8G","DON MCCLURE FIRE","","","","","","2009","2009/04/23 00:00:00+00","113","1517","Human","Debris and open burning","","2009/04/23 00:00:00+00","113","1916","7.3","B","48.24708","-118.98411","BIA","WA","","",""
"-119.305585438","48.351394009","280165","285607","W-585948","FED","DOI-WFMI","BIA","USWACOA","Colville Agency","WACOA","Colville Agency","71","","EV0C","DUTCH ANDERSON","","","","","","2009","2009/04/30 00:00:00+00","120","1324","Human","Debris and open burning","","2009/04/30 00:00:00+00","120","1640","0.1","A","48.3514","-119.3056","BIA","WA","","",""
"-118.265155627","48.347193896","280166","285608","W-589869","FED","DOI-WFMI","BIA","USWACOA","Colville Agency","WACOA","Colville Agency","72","","EV1J","LYNX CREEK","","","","","","2009","2009/05/12 00:00:00+00","132","1538","Human","Debris and open burning","","2009/05/12 00:00:00+00","132","1800","4.2","B","48.3472","-118.26517","BIA","WA","","",""
"-118.976735552","48.125073987","280167","285609","W-591394","FED","DOI-WFMI","BIA","USWACOA","Colville Agency","WACOA","Colville Agency","73","","EWL8","LITTLE NESPELEM","","","","","","2009","2009/05/13 00:00:00+00","133","1515","Human","Debris and open burning","","2009/05/13 00:00:00+00","133","1653","0.1","A","48.12508","-118.97675","BIA","WA","","",""
"-118.199985649","48.308093891","280168","285610","W-591397","FED","DOI-WFMI","BIA","USWACOA","Colville Agency","WACOA","Colville Agency","74","","EWW2","INCHELIUM DUMP","","","","","","2009","2009/05/16 00:00:00+00","136","1830","Human","Debris and open burning","","2009/05/16 00:00:00+00","136","2230","0.3","B","48.3081","-118.2","BIA","WA","","",""
"-118.202185671","48.215793897","280169","285611","W-591403","FED","DOI-WFMI","BIA","USWACOA","Colville Agency","WACOA","Colville Agency","75","","EW05","CURRY GRADE","","","","","","2009","2009/05/18 00:00:00+00","138","0642","Human","Debris and open burning","","2009/05/18 00:00:00+00","138","1555","0.3","B","48.2158","-118.2022","BIA","WA","","",""
"-118.851385601","48.01499398","280170","285612","W-591407","FED","DOI-WFMI","BIA","USWACOA","Colville Agency","WACOA","Colville Agency","76","","EW5E","RAT RANCH CAR","","","","","","2009","2009/05/20 00:00:00+00","140","2035","Human","Equipment and vehicle use","","2009/05/20 00:00:00+00","140","2120","0.1","A","48.015","-118.8514","BIA","WA","","",""
"-118.971885542","48.166893984","280171","285613","W-591409","FED","DOI-WFMI","BIA","USWACOA","Colville Agency","WACOA","Colville Agency","77","","EYC5","ELMER MCGINNIS","","","","","","2009","2009/06/03 00:00:00+00","154","0130","Human","Missing data/not specified/undetermined","","2009/06/03 00:00:00+00","154","0500","0.5","B","48.1669","-118.9719","BIA","WA","","",""
"-118.363285666","48.113593921","280172","285614","W-591415","FED","DOI-WFMI","BIA","USWACOA","Colville Agency","WACOA","Colville Agency","80","","EYQ3","WILMONT #1","","","","","","2009","2009/06/06 00:00:00+00","157","1348","Natural","Natural","","2009/06/08 00:00:00+00","159","1208","7.7","B","48.1136","-118.3633","BIA","WA","","",""
"-118.637485629","48.058893955","280173","285615","W-591420","FED","DOI-WFMI","BIA","USWACOA","Colville Agency","WACOA","Colville Agency","81","","EYQ4","SILVER CREEK RIDGE","","","","","","2009","2009/06/06 00:00:00+00","157","1457","Natural","Natural","","2009/06/06 00:00:00+00","157","1600","1","B","48.0589","-118.6375","BIA","WA","","",""
"-118.33828567","48.116393919","280174","285616","W-591422","FED","DOI-WFMI","BIA","USWACOA","Colville Agency","WACOA","Colville Agency","82","","EYQ5","WILMONT #2","","","","","","2009","2009/06/06 00:00:00+00","157","1703","Natural","Natural","","2009/06/08 00:00:00+00","159","1800","0.3","B","48.1164","-118.3383","BIA","WA","","",""
"-118.531125602","48.251093931","280175","285617","W-596870","FED","DOI-WFMI","BIA","USWACOA","Colville Agency","WACOA","Colville Agency","84","","EY12","BRIDGE CREEK","","","","","","2009","2009/06/10 00:00:00+00","161","1659","Human","Debris and open burning","","2009/06/11 00:00:00+00","162","1200","0.1","A","48.2511","-118.53114","BIA","WA","","",""
"-118.666085601","48.151693952","280176","285618","W-591435","FED","DOI-WFMI","BIA","USWACOA","Colville Agency","WACOA","Colville Agency","87","","EY5N","IRON CREEK #1","","","","","","2009","2009/06/13 00:00:00+00","164","1928","Natural","Natural","","2009/06/16 00:00:00+00","167","1800","1.5","B","48.1517","-118.6661","BIA","WA","","",""
"-118.967485538","48.188893982","280177","285619","W-591438","FED","DOI-WFMI","BIA","USWACOA","Colville Agency","WACOA","Colville Agency","88","","EY5V","GOLD LAKE ROAD #1","","","","","","2009","2009/06/14 00:00:00+00","165","1012","Human","Recreation and ceremony","","2009/06/14 00:00:00+00","165","1130","0.1","A","48.1889","-118.9675","BIA","WA","","",""
"-118.564985621","48.145213941","280178","285620","W-596871","FED","DOI-WFMI","BIA","USWACOA","Colville Agency","WACOA","Colville Agency","89","","EY6B","COOK CREEK FIRE","","","","","","2009","2009/06/14 00:00:00+00","165","1328","Natural","Natural","","2009/06/15 00:00:00+00","166","1745","0.1","A","48.14522","-118.565","BIA","WA","","",""
"-118.681385575","48.247193947","280179","285621","W-591439","FED","DOI-WFMI","BIA","USWACOA","Colville Agency","WACOA","Colville Agency","90","","EY6C","E SAN POIL ROAD 1","","","","","","2009","2009/06/14 00:00:00+00","165","1734","Natural","Natural","","2009/06/14 00:00:00+00","165","2115","0.1","A","48.2472","-118.6814","BIA","WA","","",""
"-118.262785646","48.269193901","280180","285622","W-591441","FED","DOI-WFMI","BIA","USWACOA","Colville Agency","WACOA","Colville Agency","91","","EY7V","STRANGER MOUNTAIN","","","","","","2009","2009/06/15 00:00:00+00","166","1315","Natural","Natural","","2009/06/15 00:00:00+00","166","1730","0.3","B","48.2692","-118.2628","BIA","WA","","",""
"-118.542485644","48.069693944","280181","285623","W-591442","FED","DOI-WFMI","BIA","USWACOA","Colville Agency","WACOA","Colville Agency","92","","EY7W","SCLOME MEADOWS","","","","","","2009","2009/06/15 00:00:00+00","166","1341","Natural","Natural","","2009/06/16 00:00:00+00","167","1340","0.1","A","48.0697","-118.5425","BIA","WA","","",""
"-119.127785471","48.34389399","280182","285624","W-591443","FED","DOI-WFMI","BIA","USWACOA","Colville Agency","WACOA","Colville Agency","94","","EY8R","TRAIL CREEK","","","","","","2009","2009/06/16 00:00:00+00","167","1320","Natural","Natural","","2009/06/18 00:00:00+00","169","1153","8.5","B","48.3439","-119.1278","BIA","WA","","",""
"-119.18778547","48.305793999","280183","285625","W-591490","FED","DOI-WFMI","BIA","USWACOA","Colville Agency","WACOA","Colville Agency","95","","EY8S","CAMP PROGRESS 1","","","","","","2009","2009/06/16 00:00:00+00","167","1340","Natural","Natural","","2009/06/18 00:00:00+00","169","1200","3.1","B","48.3058","-119.1878","BIA","WA","","",""
"-119.235785464","48.296394005","280184","285626","W-591492","FED","DOI-WFMI","BIA","USWACOA","Colville Agency","WACOA","Colville Agency","96","","EY8U","NASON BASIN #1","","","","","","2009","2009/06/16 00:00:00+00","167","1340","Natural","Natural","","2009/06/19 00:00:00+00","170","1407","14.8","C","48.2964","-119.2358","BIA","WA","","",""
"-118.194385654","48.288093892","280185","285627","W-591496","FED","DOI-WFMI","BIA","USWACOA","Colville Agency","WACOA","Colville Agency","98","","EY9Y","LEWIN FIRE","","","","","","2009","2009/06/17 00:00:00+00","168","1413","Natural","Natural","","2009/06/17 00:00:00+00","168","1600","0.1","A","48.2881","-118.1944","BIA","WA","","",""
"-118.361685645","48.202493916","280186","285628","W-591500","FED","DOI-WFMI","BIA","USWACOA","Colville Agency","WACOA","Colville Agency","99","","EZA5","NEZ PERCE CREEK","","","","","","2009","2009/06/17 00:00:00+00","168","1457","Natural","Natural","","2009/06/18 00:00:00+00","169","1200","0.1","A","48.2025","-118.3617","BIA","WA","","",""
"-118.289185657","48.206693907","280187","285629","W-591502","FED","DOI-WFMI","BIA","USWACOA","Colville Agency","WACOA","Colville Agency","100","","EZA6","FISH LAKE","","","","","","2009","2009/06/17 00:00:00+00","168","1725","Natural","Natural","","2009/06/17 00:00:00+00","168","1920","0.1","A","48.2067","-118.2892","BIA","WA","","",""
"-118.218285661","48.241393898","280188","285630","W-591513","FED","DOI-WFMI","BIA","USWACOA","Colville Agency","WACOA","Colville Agency","102","","EZH5","LONG STREET MINES","","","","","","2009","2009/06/18 00:00:00+00","169","2100","Natural","Natural","","2009/06/19 00:00:00+00","170","1200","0.3","B","48.2414","-118.2183","BIA","WA","","",""
"-118.228085609","48.449193885","280189","285631","W-591521","FED","DOI-WFMI","BIA","USWACOA","Colville Agency","WACOA","Colville Agency","104","","EZ8H","BARNABY CREEK 1","","","","","","2009","2009/06/19 00:00:00+00","170","1950","Natural","Natural","","2009/06/27 00:00:00+00","178","1800","0.5","B","48.4492","-118.2281","BIA","WA","","",""
"-119.243085464","48.289994006","280190","285632","W-591539","FED","DOI-WFMI","BIA","USWACOA","Colville Agency","WACOA","Colville Agency","107","","EZT1","NASON BASIN #2","","","","","","2009","2009/06/21 00:00:00+00","172","1507","Natural","Natural","","2009/06/21 00:00:00+00","172","1900","0.3","B","48.29","-119.2431","BIA","WA","","",""
"-118.231085609","48.446093886","280191","285633","W-591529","FED","DOI-WFMI","BIA","USWACOA","Colville Agency","WACOA","Colville Agency","105","","EZN3","BARNABY CREEK","","","","","","2009","2009/06/22 00:00:00+00","173","0945","Natural","Natural","","2009/06/22 00:00:00+00","173","1400","0.1","A","48.4461","-118.2311","BIA","WA","","",""
"-118.630955568","48.315883938","280192","285634","W-596884","FED","DOI-WFMI","BIA","USWACOA","Colville Agency","WACOA","Colville Agency","108","","EZ46","DEADHORSE","","","","","","2009","2009/06/25 00:00:00+00","176","1400","Natural","Natural","","2009/06/27 00:00:00+00","178","1710","1.9","B","48.31589","-118.63097","BIA","WA","","",""
"-118.969185541","48.174693983","280193","285635","W-591550","FED","DOI-WFMI","BIA","USWACOA","Colville Agency","WACOA","Colville Agency","110","","EZ45","HUD FIELD FIRE","","","","","","2009","2009/06/25 00:00:00+00","176","1536","Human","Missing data/not specified/undetermined","","2009/06/25 00:00:00+00","176","1800","1.6","B","48.1747","-118.9692","BIA","WA","","",""
"-118.693885598","48.144993955","280194","285636","W-591555","FED","DOI-WFMI","BIA","USWACOA","Colville Agency","WACOA","Colville Agency","111","","EZ6M","LIME CREEK","","","","","","2009","2009/06/25 00:00:00+00","176","2352","Human","Equipment and vehicle use","","2009/06/27 00:00:00+00","178","0130","0.5","B","48.145","-118.6939","BIA","WA","","",""
"-118.395285617","48.290793914","280195","285637","W-591572","FED","DOI-WFMI","BIA","USWACOA","Colville Agency","WACOA","Colville Agency","112","","EZ9W","ROCKY POINT","","","","","","2009","2009/06/27 00:00:00+00","178","2240","Human","Fireworks","","2009/06/27 00:00:00+00","178","2315","0.1","A","48.2908","-118.3953","BIA","WA","","",""
"-118.195285651","48.302493891","280196","285638","W-596885","FED","DOI-WFMI","BIA","USWACOA","Colville Agency","WACOA","Colville Agency","113","","EZ9G","INCHELIUM SCHOOL","","","","","","2009","2009/06/28 00:00:00+00","179","1115","Human","Fireworks","","2009/06/29 00:00:00+00","180","1600","0.5","B","48.3025","-118.1953","BIA","WA","","",""
"-118.202185671","48.215593897","280197","285639","W-591573","FED","DOI-WFMI","BIA","USWACOA","Colville Agency","WACOA","Colville Agency","114","","E0B2","CURRY GRADE 2","","","","","","2009","2009/06/28 00:00:00+00","179","2120","Human","Arson/incendiarism","","2009/06/28 00:00:00+00","179","2230","0.1","A","48.2156","-118.2022","BIA","WA","","",""
"-118.915585529","48.264523972","280198","285640","W-596898","FED","DOI-WFMI","BIA","USWACOA","Colville Agency","WACOA","Colville Agency","115","","E0B0","OWHI LAKE","2009_WA-COA-165_JOHNSON LAKE COMPLEX","2009_WA-COA-165_JOHNSON LAKE COMPLEX","","","JOHNSON LAKE COMPLEX","2009","2009/06/29 00:00:00+00","180","1145","Human","Equipment and vehicle use","","2009/06/29 00:00:00+00","180","1310","0.1","A","48.26453","-118.9156","BIA","WA","","",""
"-118.916795588","48.020933987","280199","285641","W-594758","FED","DOI-WFMI","BIA","USWACOA","Colville Agency","WACOA","Colville Agency","118","","E0HR","PETER DAN","","","","","","2009","2009/07/01 00:00:00+00","182","1545","Human","Debris and open burning","","2009/07/02 00:00:00+00","183","1500","8.3","B","48.02094","-118.91681","BIA","WA","","",""
"-118.90095558","48.066183983","280200","285642","W-594760","FED","DOI-WFMI","BIA","USWACOA","Colville Agency","WACOA","Colville Agency","119","","E0JN","BUFFALO LAKE","","","","","","2009","2009/07/01 00:00:00+00","182","1708","Human","Missing data/not specified/undetermined","","2009/07/02 00:00:00+00","183","1458","7.2","B","48.06619","-118.90097","BIA","WA","","",""
"-118.969905542","48.171713984","280201","285643","W-596868","FED","DOI-WFMI","BIA","USWACOA","Colville Agency","WACOA","Colville Agency","120","","E0VB","OLD HUD 66 CABLE BOX","","","","","","2009","2009/07/04 00:00:00+00","185","1557","Human","Fireworks","Minor","2009/07/04 00:00:00+00","185","1650","0.1","A","48.17172","-118.96992","BIA","WA","","",""
"-118.191885653","48.297493891","280202","285644","W-591574","FED","DOI-WFMI","BIA","USWACOA","Colville Agency","WACOA","Colville Agency","121","","E0VJ","LOUIE RESIDENCE","","","","","","2009","2009/07/04 00:00:00+00","185","1747","Human","Arson/incendiarism","","2009/07/05 00:00:00+00","186","1200","0.1","A","48.2975","-118.1919","BIA","WA","","",""
"-118.321265629","48.295853905","280203","285645","W-596867","FED","DOI-WFMI","BIA","USWACOA","Colville Agency","WACOA","Colville Agency","122","","E0VL","ROUND LAKE","","","","","","2009","2009/07/04 00:00:00+00","185","1804","Human","Fireworks","","2009/07/04 00:00:00+00","185","1950","0.1","A","48.29586","-118.32128","BIA","WA","","",""
"-118.321085629","48.295593905","280204","285646","W-591575","FED","DOI-WFMI","BIA","USWACOA","Colville Agency","WACOA","Colville Agency","123","","E0Z7","ROUND LAKE 2","","","","","","2009","2009/07/04 00:00:00+00","185","2054","Human","Misuse of fire by a minor","Minor","2009/07/04 00:00:00+00","185","2153","0.1","A","48.2956","-118.3211","BIA","WA","","",""
"-118.97718555","48.132193987","280205","285647","W-591576","FED","DOI-WFMI","BIA","USWACOA","Colville Agency","WACOA","Colville Agency","124","","E00A","AGENCY BALLFIELD 1","","","","","","2009","2009/07/04 00:00:00+00","185","2158","Human","Fireworks","","2009/07/04 00:00:00+00","185","2200","0.1","A","48.1322","-118.9772","BIA","WA","","",""
"-118.97688555","48.132793987","280206","285648","W-591577","FED","DOI-WFMI","BIA","USWACOA","Colville Agency","WACOA","Colville Agency","125","","E00B","AGENCY BALLFIELD 2","","","","","","2009","2009/07/04 00:00:00+00","185","2207","Human","Fireworks","","2009/07/04 00:00:00+00","185","2216","0.1","A","48.1328","-118.9769","BIA","WA","","",""
"-119.440785422","48.316094026","280207","285649","W-591691","FED","DOI-WFMI","BIA","USWACOA","Colville Agency","WACOA","Colville Agency","126","","E00C","NICHOLSON BEACH 1","","","","","","2009","2009/07/04 00:00:00+00","185","2214","Human","Fireworks","","2009/07/04 00:00:00+00","185","2230","0.1","A","48.3161","-119.4408","BIA","WA","","",""
"-118.670585627","48.041093959","280208","285650","W-591699","FED","DOI-WFMI","BIA","USWACOA","Colville Agency","WACOA","Colville Agency","127","","E00D","KELLER PARK 1","","","","","","2009","2009/07/04 00:00:00+00","185","2234","Human","Fireworks","","2009/07/04 00:00:00+00","185","2249","0.1","A","48.0411","-118.6706","BIA","WA","","",""
"-118.202185649","48.302793892","280209","285651","W-591707","FED","DOI-WFMI","BIA","USWACOA","Colville Agency","WACOA","Colville Agency","128","","E01F","INCHELIUM CENTER","","","","","","2009","2009/07/04 00:00:00+00","185","2248","Human","Fireworks","","2009/07/04 00:00:00+00","185","2248","0.1","A","48.3028","-118.2022","BIA","WA","","",""
"-119.357785454","48.248094021","280210","285652","W-591713","FED","DOI-WFMI","BIA","USWACOA","Colville Agency","WACOA","Colville Agency","129","","E01J","BAINES BEACH","","","","","","2009","2009/07/04 00:00:00+00","185","2251","Human","Fireworks","","2009/07/04 00:00:00+00","185","2304","0.1","A","48.2481","-119.3578","BIA","WA","","",""
"-118.90608554","48.227193973","280211","285653","W-591718","FED","DOI-WFMI","BIA","USWACOA","Colville Agency","WACOA","Colville Agency","130","","E01K","GUA POINT #1","","","","","","2009","2009/07/04 00:00:00+00","185","2317","Human","Fireworks","","2009/07/04 00:00:00+00","185","2325","0.1","A","48.2272","-118.9061","BIA","WA","","",""
"-118.957785588","47.989993994","280212","285654","W-591723","FED","DOI-WFMI","BIA","USWACOA","Colville Agency","WACOA","Colville Agency","131","","E01N","61 ELMER CITY ACCESS","","","","","","2009","2009/07/04 00:00:00+00","185","2335","Human","Fireworks","","2009/07/05 00:00:00+00","186","0001","0.1","A","47.99","-118.9578","BIA","WA","","",""
"-119.197785457","48.351393997","280213","285655","W-591730","FED","DOI-WFMI","BIA","USWACOA","Colville Agency","WACOA","Colville Agency","132","","E01R","IREY ROAD FIRE","","","","","","2009","2009/07/05 00:00:00+00","186","1349","Human","Misuse of fire by a minor","Minor","2009/07/05 00:00:00+00","186","1540","0.1","A","48.3514","-119.1978","BIA","WA","","",""
"-119.423585402","48.409394019","280214","285656","W-591737","FED","DOI-WFMI","BIA","USWACOA","Colville Agency","WACOA","Colville Agency","134","","E09S","POTHOLES","","","","","","2009","2009/07/06 00:00:00+00","187","1409","Natural","Natural","","2009/07/07 00:00:00+00","188","1800","0.1","A","48.4094","-119.4236","BIA","WA","","",""
"-118.304185638","48.274193905","280215","285657","W-591862","FED","DOI-WFMI","BIA","USWACOA","Colville Agency","WACOA","Colville Agency","135","","E1EK","MOON MOUNTAIN","","","","","","2009","2009/07/08 00:00:00+00","189","1226","Natural","Natural","","2009/07/08 00:00:00+00","189","1542","0.1","A","48.2742","-118.3042","BIA","WA","","",""
"-118.96918555","48.136093986","280216","285658","W-591863","FED","DOI-WFMI","BIA","USWACOA","Colville Agency","WACOA","Colville Agency","137","","E1LL","NESPELEM BRIDGE","","","","","","2009","2009/07/11 00:00:00+00","192","1702","Human","Misuse of fire by a minor","Minor","2009/07/11 00:00:00+00","192","1800","0.1","A","48.1361","-118.9692","BIA","WA","","",""
"-118.253585692","48.086693911","280217","285659","W-591864","FED","DOI-WFMI","BIA","USWACOA","Colville Agency","WACOA","Colville Agency","140","","E1XC","ROGERS BAR SCHOOL","","","","","","2009","2009/07/14 00:00:00+00","195","1540","Natural","Natural","","2009/07/14 00:00:00+00","195","2100","0.7","B","48.0867","-118.2536","BIA","WA","","",""
"-119.357785454","48.247794021","280218","285660","W-591894","FED","DOI-WFMI","BIA","USWACOA","Colville Agency","WACOA","Colville Agency","141","","E10V","BAINES BEACH 2","","","","","","2009","2009/07/16 00:00:00+00","197","1151","Human","Recreation and ceremony","","2009/07/16 00:00:00+00","197","1230","0.1","A","48.2478","-119.3578","BIA","WA","","",""
"-118.834185562","48.188893968","280219","285661","W-591899","FED","DOI-WFMI","BIA","USWACOA","Colville Agency","WACOA","Colville Agency","142","","E14M","GOLD LAKE #2","","","","","","2009","2009/07/17 00:00:00+00","198","0712","Human","Recreation and ceremony","","2009/07/17 00:00:00+00","198","1242","0.1","A","48.1889","-118.8342","BIA","WA","","",""
"-118.83168561","47.99189398","280220","285662","W-597132","FED","DOI-WFMI","BIA","USWACOA","Colville Agency","WACOA","Colville Agency","144","","E18F","SUGAR LOAF","","","","","","2009","2009/07/17 00:00:00+00","198","0930","Natural","Natural","","2009/07/18 00:00:00+00","199","1600","0.1","A","47.9919","-118.8317","BIA","WA","","",""
"-118.648885589","48.214993946","280221","285663","W-591906","FED","DOI-WFMI","BIA","USWACOA","Colville Agency","WACOA","Colville Agency","145","","E18G","BRIDGE CREEK 1","","","","","","2009","2009/07/17 00:00:00+00","198","1835","Natural","Natural","","2009/07/18 00:00:00+00","199","1838","1.5","B","48.215","-118.6489","BIA","WA","","",""
"-118.968585542","48.171093983","280222","285664","W-591917","FED","DOI-WFMI","BIA","USWACOA","Colville Agency","WACOA","Colville Agency","146","","E19C","NEW HUD","","","","","","2009","2009/07/18 00:00:00+00","199","1533","Human","Misuse of fire by a minor","Minor","2009/07/18 00:00:00+00","199","1900","0.7","B","48.1711","-118.9686","BIA","WA","","",""
"-118.246885672","48.176093905","280223","285665","W-591918","FED","DOI-WFMI","BIA","USWACOA","Colville Agency","WACOA","Colville Agency","148","","E2CR","CLELL TOULOU","","","","","","2009","2009/07/19 00:00:00+00","200","1143","Human","Equipment and vehicle use","","2009/07/19 00:00:00+00","200","1527","1.1","B","48.1761","-118.2469","BIA","WA","","",""
"-118.978585565","48.070593991","280224","285666","W-591922","FED","DOI-WFMI","BIA","USWACOA","Colville Agency","WACOA","Colville Agency","151","","E2NT","HWY 155 MP 39.5","","","","","","2009","2009/07/22 00:00:00+00","203","1002","Human","Missing data/not specified/undetermined","","2009/07/22 00:00:00+00","203","1027","0.1","A","48.0706","-118.9786","BIA","WA","","",""
"-119.059385484","48.343293983","280225","285667","W-591949","FED","DOI-WFMI","BIA","USWACOA","Colville Agency","WACOA","Colville Agency","153","","E2SP","MILL CREEK 1","","","","","","2009","2009/07/23 00:00:00+00","204","0710","Natural","Natural","","2009/07/24 00:00:00+00","205","1800","0.3","B","48.3433","-119.0594","BIA","WA","","",""
"-118.971085485","48.39999397","280226","285668","W-591962","FED","DOI-WFMI","BIA","USWACOA","Colville Agency","WACOA","Colville Agency","155","","E2SR","STRAWBERRY","","","","","","2009","2009/07/23 00:00:00+00","204","0939","Natural","Natural","","2009/07/23 00:00:00+00","204","1425","0.3","B","48.4","-118.9711","BIA","WA","","",""
"-118.991885498","48.335593976","280227","285669","W-591957","FED","DOI-WFMI","BIA","USWACOA","Colville Agency","WACOA","Colville Agency","154","","E2SQ","STEPSTONE","","","","","","2009","2009/07/23 00:00:00+00","204","0939","Natural","Natural","","2009/07/23 00:00:00+00","204","1543","0.1","A","48.3356","-118.9919","BIA","WA","","",""
"-118.375285698","47.969693932","280228","285670","W-591985","FED","DOI-WFMI","BIA","USWACOA","Colville Agency","WACOA","Colville Agency","157","","E2UU","SIX MILE #1","","","","","","2009","2009/07/23 00:00:00+00","204","1205","Natural","Natural","","2009/07/24 00:00:00+00","205","1800","3.7","B","47.9697","-118.3753","BIA","WA","","",""
"-118.489185666","48.018293941","280229","285671","W-591992","FED","DOI-WFMI","BIA","USWACOA","Colville Agency","WACOA","Colville Agency","158","","E2UV","WHITESTONE LOOKOUT R","","","","","","2009","2009/07/23 00:00:00+00","204","1223","Natural","Natural","","2009/07/24 00:00:00+00","205","1800","5.7","B","48.0183","-118.4892","BIA","WA","","",""
"-119.604385447","48.094994057","280230","285672","W-592002","FED","DOI-WFMI","BIA","USWACOA","Colville Agency","WACOA","Colville Agency","161","","E2UY","BRIDGEPORT POINT","","","","","","2009","2009/07/23 00:00:00+00","204","1323","Natural","Natural","","2009/07/23 00:00:00+00","204","1700","17","C","48.095","-119.6044","BIA","WA","","",""
"-118.885785539","48.24559397","280231","285673","W-592004","FED","DOI-WFMI","BIA","USWACOA","Colville Agency","WACOA","Colville Agency","162","","E2U1","OWHI CREEK","","","","","","2009","2009/07/23 00:00:00+00","204","1417","Natural","Natural","","2009/07/24 00:00:00+00","205","1800","10.2","C","48.2456","-118.8858","BIA","WA","","",""
"-118.862875549","48.220323969","280232","285674","W-597085","FED","DOI-WFMI","BIA","USWACOA","Colville Agency","WACOA","Colville Agency","163","","E2U2","FISH HATCHERY","2009_WA-COA-165_JOHNSON LAKE COMPLEX","2009_WA-COA-165_JOHNSON LAKE COMPLEX","","","JOHNSON LAKE COMPLEX","2009","2009/07/23 00:00:00+00","204","1417","Natural","Natural","","2009/07/24 00:00:00+00","205","1851","232","D","48.22033","-118.86289","BIA","WA","","",""
"-118.869985534","48.276393966","280233","285675","W-596483","FED","DOI-WFMI","BIA","USWACOA","Colville Agency","WACOA","Colville Agency","164","","E2U3","CHIMNEY ROAD","","","","","","2009","2009/07/23 00:00:00+00","204","1417","Natural","Natural","","2009/07/23 00:00:00+00","204","2030","0.2","A","48.2764","-118.87","BIA","WA","","",""
"-118.940785529","48.246393976","280234","285676","W-596955","FED","DOI-WFMI","BIA","USWACOA","Colville Agency","WACOA","Colville Agency","165","","E2TM","JOHNSON LAKE","2009_WA-COA-165_JOHNSON LAKE COMPLEX","2009_WA-COA-165_JOHNSON LAKE COMPLEX","WA-COA-165-20090723","JOHNSON LAKE COMPLEX","JOHNSON LAKE COMPLEX","2009","2009/07/23 00:00:00+00","204","1427","Natural","Natural","","2009/07/31 00:00:00+00","212","1600","733","E","48.2464","-118.9408","BIA","WA","","",""
"-118.831685524","48.346693958","280235","285677","W-592075","FED","DOI-WFMI","BIA","USWACOA","Colville Agency","WACOA","Colville Agency","167","","E2U7","NORTH NANAMKIN 1","","","","","","2009","2009/07/23 00:00:00+00","204","1458","Natural","Natural","","2009/07/23 00:00:00+00","204","1951","0.1","A","48.3467","-118.8317","BIA","WA","","",""
"-118.783885542","48.309393955","280236","285678","W-592071","FED","DOI-WFMI","BIA","USWACOA","Colville Agency","WACOA","Colville Agency","166","","E2U6","SOUTH NANAMKIN","","","","","","2009","2009/07/23 00:00:00+00","204","1458","Natural","Natural","","2009/07/23 00:00:00+00","204","2120","0.2","A","48.3094","-118.7839","BIA","WA","","",""
"-119.031085475","48.400593976","280237","285679","W-597713","FED","DOI-WFMI","BIA","USWACOA","Colville Agency","WACOA","Colville Agency","169","","E3GW","LITTLE MOSES","","","","","","2009","2009/07/23 00:00:00+00","204","1605","Natural","Natural","","2009/07/28 00:00:00+00","209","1645","0.1","A","48.4006","-119.0311","BIA","WA","","",""
"-119.343585426","48.370594012","280238","285680","W-597135","FED","DOI-WFMI","BIA","USWACOA","Colville Agency","WACOA","Colville Agency","173","","E28D","HALEY CREEK","","","","","","2009","2009/07/23 00:00:00+00","204","1726","Natural","Natural","","2009/07/26 00:00:00+00","207","1305","0.1","A","48.3706","-119.3436","BIA","WA","","",""
"-119.155785457","48.380593991","280239","285681","W-592485","FED","DOI-WFMI","BIA","USWACOA","Colville Agency","WACOA","Colville Agency","170","","E2U8","UPPER CLARK CREEK","","","","","","2009","2009/07/23 00:00:00+00","204","1837","Natural","Natural","","2009/07/26 00:00:00+00","207","1800","0.5","B","48.3806","-119.1558","BIA","WA","","",""
"-119.17828547","48.311093998","280240","285682","W-592504","FED","DOI-WFMI","BIA","USWACOA","Colville Agency","WACOA","Colville Agency","172","","E2ZE","OMAK CREEK 1","","","","","","2009","2009/07/23 00:00:00+00","204","2152","Natural","Natural","","2009/07/24 00:00:00+00","205","1800","5.6","B","48.3111","-119.1783","BIA","WA","","",""
"-118.694685518","48.472493935","280241","285683","W-592506","FED","DOI-WFMI","BIA","USWACOA","Colville Agency","WACOA","Colville Agency","174","","E2ZF","13 MILE","","","","","","2009","2009/07/24 00:00:00+00","205","0837","Natural","Natural","","2009/07/25 00:00:00+00","206","1100","0.3","B","48.4725","-118.6947","BIA","WA","","",""
"-118.403085717","47.870593941","280242","285684","W-592509","FED","DOI-WFMI","BIA","USWACOA","Colville Agency","WACOA","Colville Agency","177","","E2ZG","JOHNNY GEORGE","","","","","","2009","2009/07/25 00:00:00+00","206","0846","Natural","Natural","","2009/07/25 00:00:00+00","206","1030","0.1","A","47.8706","-118.4031","BIA","WA","","",""
"-119.619385433","48.143094056","280243","285685","W-592518","FED","DOI-WFMI","BIA","USWACOA","Colville Agency","WACOA","Colville Agency","179","","E21K","DULEY LAKE","","","","","","2009","2009/07/25 00:00:00+00","206","1601","Natural","Natural","","2009/07/26 00:00:00+00","207","1800","106","D","48.1431","-119.6194","BIA","WA","","",""
"-118.52438565","48.058893942","280244","285686","W-592520","FED","DOI-WFMI","BIA","USWACOA","Colville Agency","WACOA","Colville Agency","180","","E21N","WHITESTONE #1","","","","","","2009","2009/07/25 00:00:00+00","206","1650","Natural","Natural","","2009/07/25 00:00:00+00","206","1800","0.3","B","48.0589","-118.5244","BIA","WA","","",""
"-118.601885626","48.097493948","280245","285687","W-592609","FED","DOI-WFMI","BIA","USWACOA","Colville Agency","WACOA","Colville Agency","182","","E27H","SOUTH COPPER CREEK","","","","","","2009","2009/07/26 00:00:00+00","207","0832","Natural","Natural","","2009/07/26 00:00:00+00","207","1300","0.1","A","48.0975","-118.6019","BIA","WA","","",""
"-118.9863855","48.331093976","280246","285688","W-592611","FED","DOI-WFMI","BIA","USWACOA","Colville Agency","WACOA","Colville Agency","183","","E27Q","SLEDGE HAMMER","2009_WA-COA-165_JOHNSON LAKE COMPLEX","2009_WA-COA-165_JOHNSON LAKE COMPLEX","","","JOHNSON LAKE COMPLEX","2009","2009/07/26 00:00:00+00","207","0956","Natural","Natural","","2009/07/26 00:00:00+00","207","1500","0.1","A","48.3311","-118.9864","BIA","WA","","",""
"-118.832185539","48.284993962","280247","285689","W-592616","FED","DOI-WFMI","BIA","USWACOA","Colville Agency","WACOA","Colville Agency","184","","E27W","SOUTH NANAMKIN 2","","","","","","2009","2009/07/26 00:00:00+00","207","1614","Natural","Natural","","2009/07/27 00:00:00+00","208","1055","0.1","A","48.285","-118.8322","BIA","WA","","",""
"-119.408285421","48.344394021","280248","285690","W-592618","FED","DOI-WFMI","BIA","USWACOA","Colville Agency","WACOA","Colville Agency","185","","E3CQ","SOUTH MISSION RIDGE","","","","","","2009","2009/07/26 00:00:00+00","207","2135","Natural","Natural","","2009/07/28 00:00:00+00","209","2135","0.1","A","48.3444","-119.4083","BIA","WA","","",""
"-119.359685423","48.372194014","280249","285691","W-592628","FED","DOI-WFMI","BIA","USWACOA","Colville Agency","WACOA","Colville Agency","186","","E3CK","HALEY CREEK 2","","","","","","2009","2009/07/26 00:00:00+00","207","2137","Natural","Natural","","2009/07/27 00:00:00+00","208","0900","1","B","48.3722","-119.3597","BIA","WA","","",""
"-119.483285412","48.32499403","280250","285692","W-592634","FED","DOI-WFMI","BIA","USWACOA","Colville Agency","WACOA","Colville Agency","188","","E3B8","CORKSCREW #1","","","","","","2009","2009/07/27 00:00:00+00","208","0926","Natural","Natural","","2009/07/27 00:00:00+00","208","2000","2.1","B","48.325","-119.4833","BIA","WA","","",""
"-118.909385499","48.389393964","280251","285693","W-592636","FED","DOI-WFMI","BIA","USWACOA","Colville Agency","WACOA","Colville Agency","189","","E3CA","CORKSCREW #2","","","","","","2009","2009/07/27 00:00:00+00","208","0926","Natural","Natural","","2009/07/27 00:00:00+00","208","1230","0.5","B","48.3894","-118.9094","BIA","WA","","",""
"-119.514385408","48.321894034","280252","285694","W-592658","FED","DOI-WFMI","BIA","USWACOA","Colville Agency","WACOA","Colville Agency","190","","E3CG","CORKSCREW #3","","","","","","2009","2009/07/27 00:00:00+00","208","0930","Natural","Natural","","2009/07/27 00:00:00+00","208","1550","0.8","B","48.3219","-119.5144","BIA","WA","","",""
"-118.877185505","48.38939396","280253","285695","W-597087","FED","DOI-WFMI","BIA","USWACOA","Colville Agency","WACOA","Colville Agency","191","","E3CS","GOLD CREEK","","","","","","2009","2009/07/27 00:00:00+00","208","1414","Natural","Natural","","2009/07/28 00:00:00+00","209","1800","0.2","A","48.3894","-118.8772","BIA","WA","","",""
"-119.118585501","48.228293996","280254","285696","W-592665","FED","DOI-WFMI","BIA","USWACOA","Colville Agency","WACOA","Colville Agency","193","","E3DD","COYOTE CREEK 1","","","","","","2009","2009/07/27 00:00:00+00","208","1711","Natural","Natural","","2009/07/27 00:00:00+00","208","2000","0.2","A","48.2283","-119.1186","BIA","WA","","",""
"-119.144385479","48.298893995","280255","285697","W-592673","FED","DOI-WFMI","BIA","USWACOA","Colville Agency","WACOA","Colville Agency","194","","E3ET","JIM CREEK","","","","","","2009","2009/07/28 00:00:00+00","209","0723","Natural","Natural","","2009/07/28 00:00:00+00","209","1132","0.1","A","48.2989","-119.1444","BIA","WA","","",""
"-119.022785463","48.451893972","280256","285698","W-592674","FED","DOI-WFMI","BIA","USWACOA","Colville Agency","WACOA","Colville Agency","195","","E3GY","LOONEY CREEK","","","","","","2009","2009/07/28 00:00:00+00","209","1307","Natural","Natural","","2009/07/29 00:00:00+00","210","1600","0.3","B","48.4519","-119.0228","BIA","WA","","",""
"-118.411085621","48.260293917","280257","285699","W-592695","FED","DOI-WFMI","BIA","USWACOA","Colville Agency","WACOA","Colville Agency","197","","E3JC","SPLIT ROCK","","","","","","2009","2009/07/28 00:00:00+00","209","1701","Natural","Natural","","2009/07/30 00:00:00+00","211","1800","0.3","B","48.2603","-118.4111","BIA","WA","","",""
"-118.364185676","48.069193924","280258","285700","W-592696","FED","DOI-WFMI","BIA","USWACOA","Colville Agency","WACOA","Colville Agency","198","","E3JE","MITCHELL POINT","","","","","","2009","2009/07/28 00:00:00+00","209","1710","Natural","Natural","","2009/07/28 00:00:00+00","209","2130","0.4","B","48.0692","-118.3642","BIA","WA","","",""
"-118.348585637","48.242193912","280259","285701","W-592697","FED","DOI-WFMI","BIA","USWACOA","Colville Agency","WACOA","Colville Agency","199","","E3JF","STRANGER CREEK","","","","","","2009","2009/07/28 00:00:00+00","209","1749","Natural","Natural","","2009/07/28 00:00:00+00","209","2100","0.1","A","48.2422","-118.3486","BIA","WA","","",""
"-118.279985654","48.224993905","280260","285702","W-592699","FED","DOI-WFMI","BIA","USWACOA","Colville Agency","WACOA","Colville Agency","204","","E3J6","KEWA 1","","","","","","2009","2009/07/28 00:00:00+00","209","1751","Natural","Natural","","2009/07/30 00:00:00+00","211","1800","2.5","B","48.225","-118.28","BIA","WA","","",""
"-118.25792567","48.175743906","280261","285703","W-597142","FED","DOI-WFMI","BIA","USWACOA","Colville Agency","WACOA","Colville Agency","201","","E3JK","SEASTROM FIRE","","","","","","2009","2009/07/28 00:00:00+00","209","1803","Natural","Natural","","2009/07/29 00:00:00+00","210","0900","0.1","A","48.17575","-118.25794","BIA","WA","","",""
"-118.227485683","48.144693905","280262","285704","W-592698","FED","DOI-WFMI","BIA","USWACOA","Colville Agency","WACOA","Colville Agency","200","","E3JH","LOWER NEZ PERCE CREE","","","","","","2009","2009/07/28 00:00:00+00","209","1805","Natural","Natural","","2009/07/29 00:00:00+00","210","1600","0.3","B","48.1447","-118.2275","BIA","WA","","",""
"-118.23267568","48.153803905","280263","285705","W-597143","FED","DOI-WFMI","BIA","USWACOA","Colville Agency","WACOA","Colville Agency","202","","E3JL","LAWSON FLATS","","","","","","2009","2009/07/28 00:00:00+00","209","1937","Natural","Natural","","2009/07/28 00:00:00+00","209","2100","0.5","B","48.15381","-118.23269","BIA","WA","","",""
"-118.397785633","48.222193918","280264","285706","W-592700","FED","DOI-WFMI","BIA","USWACOA","Colville Agency","WACOA","Colville Agency","205","","E3MF","LONGHAIRS #1","","","","","","2009","2009/07/29 00:00:00+00","210","0949","Natural","Natural","","2009/07/30 00:00:00+00","211","1617","0.2","A","48.2222","-118.3978","BIA","WA","","",""
"-118.488085553","48.481393912","280265","285707","W-592701","FED","DOI-WFMI","BIA","USWACOA","Colville Agency","WACOA","Colville Agency","206","","E3MH","BUCKHORN","","","","","","2009","2009/07/29 00:00:00+00","210","1348","Natural","Natural","","2009/08/04 00:00:00+00","216","1200","0.3","B","48.4814","-118.4881","BIA","WA","","",""
"-118.318985643","48.242103908","280266","285708","W-597150","FED","DOI-WFMI","BIA","USWACOA","Colville Agency","WACOA","Colville Agency","207","","E3MJ","STRANGER CREEK #2","","","","","","2009","2009/07/29 00:00:00+00","210","1438","Natural","Natural","","2009/07/30 00:00:00+00","211","1100","0.1","A","48.24211","-118.319","BIA","WA","","",""
"-118.264385657","48.223093904","280267","285709","W-592702","FED","DOI-WFMI","BIA","USWACOA","Colville Agency","WACOA","Colville Agency","209","","E3R5","MISERY MOUNTAIN","","","","","","2009","2009/07/29 00:00:00+00","210","1439","Natural","Natural","","2009/07/30 00:00:00+00","211","2005","0.8","B","48.2231","-118.2644","BIA","WA","","",""
"-118.992345481","48.403273972","280268","285710","W-597151","FED","DOI-WFMI","BIA","USWACOA","Colville Agency","WACOA","Colville Agency","208","","E8ZE","GOLD CREEK RIDGE","","","","","","2009","2009/07/29 00:00:00+00","210","1445","Natural","Natural","","2009/07/29 00:00:00+00","210","2130","0.1","A","48.40328","-118.99236","BIA","WA","","",""
"-118.448885669","48.033593936","280269","285711","W-592741","FED","DOI-WFMI","BIA","USWACOA","Colville Agency","WACOA","Colville Agency","216","","E3YM","NINE MILE CREEK","","","","","","2009","2009/08/01 00:00:00+00","213","1748","Natural","Natural","","2009/08/02 00:00:00+00","214","1800","0.5","B","48.0336","-118.4489","BIA","WA","","",""
"-118.318285644","48.238293909","280270","285712","W-592743","FED","DOI-WFMI","BIA","USWACOA","Colville Agency","WACOA","Colville Agency","217","","E37F","STRANGER CREEK #3","","","","","","2009","2009/08/03 00:00:00+00","215","1317","Natural","Natural","","2009/08/06 00:00:00+00","218","1210","0.1","A","48.2383","-118.3183","BIA","WA","","",""
"-119.327185483","48.148594024","280271","285713","W-592747","FED","DOI-WFMI","BIA","USWACOA","Colville Agency","WACOA","Colville Agency","219","","E4HB","GOOSE LAKE SUBSTATIO","","","","","","2009","2009/08/05 00:00:00+00","217","0859","Human","Power generation/transmission/distribution","","2009/08/05 00:00:00+00","217","1800","0.3","B","48.1486","-119.3272","BIA","WA","","",""
"-118.413085699","47.937493938","280272","285714","W-592853","FED","DOI-WFMI","BIA","USWACOA","Colville Agency","WACOA","Colville Agency","220","","E4FT","3 MILE #1","","","","","3 MILE COMPLEX","2009","2009/08/05 00:00:00+00","217","1150","Natural","Natural","","2009/08/05 00:00:00+00","217","2025","0.1","A","47.9375","-118.4131","BIA","WA","","",""
"-118.4093857","47.936893938","280273","285715","W-592858","FED","DOI-WFMI","BIA","USWACOA","Colville Agency","WACOA","Colville Agency","221","","E4FT","3 MILE #2","","","","","3 MILE COMPLEX","2009","2009/08/05 00:00:00+00","217","1150","Natural","Natural","","2009/08/06 00:00:00+00","218","1600","0.5","B","47.9369","-118.4094","BIA","WA","","",""
"-118.458285699","47.900593945","280274","285716","W-592861","FED","DOI-WFMI","BIA","USWACOA","Colville Agency","WACOA","Colville Agency","222","","E4FT","JOHNNY GEORGE WEST","","","","","","2009","2009/08/05 00:00:00+00","217","1150","Natural","Natural","","2009/08/06 00:00:00+00","218","1830","0.6","B","47.9006","-118.4583","BIA","WA","","",""
"-118.421385705","47.906693941","280275","285717","W-592868","FED","DOI-WFMI","BIA","USWACOA","Colville Agency","WACOA","Colville Agency","223","","E4FT","JOHNNY GEORGE EAST","","","","","","2009","2009/08/05 00:00:00+00","217","1150","Natural","Natural","","2009/08/06 00:00:00+00","218","1600","1.8","B","47.9067","-118.4214","BIA","WA","","",""
"-118.384985695","47.975793933","280276","285718","W-592884","FED","DOI-WFMI","BIA","USWACOA","Colville Agency","WACOA","Colville Agency","224","","E4FT","CANTEEN CREEK MM 11.","","","","","","2009","2009/08/05 00:00:00+00","217","1150","Natural","Natural","","2009/08/06 00:00:00+00","218","1900","0.3","B","47.9758","-118.385","BIA","WA","","",""
"-118.780285542","48.311893954","280277","285719","W-592891","FED","DOI-WFMI","BIA","USWACOA","Colville Agency","WACOA","Colville Agency","225","","E4PJ","SOUTH NANAMKIN 3","","","","","","2009","2009/08/06 00:00:00+00","218","1457","Natural","Natural","","2009/08/06 00:00:00+00","218","1900","0.3","B","48.3119","-118.7803","BIA","WA","","",""
"-118.718285556","48.298593948","280278","285720","W-592896","FED","DOI-WFMI","BIA","USWACOA","Colville Agency","WACOA","Colville Agency","226","","E4QK","25 MILE","","","","","","2009","2009/08/06 00:00:00+00","218","1457","Natural","Natural","","2009/08/06 00:00:00+00","218","1954","0.1","A","48.2986","-118.7183","BIA","WA","","",""
"-118.719985527","48.417793941","280279","285721","W-592900","FED","DOI-WFMI","BIA","USWACOA","Colville Agency","WACOA","Colville Agency","227","","E4PK","NINETEEN MILE #1","","","","","","2009","2009/08/06 00:00:00+00","218","1457","Natural","Natural","","2009/08/06 00:00:00+00","218","1600","0.1","A","48.4178","-118.72","BIA","WA","","",""
"-118.195585664","48.248293895","280280","285722","W-592961","FED","DOI-WFMI","BIA","USWACOA","Colville Agency","WACOA","Colville Agency","230","","E4PL","RATTLESNAKE","","","","","","2009","2009/08/06 00:00:00+00","218","1936","Natural","Natural","","2009/08/07 00:00:00+00","219","1600","1","B","48.2483","-118.1956","BIA","WA","","",""
