"ï»¿X","Y","OBJECTID","FOD_ID","FPA_ID","SOURCE_SYSTEM_TYPE","SOURCE_SYSTEM","NWCG_REPORTING_AGENCY","NWCG_REPORTING_UNIT_ID","NWCG_REPORTING_UNIT_NAME","SOURCE_REPORTING_UNIT","SOURCE_REPORTING_UNIT_NAME","LOCAL_FIRE_REPORT_ID","LOCAL_INCIDENT_ID","FIRE_CODE","FIRE_NAME","ICS_209_PLUS_INCIDENT_JOIN_ID","ICS_209_PLUS_COMPLEX_JOIN_ID","MTBS_ID","MTBS_FIRE_NAME","COMPLEX_NAME","FIRE_YEAR","DISCOVERY_DATE","DISCOVERY_DOY","DISCOVERY_TIME","NWCG_CAUSE_CLASSIFICATION","NWCG_GENERAL_CAUSE","NWCG_CAUSE_AGE_CATEGORY","CONT_DATE","CONT_DOY","CONT_TIME","FIRE_SIZE","FIRE_SIZE_CLASS","LATITUDE","LONGITUDE","OWNER_DESCR","STATE","COUNTY","FIPS_CODE","FIPS_NAME"
"-95.789892218","39.359793044","1730001","300014666","W-666250","FED","DOI-WFMI","BIA","USKSHOA","Horton Agency","KSHOA","Horton Agency","5","","H2T2","HUFF","","","","","","2014","2014/03/29 00:00:00+00","88","1130","Human","Debris and open burning","","2014/03/29 00:00:00+00","88","1155","7.2","B","39.3598","-95.7899","BIA","KS","","",""
"-95.84999221","39.277993061","1730002","300014667","W-666252","FED","DOI-WFMI","BIA","USKSHOA","Horton Agency","KSHOA","Horton Agency","6","","H2T3","BARBER","","","","","","2014","2014/03/30 00:00:00+00","89","1121","Human","Debris and open burning","","2014/03/30 00:00:00+00","89","1130","0.1","A","39.278","-95.85","BIA","KS","","",""
"-95.795992221","39.312993052","1730003","300014668","W-666253","FED","DOI-WFMI","BIA","USKSHOA","Horton Agency","KSHOA","Horton Agency","7","","H2T4","MARY","","","","","","2014","2014/03/30 00:00:00+00","89","1336","Human","Debris and open burning","","2014/03/30 00:00:00+00","89","1620","63","C","39.313","-95.796","BIA","KS","","",""
"-95.931101177","39.392495047","1730004","300014669","W-666550","FED","DOI-WFMI","BIA","USKSHOA","Horton Agency","KSHOA","Horton Agency","8","","H2Y5","LIMESTONE","","","","","","2014","2014/04/08 00:00:00+00","98","1053","Human","Debris and open burning","","2014/04/08 00:00:00+00","98","1148","135","D","39.392502","-95.931109","BIA","KS","","",""
"-95.850469207","39.303879057","1730005","300014677","W-667846","FED","DOI-WFMI","BIA","USKSHOA","Horton Agency","KSHOA","Horton Agency","16","","H39S","DOLLARD","","","","","","2014","2014/05/02 00:00:00+00","122","1619","Human","Debris and open burning","","2014/05/02 00:00:00+00","122","1733","6","B","39.303886","-95.850477","BIA","KS","","",""
"-95.823192211","39.33763305","1730006","300014678","W-670900","FED","DOI-WFMI","BIA","USKSHOA","Horton Agency","KSHOA","Horton Agency","17","","H7KG","VOLLEYBALL","","","","","","2014","2014/07/04 00:00:00+00","185","1128","Human","Fireworks","Minor","2014/07/04 00:00:00+00","185","1144","0.1","A","39.33764","-95.8232","BIA","KS","","",""
"-95.536578289","39.313226037","1730007","300014679","W-673455","FED","DOI-WFMI","BIA","USKSHOA","Horton Agency","KSHOA","Horton Agency","18","","JA80","PLAYGROUND","","","","","","2014","2014/07/29 00:00:00+00","210","1528","Human","Arson/incendiarism","","2014/07/29 00:00:00+00","210","1548","0.3","B","39.313233","-95.536586","BIA","KS","","",""
"-96.503592121","38.419693242","1730008","300014707","W-666887","FED","DOI-WFMI","NPS","USKSTGP","Tallgrass Prairie National Preserve","KSTGP","Tall Grass Prairie National Park","319","","H3DA","FOX CREEK","2014_350778_FOX CREEK","","KS3841909654720140415","14 EAST TRAPS TWO SECTION","","2014","2014/04/15 00:00:00+00","105","1504","Human","Debris and open burning","","2014/04/21 00:00:00+00","111","0800","2095","F","38.4197","-96.5036","PRIVATE","KS","","",""
"-83.415295911","36.655492921","1730009","300014714","W-665344","FED","DOI-WFMI","NPS","USKYCGP","Cumberland Gap National Historic Park","KYCGP","Cumberland Gap National Historic Park","1401","","H1RS","HENSLEY FARM","","","","","","2014","2014/01/25 00:00:00+00","25","1500","Human","Missing data/not specified/undetermined","","2014/01/25 00:00:00+00","25","1530","5","B","36.6555","-83.4153","PRIVATE","VA","","",""
"-83.511695882","36.674992921","1730010","300014715","W-665345","FED","DOI-WFMI","NPS","USKYCGP","Cumberland Gap National Historic Park","KYCGP","Cumberland Gap National Historic Park","1402","","H1RT","BROWNIES CREEK","","","","","","2014","2014/02/04 00:00:00+00","35","1130","Human","Missing data/not specified/undetermined","","2014/02/04 00:00:00+00","35","1200","0.1","A","36.675","-83.5117","NPS","KY","","",""
"-83.681395838","36.576692948","1730011","300014716","W-665346","FED","DOI-WFMI","NPS","USKYCGP","Cumberland Gap National Historic Park","KYCGP","Cumberland Gap National Historic Park","1403","","H1RU","TIPRELL 1","","","","","","2014","2014/02/10 00:00:00+00","41","1100","Human","Missing data/not specified/undetermined","","2014/02/10 00:00:00+00","41","1200","2","B","36.5767","-83.6814","PRIVATE","TN","","",""
"-83.680595838","36.577192948","1730012","300014717","W-665348","FED","DOI-WFMI","NPS","USKYCGP","Cumberland Gap National Historic Park","KYCGP","Cumberland Gap National Historic Park","1404","","H1RV","TIPRELL 2","","","","","","2014","2014/02/10 00:00:00+00","41","1100","Human","Missing data/not specified/undetermined","","2014/02/10 00:00:00+00","41","1200","0.5","B","36.5772","-83.6806","PRIVATE","TN","","",""
"-83.561825867","36.677902923","1730013","300014749","W-675944","FED","DOI-WFMI","NPS","USKYCGP","Cumberland Gap National Historic Park","KYCGP","Cumberland Gap National Historic Park","1436","","JG64","HENSLEY GATE","","","","","","2014","2014/03/10 00:00:00+00","69","1400","Natural","Natural","","2014/03/12 00:00:00+00","71","1800","200","D","36.67791","-83.56183","PRIVATE","KY","","",""
"-83.689995834","36.602992943","1730014","300014750","W-675945","FED","DOI-WFMI","NPS","USKYCGP","Cumberland Gap National Historic Park","KYCGP","Cumberland Gap National Historic Park","1437","","JG65","BARTLETT FIRE","","","","","","2014","2014/06/23 00:00:00+00","174","2130","Human","Power generation/transmission/distribution","","2014/06/24 00:00:00+00","175","0830","0.1","A","36.603","-83.69","NPS","KY","","",""
"-83.642795848","36.602492941","1730015","300014751","W-675947","FED","DOI-WFMI","NPS","USKYCGP","Cumberland Gap National Historic Park","KYCGP","Cumberland Gap National Historic Park","1438","","JG67","HWY 58 VEHICLE FIRE","","","","","","2014","2014/12/01 00:00:00+00","335","1410","Human","Equipment and vehicle use","","2014/12/01 00:00:00+00","335","1800","0.2","A","36.6025","-83.6428","NPS","VA","","",""
"-83.458095898","36.66889292","1730016","300014752","W-675987","FED","DOI-WFMI","NPS","USKYCGP","Cumberland Gap National Historic Park","KYCGP","Cumberland Gap National Historic Park","1439","","JG8G","SAND CAVE","","","","","","2014","2014/12/23 00:00:00+00","357","0930","Human","Missing data/not specified/undetermined","","","","","0.1","A","36.6689","-83.4581","NPS","VA","","",""
"-86.091695095","37.163542935","1730017","300014784","W-674801","FED","DOI-WFMI","NPS","USKYMCP","Mammoth Cave National Park","KYMCP","Mammoth Cave National Park","1401","","JF20","DOYEL VALLEY","","","","","","2014","2014/07/24 00:00:00+00","205","2245","Human","Recreation and ceremony","","2014/07/24 00:00:00+00","205","2330","0.1","A","37.16355","-86.0917","NPS","KY","","",""
"-86.086395096","37.171692934","1730018","300014785","W-674802","FED","DOI-WFMI","NPS","USKYMCP","Mammoth Cave National Park","KYMCP","Mammoth Cave National Park","1402","","JF2X","TRASH TRUCK","","","","","","2014","2014/10/04 00:00:00+00","277","1030","Human","Equipment and vehicle use","","2014/10/04 00:00:00+00","277","1145","0.3","B","37.1717","-86.0864","NPS","KY","","",""
"-90.168294366","29.832494616","1730019","300014787","W-665758","FED","DOI-WFMI","NPS","USLAJEP","Jean Lafitte National Historic Park & Preserve","LAJEP","Jean Lafitte National Historic Park & Preserve","1401","","H17Q","HUNT ZONE 8","","","","","","2014","2014/02/20 00:00:00+00","51","0945","Natural","Natural","","2014/02/22 00:00:00+00","53","1000","16","C","29.8325","-90.1683","NPS","LA","","",""
"-70.013599776","41.931091376","1730020","300014795","W-666516","FED","DOI-WFMI","NPS","USMACCP","Cape Cod National Seashore","MACCP","Cape Cod National Seashore","1410","","H3AN","DOW WILDFIRE","","","","","","2014","2014/04/10 00:00:00+00","100","1710","Human","Missing data/not specified/undetermined","","2014/04/10 00:00:00+00","100","1750","0.5","B","41.9311","-70.0136","PRIVATE","MA","","",""
"-75.154323333","38.206392289","1730021","300014860","W-666869","FED","DOI-WFMI","NPS","USMDAIP","Assateague Island National Seashore","MDAIP","Assateague Island National Seashore","1401","","H38E","BONEYARD","","","","","","2014","2014/05/04 00:00:00+00","124","1805","Human","Recreation and ceremony","","2014/05/04 00:00:00+00","124","1914","0.2","A","38.2064","-75.154325","NPS","MD","","",""
"-77.732997452","39.469792127","1730022","300014868","W-683146","FED","DOI-WFMI","NPS","USMDANP","Antietam National Battlefield","MDANP","Antietam National Battlefield","1412","","JGS3","BURMA RD FIRE","","","","","","2014","2014/11/03 00:00:00+00","307","1630","Human","Recreation and ceremony","","2014/11/03 00:00:00+00","307","1730","0.5","B","39.4698","-77.733","NPS","MD","","",""
"-77.73919745","39.469992127","1730023","300014869","W-675854","FED","DOI-WFMI","NPS","USMDANP","Antietam National Battlefield","MDANP","Antietam National Battlefield","1414","","JG4T","LUMINARY FIRE","","","","","","2014","2014/12/14 00:00:00+00","348","0230","Human","Recreation and ceremony","","2014/12/14 00:00:00+00","348","0500","1.8","B","39.47","-77.7392","NPS","MD","","",""
"-77.817797422","39.531392118","1730024","300014879","W-675128","FED","DOI-WFMI","NPS","USMDCOP","Chesapeake & Ohio Canal National Historical Park","MDCOP","Chesapeake & Ohio Canal National Historical Park","1411","","JGB8","DORSEY RD FIRE","","","","","","2014","2014/11/03 00:00:00+00","307","1350","Human","Missing data/not specified/undetermined","","2014/11/03 00:00:00+00","307","1700","2","B","39.5314","-77.8178","PRIVATE","MD","","",""
"-68.336900204","44.315490881","1730025","300014885","W-672524","FED","DOI-WFMI","NPS","USMEACP","Acadia National Park","MEACP","Acadia National Park","4","","JF8D","ECO LAKE","","","","","","2014","2014/02/22 00:00:00+00","53","1636","Human","Recreation and ceremony","","2014/02/22 00:00:00+00","53","1640","0.1","A","44.3155","-68.3369","NPS","ME","","",""
"-68.259200227","44.377190868","1730026","300014886","W-672525","FED","DOI-WFMI","NPS","USMEACP","Acadia National Park","MEACP","Acadia National Park","5","","JF8E","EAGLE LAKE","","","","","","2014","2014/07/15 00:00:00+00","196","0830","Human","Recreation and ceremony","","2014/07/15 00:00:00+00","196","0845","0.1","A","44.3772","-68.2592","NPS","ME","","",""
"-68.203300253","44.241390891","1730027","300014889","W-674091","FED","DOI-WFMI","NPS","USMEACP","Acadia National Park","MEACP","Acadia National Park","8","","JGA1","BAKER ISLAND FIRE","","","","","","2014","2014/08/13 00:00:00+00","225","1100","Human","Recreation and ceremony","","2014/08/13 00:00:00+00","225","1130","0.1","A","44.2414","-68.2033","NPS","ME","","",""
"-84.730594947","43.597191694","1730028","300014902","W-673464","FED","DOI-WFMI","BIA","USMIMIA","Michigan Agency","MIMIA","Michigan Agency","2","","H4CA","FEILD","","","","","","2014","2014/05/05 00:00:00+00","125","1710","Human","Debris and open burning","","2014/05/05 00:00:00+00","125","1732","0.3","B","43.5972","-84.7306","BIA","MI","","",""
"-93.061391828","48.116091557","1730029","300014909","W-666793","FED","DOI-WFMI","BIA","USMNBFA","Bois Forte Tribe","MNBFA","Bois Forte Tribe","2","","H3XM","PUBLIC WORKS POWERLI","","","","","","2014","2014/04/28 00:00:00+00","118","1358","Human","Power generation/transmission/distribution","","2014/04/28 00:00:00+00","118","1412","0.1","A","48.1161","-93.0614","BIA","MN","","",""
"-92.543132197","46.7711817","1730030","300014919","W-666899","FED","DOI-WFMI","BIA","USMNFDA","Fond Du Lac Tribe","MNFDA","Fond Du Lac Tribe","2","","H3LG","PIT FIRE","","","","","","2014","2014/04/21 00:00:00+00","111","1635","Human","Debris and open burning","","2014/04/21 00:00:00+00","111","1705","0.6","B","46.77119","-92.54314","BIA","MN","","",""
"-92.544192195","46.780591699","1730031","300014920","W-666900","FED","DOI-WFMI","BIA","USMNFDA","Fond Du Lac Tribe","MNFDA","Fond Du Lac Tribe","3","","H39G","E PINE DITCH FIRE","","","","","","2014","2014/05/06 00:00:00+00","126","1915","Human","Debris and open burning","","2014/05/06 00:00:00+00","126","1945","0.7","B","46.7806","-92.5442","BIA","MN","","",""
"-92.489392222","46.713891704","1730032","300014923","W-674230","FED","DOI-WFMI","BIA","USMNFDA","Fond Du Lac Tribe","MNFDA","Fond Du Lac Tribe","6","","H42T","COMPOUND FIRE","","","","","","2014","2014/05/23 00:00:00+00","143","1815","Human","Arson/incendiarism","","2014/05/23 00:00:00+00","143","1830","0.1","A","46.7139","-92.4894","BIA","MN","","",""
"-92.564692155","47.00329167","1730033","300014924","W-674231","FED","DOI-WFMI","BIA","USMNFDA","Fond Du Lac Tribe","MNFDA","Fond Du Lac Tribe","7","","H4ZU","ALBORN FIRE","","","","","","2014","2014/05/24 00:00:00+00","144","1430","Human","Missing data/not specified/undetermined","","2014/05/24 00:00:00+00","144","1430","2","B","47.0033","-92.5647","BIA","MN","","",""
"-92.605492281","46.086391801","1730034","300014925","W-674232","FED","DOI-WFMI","BIA","USMNFDA","Fond Du Lac Tribe","MNFDA","Fond Du Lac Tribe","8","","JE9U","CULVER FIRE","","","","","","2014","2014/05/27 00:00:00+00","147","1230","Natural","Natural","","2014/05/27 00:00:00+00","147","1230","2","B","46.0864","-92.6055","BIA","MN","","",""
"-92.605492189","46.701091715","1730035","300014926","W-674500","FED","DOI-WFMI","BIA","USMNFDA","Fond Du Lac Tribe","MNFDA","Fond Du Lac Tribe","9","","JFJ9","POWER FIRE","","","","","","2014","2014/10/07 00:00:00+00","280","1145","Human","Missing data/not specified/undetermined","","2014/10/07 00:00:00+00","280","1330","0.1","A","46.7011","-92.6055","PRIVATE","MN","","",""
"-93.766391931","46.183591871","1730036","300014954","W-678297","FED","DOI-WFMI","BIA","USMNMLA","Mille Lacs Tribe","MNMLA","Mille Lacs Tribe","114","","H7SN","PETEVILLE","","","","","","2014","2014/05/06 00:00:00+00","126","0115","Human","Arson/incendiarism","","2014/05/06 00:00:00+00","126","0230","0.1","A","46.1836","-93.7664","BIA","MN","","",""
"-93.773291929","46.185791871","1730037","300014956","W-678299","FED","DOI-WFMI","BIA","USMNMLA","Mille Lacs Tribe","MNMLA","Mille Lacs Tribe","214","","H7S7","DUMPVILLE","","","","","","2014","2014/05/07 00:00:00+00","127","1850","Human","Arson/incendiarism","","2014/05/07 00:00:00+00","127","2000","1","B","46.1858","-93.7733","BIA","MN","","",""
"-92.830292225","46.021891826","1730038","300014957","W-678302","FED","DOI-WFMI","BIA","USMNMLA","Mille Lacs Tribe","MNMLA","Mille Lacs Tribe","314","","H7S9","PINEVILLE","","","","","","2014","2014/05/18 00:00:00+00","138","1320","Human","Fireworks","","2014/05/18 00:00:00+00","138","1435","1","B","46.0219","-92.8303","TRIBAL","MN","","",""
"-93.749391937","46.17779187","1730039","300014958","W-678304","FED","DOI-WFMI","BIA","USMNMLA","Mille Lacs Tribe","MNMLA","Mille Lacs Tribe","414","","H7TA","UNIT4VILLE","","","","","","2014","2014/05/18 00:00:00+00","138","1730","Human","Arson/incendiarism","","2014/05/18 00:00:00+00","138","2000","7","B","46.1778","-93.7494","BIA","MN","","",""
"-93.750791936","46.17939187","1730040","300014959","W-678306","FED","DOI-WFMI","BIA","USMNMLA","Mille Lacs Tribe","MNMLA","Mille Lacs Tribe","514","","H7TB","SCHOOLVILLE","","","","","","2014","2014/05/25 00:00:00+00","145","2305","Human","Arson/incendiarism","","2014/05/26 00:00:00+00","146","0045","0.1","A","46.1794","-93.7508","BIA","MN","","",""
"-93.772991927","46.198291869","1730041","300014960","W-678307","FED","DOI-WFMI","BIA","USMNMLA","Mille Lacs Tribe","MNMLA","Mille Lacs Tribe","614","","H7TC","RACHEALVILLE","","","","","","2014","2014/05/27 00:00:00+00","147","1745","Human","Arson/incendiarism","Minor","2014/05/27 00:00:00+00","147","1855","0.1","A","46.1983","-93.773","BIA","MN","","",""
"-93.742491939","46.17939187","1730042","300014961","W-678308","FED","DOI-WFMI","BIA","USMNMLA","Mille Lacs Tribe","MNMLA","Mille Lacs Tribe","714","","H7TD","EAGLEVILLE","","","","","","2014","2014/05/28 00:00:00+00","148","1745","Human","Arson/incendiarism","","2014/05/28 00:00:00+00","148","1855","2","B","46.1794","-93.7425","BIA","MN","","",""
"-95.370791347","46.980591883","1730043","300014980","W-668078","FED","DOI-WFMI","BIA","USMNMNA","Minnesota Agency","MNMNA","Minnesota Agency","1","","H4BP","TANSY","","","","","","2014","2014/04/17 00:00:00+00","107","1655","Human","Arson/incendiarism","","2014/04/17 00:00:00+00","107","1710","0.5","B","46.9806","-95.3708","BIA","MN","","",""
"-95.371091347","46.980291883","1730044","300014981","W-668080","FED","DOI-WFMI","BIA","USMNMNA","Minnesota Agency","MNMNA","Minnesota Agency","2","","H4BR","FONDATION","","","","","","2014","2014/04/17 00:00:00+00","107","1845","Human","Arson/incendiarism","","2014/04/17 00:00:00+00","107","1900","0.5","B","46.9803","-95.3711","BIA","MN","","",""
"-95.370791347","46.979691883","1730045","300014982","W-668081","FED","DOI-WFMI","BIA","USMNMNA","Minnesota Agency","MNMNA","Minnesota Agency","3","","H4B5","PHONE POST","","","","","","2014","2014/04/17 00:00:00+00","107","1651","Human","Arson/incendiarism","","2014/04/17 00:00:00+00","107","1700","0.3","B","46.9797","-95.3708","BIA","MN","","",""
"-95.370591347","46.979691883","1730046","300014983","W-668092","FED","DOI-WFMI","BIA","USMNMNA","Minnesota Agency","MNMNA","Minnesota Agency","4","","H4BT","SHOE","","","","","","2014","2014/04/17 00:00:00+00","107","1647","Human","Arson/incendiarism","","2014/04/17 00:00:00+00","107","1655","0.5","B","46.9797","-95.3706","BIA","MN","","",""
"-95.370791347","46.979191883","1730047","300014984","W-668093","FED","DOI-WFMI","BIA","USMNMNA","Minnesota Agency","MNMNA","Minnesota Agency","5","","H4BU","TIRE","","","","","","2014","2014/04/17 00:00:00+00","107","1644","Human","Arson/incendiarism","","2014/04/17 00:00:00+00","107","1650","0.3","B","46.9792","-95.3708","BIA","MN","","",""
"-95.412791335","46.979991886","1730048","300014985","W-668097","FED","DOI-WFMI","BIA","USMNMNA","Minnesota Agency","MNMNA","Minnesota Agency","6","","H4BV","NARROW","","","","","","2014","2014/04/17 00:00:00+00","107","1201","Human","Arson/incendiarism","","2014/04/17 00:00:00+00","107","1250","0.5","B","46.98","-95.4128","BIA","MN","","",""
"-95.370291347","46.980791883","1730049","300014986","W-668099","FED","DOI-WFMI","BIA","USMNMNA","Minnesota Agency","MNMNA","Minnesota Agency","7","","H4BW","BALL PARK","","","","","","2014","2014/04/17 00:00:00+00","107","1716","Human","Arson/incendiarism","Minor","2014/04/17 00:00:00+00","107","1720","0.1","A","46.9808","-95.3703","BIA","MN","","",""
"-95.389391342","46.979991884","1730050","300014987","W-668106","FED","DOI-WFMI","BIA","USMNMNA","Minnesota Agency","MNMNA","Minnesota Agency","8","","H4BX","TWO TRACK","","","","","","2014","2014/04/17 00:00:00+00","107","1945","Human","Arson/incendiarism","Minor","2014/04/17 00:00:00+00","107","2000","0.1","A","46.98","-95.3894","BIA","MN","","",""
"-95.378091345","46.979191884","1730051","300014988","W-668107","FED","DOI-WFMI","BIA","USMNMNA","Minnesota Agency","MNMNA","Minnesota Agency","9","","H4BY","CREEK","","","","","","2014","2014/04/17 00:00:00+00","107","1835","Human","Arson/incendiarism","Minor","2014/04/17 00:00:00+00","107","1845","0.3","B","46.9792","-95.3781","BIA","MN","","",""
"-95.853491191","47.094681905","1730052","300014989","W-668108","FED","DOI-WFMI","BIA","USMNMNA","Minnesota Agency","MNMNA","Minnesota Agency","10","","H4BZ","V23","","","","","","2014","2014/04/16 00:00:00+00","106","1845","Human","Arson/incendiarism","Minor","2014/04/16 00:00:00+00","106","1933","0.1","A","47.09469","-95.8535","BIA","MN","","",""
"-95.851891191","47.095791905","1730053","300014990","W-668110","FED","DOI-WFMI","BIA","USMNMNA","Minnesota Agency","MNMNA","Minnesota Agency","11","","H4F3","BLUE","","","","","","2014","2014/04/22 00:00:00+00","112","1935","Human","Arson/incendiarism","Minor","2014/04/22 00:00:00+00","112","2015","3","B","47.0958","-95.8519","BIA","MN","","",""
"-95.829991197","47.096091903","1730054","300014991","W-668111","FED","DOI-WFMI","BIA","USMNMNA","Minnesota Agency","MNMNA","Minnesota Agency","12","","H4F4","EGG","","","","","","2014","2014/04/22 00:00:00+00","112","2000","Human","Arson/incendiarism","Minor","2014/04/22 00:00:00+00","112","2005","0.3","B","47.0961","-95.83","BIA","MN","","",""
"-95.854391191","47.094391905","1730055","300014992","W-668112","FED","DOI-WFMI","BIA","USMNMNA","Minnesota Agency","MNMNA","Minnesota Agency","13","","H4F5","HOOP","","","","","","2014","2014/05/05 00:00:00+00","125","1845","Human","Arson/incendiarism","Minor","2014/05/05 00:00:00+00","125","1900","1","B","47.0944","-95.8544","BIA","MN","","",""
"-95.848091194","47.083591906","1730056","300014993","W-668113","FED","DOI-WFMI","BIA","USMNMNA","Minnesota Agency","MNMNA","Minnesota Agency","14","","H4F6","WATERTOWER","","","","","","2014","2014/05/05 00:00:00+00","125","1925","Human","Arson/incendiarism","Minor","2014/05/05 00:00:00+00","125","1945","0.5","B","47.0836","-95.8481","BIA","MN","","",""
"-95.843291195","47.091091905","1730057","300014994","W-668115","FED","DOI-WFMI","BIA","USMNMNA","Minnesota Agency","MNMNA","Minnesota Agency","15","","H4B1","VIZ II","","","","","","2014","2014/04/16 00:00:00+00","106","1845","Human","Arson/incendiarism","","2014/04/16 00:00:00+00","106","1927","0.1","A","47.0911","-95.8433","BIA","MN","","",""
"-95.378591345","46.978591884","1730058","300014995","W-668119","FED","DOI-WFMI","BIA","USMNMNA","Minnesota Agency","MNMNA","Minnesota Agency","16","","H3X3","RUNOFF","","","","","","2014","2014/04/19 00:00:00+00","109","1545","Human","Arson/incendiarism","","2014/04/19 00:00:00+00","109","1547","0.1","A","46.9786","-95.3786","BIA","MN","","",""
"-95.400791339","46.977191886","1730059","300014996","W-668120","FED","DOI-WFMI","BIA","USMNMNA","Minnesota Agency","MNMNA","Minnesota Agency","17","","H3X5","EMO","","","","","","2014","2014/04/19 00:00:00+00","109","1520","Human","Arson/incendiarism","Minor","2014/04/19 00:00:00+00","109","1525","0.2","A","46.9772","-95.4008","BIA","MN","","",""
"-95.389991341","46.980791884","1730060","300014997","W-668121","FED","DOI-WFMI","BIA","USMNMNA","Minnesota Agency","MNMNA","Minnesota Agency","18","","H3X6","LAGOON TRAIL","","","","","","2014","2014/04/19 00:00:00+00","109","1928","Human","Misuse of fire by a minor","Minor","2014/04/19 00:00:00+00","109","1936","0.1","A","46.9808","-95.39","BIA","MN","","",""
"-95.836691196","47.092791904","1730061","300014999","W-668123","FED","DOI-WFMI","BIA","USMNMNA","Minnesota Agency","MNMNA","Minnesota Agency","20","","H26Y","ATV-2","","","","","","2014","2014/04/12 00:00:00+00","102","1815","Human","Arson/incendiarism","Minor","2014/04/12 00:00:00+00","102","1820","0.1","A","47.0928","-95.8367","BIA","MN","","",""
"-95.843891194","47.095591904","1730062","300015000","W-668124","FED","DOI-WFMI","BIA","USMNMNA","Minnesota Agency","MNMNA","Minnesota Agency","21","","H27B","CRUSHER 2","","","","","","2014","2014/04/12 00:00:00+00","102","1530","Human","Arson/incendiarism","Minor","2014/04/12 00:00:00+00","102","1730","20","C","47.0956","-95.8439","BIA","MN","","",""
"-95.838291195","47.094391904","1730063","300015001","W-668125","FED","DOI-WFMI","BIA","USMNMNA","Minnesota Agency","MNMNA","Minnesota Agency","22","","H27C","ATV-1","","","","","","2014","2014/04/12 00:00:00+00","102","1815","Human","Arson/incendiarism","Minor","2014/04/12 00:00:00+00","102","1830","0.1","A","47.0944","-95.8383","BIA","MN","","",""
"-95.370591349","46.968891884","1730064","300015002","W-668126","FED","DOI-WFMI","BIA","USMNMNA","Minnesota Agency","MNMNA","Minnesota Agency","23","","H3X8","BURGANDY","","","","","","2014","2014/04/19 00:00:00+00","109","1850","Human","Arson/incendiarism","Minor","2014/04/19 00:00:00+00","109","2100","1","B","46.9689","-95.3706","BIA","MN","","",""
"-95.382791344","46.978591884","1730065","300015003","W-668127","FED","DOI-WFMI","BIA","USMNMNA","Minnesota Agency","MNMNA","Minnesota Agency","24","","H3X9","CEAR","","","","","","2014","2014/04/19 00:00:00+00","109","2015","Human","Arson/incendiarism","Minor","2014/04/19 00:00:00+00","109","2300","0.1","A","46.9786","-95.3828","BIA","MN","","",""
"-95.849991194","47.085291906","1730066","300015004","W-668128","FED","DOI-WFMI","BIA","USMNMNA","Minnesota Agency","MNMNA","Minnesota Agency","25","","H4F1","HONDA","","","","","","2014","2014/04/11 00:00:00+00","101","1745","Human","Arson/incendiarism","Minor","2014/04/11 00:00:00+00","101","2000","0.5","B","47.0853","-95.85","BIA","MN","","",""
"-95.850591191","47.098891905","1730067","300015005","W-668130","FED","DOI-WFMI","BIA","USMNMNA","Minnesota Agency","MNMNA","Minnesota Agency","26","","H4F0","SQUIRL","","","","","","2014","2014/04/12 00:00:00+00","102","1740","Human","Arson/incendiarism","","2014/04/12 00:00:00+00","102","1800","3","B","47.0989","-95.8506","BIA","MN","","",""
"-95.843291195","47.090291905","1730068","300015006","W-668131","FED","DOI-WFMI","BIA","USMNMNA","Minnesota Agency","MNMNA","Minnesota Agency","27","","H4FW","TRES","","","","","","2014","2014/04/14 00:00:00+00","104","1701","Human","Arson/incendiarism","Minor","2014/04/14 00:00:00+00","104","1715","0.3","B","47.0903","-95.8433","BIA","MN","","",""
"-95.843591195","47.090791905","1730069","300015007","W-668132","FED","DOI-WFMI","BIA","USMNMNA","Minnesota Agency","MNMNA","Minnesota Agency","28","","H4FY","DOS","","","","","","2014","2014/04/14 00:00:00+00","104","1701","Human","Arson/incendiarism","","2014/04/14 00:00:00+00","104","1719","0.1","A","47.0908","-95.8436","BIA","MN","","",""
"-95.847791192","47.096391905","1730070","300015008","W-668133","FED","DOI-WFMI","BIA","USMNMNA","Minnesota Agency","MNMNA","Minnesota Agency","29","","H4FV","BIG BOY 2","","","","","","2014","2014/04/14 00:00:00+00","104","2100","Human","Arson/incendiarism","","2014/04/14 00:00:00+00","104","2130","0.1","A","47.0964","-95.8478","BIA","MN","","",""
"-95.836891195","47.099191903","1730071","300015009","W-668134","FED","DOI-WFMI","BIA","USMNMNA","Minnesota Agency","MNMNA","Minnesota Agency","30","","H4FU","BIG BOY","","","","","","2014","2014/04/14 00:00:00+00","104","2345","Human","Arson/incendiarism","Minor","2014/04/15 00:00:00+00","105","0030","1","B","47.0992","-95.8369","BIA","MN","","",""
"-95.836691195","47.098891903","1730072","300015010","W-668135","FED","DOI-WFMI","BIA","USMNMNA","Minnesota Agency","MNMNA","Minnesota Agency","31","","H4FS","KD","","","","","","2014","2014/04/14 00:00:00+00","104","1701","Human","Debris and open burning","","2014/04/14 00:00:00+00","104","1715","0.5","B","47.0989","-95.8367","BIA","MN","","",""
"-95.833091197","47.094391904","1730073","300015011","W-668136","FED","DOI-WFMI","BIA","USMNMNA","Minnesota Agency","MNMNA","Minnesota Agency","32","","H4FT","HILLSIDE","","","","","","2014","2014/04/21 00:00:00+00","111","1155","Human","Arson/incendiarism","Minor","2014/04/21 00:00:00+00","111","1220","1.3","B","47.0944","-95.8331","BIA","MN","","",""
"-95.619691227","47.273591864","1730074","300015012","W-668137","FED","DOI-WFMI","BIA","USMNMNA","Minnesota Agency","MNMNA","Minnesota Agency","33","","H4F7","SPOT","","","","","","2014","2014/04/20 00:00:00+00","110","2050","Human","Arson/incendiarism","","2014/04/20 00:00:00+00","110","2100","0.1","A","47.2736","-95.6197","BIA","MN","","",""
"-95.626891226","47.268091865","1730075","300015013","W-668138","FED","DOI-WFMI","BIA","USMNMNA","Minnesota Agency","MNMNA","Minnesota Agency","34","","H34D","BARB WIRE","","","","","","2014","2014/05/02 00:00:00+00","122","1650","Human","Arson/incendiarism","Minor","2014/05/02 00:00:00+00","122","1730","2","B","47.2681","-95.6269","BIA","MN","","",""
"-95.626891226","47.267191865","1730076","300015022","W-668459","FED","DOI-WFMI","BIA","USMNMNA","Minnesota Agency","MNMNA","Minnesota Agency","43","","H3WE","2 FOR 1","","","","","","2014","2014/04/21 00:00:00+00","111","1915","Human","Arson/incendiarism","Minor","2014/04/21 00:00:00+00","111","1925","0.1","A","47.2672","-95.6269","BIA","MN","","",""
"-95.626691226","47.269991865","1730077","300015023","W-668461","FED","DOI-WFMI","BIA","USMNMNA","Minnesota Agency","MNMNA","Minnesota Agency","44","","H3WD","RUNNING KID","","","","","","2014","2014/04/21 00:00:00+00","111","2015","Human","Misuse of fire by a minor","Minor","2014/04/21 00:00:00+00","111","2025","0.1","A","47.27","-95.6267","BIA","MN","","",""
"-95.422191332","46.981691887","1730078","300015024","W-668462","FED","DOI-WFMI","BIA","USMNMNA","Minnesota Agency","MNMNA","Minnesota Agency","45","","H3V7","CREEPER","","","","","","2014","2014/04/29 00:00:00+00","119","1910","Human","Arson/incendiarism","Minor","2014/04/29 00:00:00+00","119","1945","2.5","B","46.9817","-95.4222","BIA","MN","","",""
"-95.851691194","47.082491907","1730079","300015025","W-668463","FED","DOI-WFMI","BIA","USMNMNA","Minnesota Agency","MNMNA","Minnesota Agency","46","","H3WR","NOSE","","","","","","2014","2014/04/20 00:00:00+00","110","1940","Human","Arson/incendiarism","Minor","2014/04/20 00:00:00+00","110","2018","0.5","B","47.0825","-95.8517","BIA","MN","","",""
"-95.842491194","47.096691904","1730080","300015026","W-668464","FED","DOI-WFMI","BIA","USMNMNA","Minnesota Agency","MNMNA","Minnesota Agency","47","","H3WQ","DOG HOUSE","","","","","","2014","2014/04/20 00:00:00+00","110","1815","Human","Debris and open burning","","2014/04/20 00:00:00+00","110","1855","0.1","A","47.0967","-95.8425","BIA","MN","","",""
"-95.369391348","46.977491883","1730081","300015028","W-668466","FED","DOI-WFMI","BIA","USMNMNA","Minnesota Agency","MNMNA","Minnesota Agency","49","","H3WN","THORPE","","","","","","2014","2014/04/21 00:00:00+00","111","1520","Human","Debris and open burning","","2014/04/21 00:00:00+00","111","1555","0.1","A","46.9775","-95.3694","BIA","MN","","",""
"-95.828891198","47.094991903","1730082","300015029","W-668467","FED","DOI-WFMI","BIA","USMNMNA","Minnesota Agency","MNMNA","Minnesota Agency","50","","H3WM","GIRLSFRIENDS GRANDMA","","","","","","2014","2014/04/22 00:00:00+00","112","1550","Human","Debris and open burning","","2014/04/22 00:00:00+00","112","1635","1.3","B","47.095","-95.8289","BIA","MN","","",""
"-95.549391288","47.02779189","1730083","300015030","W-668468","FED","DOI-WFMI","BIA","USMNMNA","Minnesota Agency","MNMNA","Minnesota Agency","51","","H3WL","ROAD JUMPER","","","","","","2014","2014/04/19 00:00:00+00","109","2215","Human","Arson/incendiarism","Minor","2014/04/19 00:00:00+00","109","2240","0.1","A","47.0278","-95.5494","BIA","MN","","",""
"-95.370591346","46.984991882","1730084","300015031","W-668469","FED","DOI-WFMI","BIA","USMNMNA","Minnesota Agency","MNMNA","Minnesota Agency","52","","H3WK","RIGHT EYE","","","","","","2014","2014/04/20 00:00:00+00","110","1821","Human","Arson/incendiarism","Minor","2014/04/20 00:00:00+00","110","1826","0.1","A","46.985","-95.3706","BIA","MN","","",""
"-95.831691197","47.094991904","1730085","300015033","W-668471","FED","DOI-WFMI","BIA","USMNMNA","Minnesota Agency","MNMNA","Minnesota Agency","54","","H3WF","OFF ROAD","","","","","","2014","2014/04/21 00:00:00+00","111","1205","Human","Arson/incendiarism","Minor","2014/04/21 00:00:00+00","111","1230","1","B","47.095","-95.8317","BIA","MN","","",""
"-95.413591334","46.983891886","1730086","300015034","W-668472","FED","DOI-WFMI","BIA","USMNMNA","Minnesota Agency","MNMNA","Minnesota Agency","55","","H3V9","NATURAL ICE","","","","","","2014","2014/04/29 00:00:00+00","119","1856","Human","Arson/incendiarism","Minor","2014/04/29 00:00:00+00","119","1900","0.1","A","46.9839","-95.4136","BIA","MN","","",""
"-95.624191227","47.269691865","1730087","300015035","W-668473","FED","DOI-WFMI","BIA","USMNMNA","Minnesota Agency","MNMNA","Minnesota Agency","56","","H3WA","BACKER","","","","","","2014","2014/04/29 00:00:00+00","119","2230","Human","Arson/incendiarism","Minor","2014/04/29 00:00:00+00","119","2255","0.3","B","47.2697","-95.6242","BIA","MN","","",""
"-95.670791227","47.191091879","1730088","300015036","W-668474","FED","DOI-WFMI","BIA","USMNMNA","Minnesota Agency","MNMNA","Minnesota Agency","57","","H4GC","MAGEE","","","","","","2014","2014/04/29 00:00:00+00","119","1430","Human","Misuse of fire by a minor","Minor","2014/04/29 00:00:00+00","119","1445","1","B","47.1911","-95.6708","BIA","MN","","",""
"-95.592191228","47.318591856","1730089","300015037","W-668478","FED","DOI-WFMI","BIA","USMNMNA","Minnesota Agency","MNMNA","Minnesota Agency","58","","H4GL","CLARK 6","","","","","","2014","2014/05/04 00:00:00+00","124","1615","Human","Misuse of fire by a minor","Minor","2014/05/04 00:00:00+00","124","1624","1","B","47.3186","-95.5922","BIA","MN","","",""
"-95.593891227","47.318091856","1730090","300015038","W-668482","FED","DOI-WFMI","BIA","USMNMNA","Minnesota Agency","MNMNA","Minnesota Agency","59","","H4GK","CLARK 5","","","","","","2014","2014/05/04 00:00:00+00","124","1615","Human","Arson/incendiarism","Minor","2014/05/04 00:00:00+00","124","1645","1","B","47.3181","-95.5939","BIA","MN","","",""
"-95.593891227","47.317791856","1730091","300015039","W-668486","FED","DOI-WFMI","BIA","USMNMNA","Minnesota Agency","MNMNA","Minnesota Agency","60","","H4GJ","CLARK 4","","","","","","2014","2014/05/04 00:00:00+00","124","1615","Human","Arson/incendiarism","Minor","2014/05/04 00:00:00+00","124","1625","0.1","A","47.3178","-95.5939","BIA","MN","","",""
"-95.594391227","47.316891856","1730092","300015040","W-668490","FED","DOI-WFMI","BIA","USMNMNA","Minnesota Agency","MNMNA","Minnesota Agency","61","","H4GH","CLARK 3","","","","","","2014","2014/05/04 00:00:00+00","124","1615","Human","Arson/incendiarism","Minor","2014/05/04 00:00:00+00","124","1640","0.1","A","47.3169","-95.5944","BIA","MN","","",""
"-95.594191227","47.315791856","1730093","300015041","W-668491","FED","DOI-WFMI","BIA","USMNMNA","Minnesota Agency","MNMNA","Minnesota Agency","62","","H4GG","CLARK 2","","","","","","2014","2014/05/04 00:00:00+00","124","1615","Human","Arson/incendiarism","Minor","2014/05/04 00:00:00+00","124","1630","0.1","A","47.3158","-95.5942","BIA","MN","","",""
"-95.591391228","47.315591856","1730094","300015042","W-668492","FED","DOI-WFMI","BIA","USMNMNA","Minnesota Agency","MNMNA","Minnesota Agency","63","","H4GF","CLARK 1","","","","","","2014","2014/05/04 00:00:00+00","124","1615","Human","Arson/incendiarism","Minor","2014/05/04 00:00:00+00","124","1620","0.1","A","47.3156","-95.5914","BIA","MN","","",""
"-95.851891191","47.098291905","1730095","300015044","W-668494","FED","DOI-WFMI","BIA","USMNMNA","Minnesota Agency","MNMNA","Minnesota Agency","65","","H4FR","SLIPPERY","","","","","","2014","2014/04/14 00:00:00+00","104","2100","Human","Arson/incendiarism","","2014/04/14 00:00:00+00","104","2140","1.5","B","47.0983","-95.8519","BIA","MN","","",""
"-95.836691195","47.099991903","1730096","300015045","W-668495","FED","DOI-WFMI","BIA","USMNMNA","Minnesota Agency","MNMNA","Minnesota Agency","66","","H4FQ","CANDY CRUSH","","","","","","2014","2014/04/16 00:00:00+00","106","1713","Human","Arson/incendiarism","","2014/04/16 00:00:00+00","106","1800","0.2","A","47.1","-95.8367","BIA","MN","","",""
"-95.844391194","47.090791905","1730097","300015046","W-668497","FED","DOI-WFMI","BIA","USMNMNA","Minnesota Agency","MNMNA","Minnesota Agency","67","","H4FP","VIZ","","","","","","2014","2014/04/16 00:00:00+00","106","1845","Human","Arson/incendiarism","","2014/04/16 00:00:00+00","106","1926","0.1","A","47.0908","-95.8444","BIA","MN","","",""
"-95.371391346","46.984191882","1730098","300015047","W-668498","FED","DOI-WFMI","BIA","USMNMNA","Minnesota Agency","MNMNA","Minnesota Agency","68","","H4BN","GARBAGE","","","","","","2014","2014/04/17 00:00:00+00","107","1900","Human","Arson/incendiarism","Minor","2014/04/17 00:00:00+00","107","1910","0.2","A","46.9842","-95.3714","BIA","MN","","",""
"-95.391191341","46.980291885","1730099","300015048","W-668499","FED","DOI-WFMI","BIA","USMNMNA","Minnesota Agency","MNMNA","Minnesota Agency","69","","H34S","WHITE TURKEY","","","","","","2014","2014/04/15 00:00:00+00","105","1710","Human","Debris and open burning","","2014/04/15 00:00:00+00","105","1830","0.5","B","46.9803","-95.3912","BIA","MN","","",""
"-95.624391227","47.266691865","1730100","300015049","W-668500","FED","DOI-WFMI","BIA","USMNMNA","Minnesota Agency","MNMNA","Minnesota Agency","70","","H34M","THE KNID","","","","","","2014","2014/04/17 00:00:00+00","107","2130","Human","Arson/incendiarism","Minor","2014/04/17 00:00:00+00","107","2359","0.1","A","47.2667","-95.6244","BIA","MN","","",""
"-95.476891262","47.311091848","1730101","300015050","W-668502","FED","DOI-WFMI","BIA","USMNMNA","Minnesota Agency","MNMNA","Minnesota Agency","71","","H34H","SOUTH END","","","","","","2014","2014/04/14 00:00:00+00","104","1510","Human","Arson/incendiarism","Minor","2014/04/14 00:00:00+00","104","2000","0.2","A","47.3111","-95.4769","BIA","MN","","",""
"-95.388891342","46.979191884","1730102","300015051","W-668503","FED","DOI-WFMI","BIA","USMNMNA","Minnesota Agency","MNMNA","Minnesota Agency","72","","H34F","BEAST","","","","","","2014","2014/04/22 00:00:00+00","112","1520","Human","Arson/incendiarism","Minor","2014/04/22 00:00:00+00","112","1700","0.5","B","46.9792","-95.3889","BIA","MN","","",""
"-95.622491229","47.261891866","1730103","300015052","W-668504","FED","DOI-WFMI","BIA","USMNMNA","Minnesota Agency","MNMNA","Minnesota Agency","73","","H47J","GRASS EATTER","","","","","","2014","2014/05/22 00:00:00+00","142","1805","Human","Debris and open burning","","2014/05/22 00:00:00+00","142","1840","0.1","A","47.2619","-95.6225","BIA","MN","","",""
"-95.392191341","46.979691885","1730104","300015053","W-668505","FED","DOI-WFMI","BIA","USMNMNA","Minnesota Agency","MNMNA","Minnesota Agency","74","","H3X2","SMOKE JUMPER","","","","","","2014","2014/04/19 00:00:00+00","109","1601","Human","Arson/incendiarism","","2014/04/19 00:00:00+00","109","1618","0.2","A","46.9797","-95.3922","BIA","MN","","",""
"-95.415791334","46.982791886","1730105","300015054","W-668506","FED","DOI-WFMI","BIA","USMNMNA","Minnesota Agency","MNMNA","Minnesota Agency","75","","H3X1","SAFE","","","","","","2014","2014/04/19 00:00:00+00","109","1625","Human","Arson/incendiarism","Minor","2014/04/19 00:00:00+00","109","1641","0.2","A","46.9828","-95.4158","BIA","MN","","",""
"-95.639191222","47.273091865","1730106","300015057","W-668509","FED","DOI-WFMI","BIA","USMNMNA","Minnesota Agency","MNMNA","Minnesota Agency","78","","H47B","BIG FEET","","","","","","2014","2014/05/16 00:00:00+00","136","1201","Human","Arson/incendiarism","","2014/05/16 00:00:00+00","136","1312","1","B","47.2731","-95.6392","BIA","MN","","",""
"-95.496091243","47.390791839","1730107","300015058","W-668510","FED","DOI-WFMI","BIA","USMNMNA","Minnesota Agency","MNMNA","Minnesota Agency","79","","H47A","SHORT CUT","","","","","","2014","2014/04/20 00:00:00+00","110","1835","Human","Debris and open burning","","2014/04/20 00:00:00+00","110","1900","0.2","A","47.3908","-95.4961","BIA","MN","","",""
"-95.644991219","47.279391865","1730108","300015059","W-668511","FED","DOI-WFMI","BIA","USMNMNA","Minnesota Agency","MNMNA","Minnesota Agency","80","","H46Z","BIG SHOE","","","","","","2014","2014/05/16 00:00:00+00","136","1201","Human","Debris and open burning","","2014/05/16 00:00:00+00","136","1215","0.1","A","47.2794","-95.645","BIA","MN","","",""
"-95.853291191","47.094691905","1730109","300015061","W-668513","FED","DOI-WFMI","BIA","USMNMNA","Minnesota Agency","MNMNA","Minnesota Agency","82","","H3XY","LYNX","","","","","","2014","2014/04/20 00:00:00+00","110","1535","Human","Arson/incendiarism","Minor","2014/04/20 00:00:00+00","110","1542","0.1","A","47.0947","-95.8533","BIA","MN","","",""
"-95.378591345","46.978591884","1730110","300015065","W-668517","FED","DOI-WFMI","BIA","USMNMNA","Minnesota Agency","MNMNA","Minnesota Agency","86","","H3YF","PICKLES","","","","","","2014","2014/04/18 00:00:00+00","108","1558","Human","Arson/incendiarism","Minor","2014/04/18 00:00:00+00","108","1603","0.1","A","46.9786","-95.3786","BIA","MN","","",""
"-95.370791347","46.979991883","1730111","300015067","W-668520","FED","DOI-WFMI","BIA","USMNMNA","Minnesota Agency","MNMNA","Minnesota Agency","88","","H3YD","EMPTY","","","","","","2014","2014/04/18 00:00:00+00","108","2030","Human","Arson/incendiarism","Minor","2014/04/18 00:00:00+00","108","2100","1","B","46.98","-95.3708","BIA","MN","","",""
"-95.370791347","46.977791883","1730112","300015068","W-668521","FED","DOI-WFMI","BIA","USMNMNA","Minnesota Agency","MNMNA","Minnesota Agency","89","","H3YC","MONTE CARLO","","","","","","2014","2014/04/18 00:00:00+00","108","1930","Human","Arson/incendiarism","Minor","2014/04/18 00:00:00+00","108","1955","1","B","46.9778","-95.3708","BIA","MN","","",""
"-95.392491341","46.978891885","1730113","300015069","W-668522","FED","DOI-WFMI","BIA","USMNMNA","Minnesota Agency","MNMNA","Minnesota Agency","90","","H3YB","ALLIE","","","","","","2014","2014/04/18 00:00:00+00","108","1604","Human","Arson/incendiarism","Minor","2014/04/18 00:00:00+00","108","1615","1","B","46.9789","-95.3925","BIA","MN","","",""
"-95.413291333","46.989521885","1730114","300015071","W-668524","FED","DOI-WFMI","BIA","USMNMNA","Minnesota Agency","MNMNA","Minnesota Agency","92","","H27T","ASPENWALL","","","","","","2014","2014/04/12 00:00:00+00","102","1400","Human","Missing data/not specified/undetermined","","2014/04/12 00:00:00+00","102","1430","2.5","B","46.98953","-95.4133","BIA","MN","","",""
"-95.837791196","47.094691904","1730115","300015072","W-668525","FED","DOI-WFMI","BIA","USMNMNA","Minnesota Agency","MNMNA","Minnesota Agency","93","","H27L","CRUSHER 1","","","","","","2014","2014/04/12 00:00:00+00","102","2015","Human","Arson/incendiarism","Minor","2014/04/12 00:00:00+00","102","2100","0.1","A","47.0947","-95.8378","BIA","MN","","",""
"-95.855591191","47.094191906","1730116","300015073","W-668526","FED","DOI-WFMI","BIA","USMNMNA","Minnesota Agency","MNMNA","Minnesota Agency","94","","H27J","PEPTO","","","","","","2014","2014/04/10 00:00:00+00","100","1320","Human","Debris and open burning","","2014/04/10 00:00:00+00","100","1335","0.2","A","47.0942","-95.8556","BIA","MN","","",""
"-95.851091192","47.094991905","1730117","300015074","W-668527","FED","DOI-WFMI","BIA","USMNMNA","Minnesota Agency","MNMNA","Minnesota Agency","95","","H27H","WINDWALKER","","","","","","2014","2014/04/12 00:00:00+00","102","2330","Human","Arson/incendiarism","","2014/04/13 00:00:00+00","103","0045","3","B","47.095","-95.8511","BIA","MN","","",""
"-95.853291191","47.094191905","1730118","300015081","W-668536","FED","DOI-WFMI","BIA","USMNMNA","Minnesota Agency","MNMNA","Minnesota Agency","102","","H6UM","CUJO","","","","","","2014","2014/05/05 00:00:00+00","125","1855","Human","Arson/incendiarism","","2014/05/05 00:00:00+00","125","2000","0.1","A","47.0942","-95.8533","BIA","MN","","",""
"-95.387191342","46.979691884","1730119","300015082","W-676672","FED","DOI-WFMI","BIA","USMNMNA","Minnesota Agency","MNMNA","Minnesota Agency","103","","JF5W","BASSWOOD","","","","","","2014","2014/10/16 00:00:00+00","289","1640","Human","Arson/incendiarism","","2014/10/16 00:00:00+00","289","1930","8","B","46.9797","-95.3872","BIA","MN","","",""
"-95.491691244","47.390291839","1730120","300015085","W-676676","FED","DOI-WFMI","BIA","USMNMNA","Minnesota Agency","MNMNA","Minnesota Agency","106","","JF52","RICE LK BALL FIELD","","","","","","2014","2014/10/24 00:00:00+00","297","1500","Human","Arson/incendiarism","","2014/10/24 00:00:00+00","297","1530","2","B","47.3903","-95.4917","BIA","MN","","",""
"-95.684191244","47.064191896","1730121","300015086","W-676677","FED","DOI-WFMI","BIA","USMNMNA","Minnesota Agency","MNMNA","Minnesota Agency","107","","JF51","RASPBERRY","","","","","","2014","2014/10/25 00:00:00+00","298","2010","Human","Arson/incendiarism","","2014/10/26 00:00:00+00","299","1430","3","B","47.0642","-95.6842","BIA","MN","","",""
"-95.371691346","46.986391882","1730122","300015087","W-676678","FED","DOI-WFMI","BIA","USMNMNA","Minnesota Agency","MNMNA","Minnesota Agency","108","","JF50","GOODYEAR","","","","","","2014","2014/10/25 00:00:00+00","298","1640","Human","Debris and open burning","","2014/10/25 00:00:00+00","298","1800","0.3","B","46.9864","-95.3717","BIA","MN","","",""
"-95.242791232","47.878891756","1730123","300015222","W-668533","FED","DOI-WFMI","BIA","USMNRLA","Red Lake Agency","MNRLA","Red Lake Agency","1","","H2Z4","RL 001","","","","","","2014","2014/04/09 00:00:00+00","99","1630","Human","Debris and open burning","","2014/04/09 00:00:00+00","99","1630","46","C","47.8789","-95.2428","BIA","MN","","",""
"-95.016691297","47.875491739","1730124","300015223","W-668538","FED","DOI-WFMI","BIA","USMNRLA","Red Lake Agency","MNRLA","Red Lake Agency","2","","H2Z5","RL 002","","","","","","2014","2014/04/09 00:00:00+00","99","1717","Human","Debris and open burning","","2014/04/09 00:00:00+00","99","1735","0.3","B","47.8755","-95.0167","BIA","MN","","",""
"-95.021891295","47.878291739","1730125","300015224","W-668539","FED","DOI-WFMI","BIA","USMNRLA","Red Lake Agency","MNRLA","Red Lake Agency","3","","H2Z6","RL 003","","","","","","2014","2014/04/09 00:00:00+00","99","1235","Human","Debris and open burning","","2014/04/10 00:00:00+00","100","0010","0.5","B","47.8783","-95.0219","BIA","MN","","",""
"-94.928591322","47.876891732","1730126","300015225","W-668542","FED","DOI-WFMI","BIA","USMNRLA","Red Lake Agency","MNRLA","Red Lake Agency","4","","H25H","RL 004","","","","","","2014","2014/04/10 00:00:00+00","100","1052","Human","Debris and open burning","","2014/04/10 00:00:00+00","100","1115","0.3","B","47.8769","-94.9286","BIA","MN","","",""
"-94.24609152","47.882191678","1730127","300015226","W-668543","FED","DOI-WFMI","BIA","USMNRLA","Red Lake Agency","MNRLA","Red Lake Agency","5","","H25J","RL 005","","","","","","2014","2014/04/10 00:00:00+00","100","1123","Human","Debris and open burning","","2014/04/10 00:00:00+00","100","1301","50","C","47.8822","-94.2461","BIA","MN","","",""
"-95.092191277","47.869191746","1730128","300015227","W-668549","FED","DOI-WFMI","BIA","USMNRLA","Red Lake Agency","MNRLA","Red Lake Agency","6","","H25K","RL006","","","","","","2014","2014/04/10 00:00:00+00","100","1439","Human","Debris and open burning","","2014/04/10 00:00:00+00","100","1506","1.5","B","47.8692","-95.0922","BIA","MN","","",""
"-94.995491304","47.871891738","1730129","300015228","W-668550","FED","DOI-WFMI","BIA","USMNRLA","Red Lake Agency","MNRLA","Red Lake Agency","7","","H25L","RL 007","","","","","","2014","2014/04/10 00:00:00+00","100","1700","Human","Misuse of fire by a minor","Minor","2014/04/10 00:00:00+00","100","1720","1","B","47.8719","-94.9955","BIA","MN","","",""
"-95.021091297","47.87049174","1730130","300015229","W-668551","FED","DOI-WFMI","BIA","USMNRLA","Red Lake Agency","MNRLA","Red Lake Agency","8","","H25M","RL 008","","","","","","2014","2014/04/10 00:00:00+00","100","1730","Human","Misuse of fire by a minor","Minor","2014/04/10 00:00:00+00","100","1752","0.1","A","47.8705","-95.0211","BIA","MN","","",""
"-94.991391305","47.872191737","1730131","300015230","W-668552","FED","DOI-WFMI","BIA","USMNRLA","Red Lake Agency","MNRLA","Red Lake Agency","9","","H25N","RL 009","","","","","","2014","2014/04/10 00:00:00+00","100","1815","Human","Misuse of fire by a minor","Minor","2014/04/10 00:00:00+00","100","1830","1","B","47.8722","-94.9914","BIA","MN","","",""
"-94.991391305","47.872191737","1730132","300015231","W-668553","FED","DOI-WFMI","BIA","USMNRLA","Red Lake Agency","MNRLA","Red Lake Agency","10","","H25P","RL 010","","","","","","2014","2014/04/10 00:00:00+00","100","1910","Human","Misuse of fire by a minor","Minor","2014/04/10 00:00:00+00","100","1930","2","B","47.8722","-94.9914","BIA","MN","","",""
"-95.038591297","47.842191745","1730133","300015232","W-668554","FED","DOI-WFMI","BIA","USMNRLA","Red Lake Agency","MNRLA","Red Lake Agency","11","","H25Q","RL 011","","","","","","2014","2014/04/10 00:00:00+00","100","2300","Human","Debris and open burning","","2014/04/10 00:00:00+00","100","2315","0.1","A","47.8422","-95.0386","BIA","MN","","",""
"-94.978891308","47.876091736","1730134","300015233","W-668555","FED","DOI-WFMI","BIA","USMNRLA","Red Lake Agency","MNRLA","Red Lake Agency","12","","H25R","RL 012","","","","","","2014","2014/04/11 00:00:00+00","101","1440","Human","Debris and open burning","","2014/04/11 00:00:00+00","101","1500","1","B","47.8761","-94.9789","BIA","MN","","",""
"-95.021391296","47.876691739","1730135","300015234","W-668556","FED","DOI-WFMI","BIA","USMNRLA","Red Lake Agency","MNRLA","Red Lake Agency","13","","H25S","RL 013","","","","","","2014","2014/04/11 00:00:00+00","101","1545","Human","Misuse of fire by a minor","Minor","2014/04/11 00:00:00+00","101","1545","0.3","B","47.8767","-95.0214","BIA","MN","","",""
"-94.866391344","47.858891729","1730136","300015235","W-668636","FED","DOI-WFMI","BIA","USMNRLA","Red Lake Agency","MNRLA","Red Lake Agency","14","","H25T","RL 014","","","","","","2014","2014/04/11 00:00:00+00","101","1612","Human","Missing data/not specified/undetermined","","2014/04/11 00:00:00+00","101","1630","3","B","47.8589","-94.8664","BIA","MN","","",""
"-94.916391325","47.88139173","1730137","300015236","W-668637","FED","DOI-WFMI","BIA","USMNRLA","Red Lake Agency","MNRLA","Red Lake Agency","15","","H25U","RL 015","","","","","","2014","2014/04/11 00:00:00+00","101","1715","Human","Misuse of fire by a minor","Minor","2014/04/11 00:00:00+00","101","1732","1","B","47.8814","-94.9164","BIA","MN","","",""
"-95.020291295","47.880291739","1730138","300015237","W-668639","FED","DOI-WFMI","BIA","USMNRLA","Red Lake Agency","MNRLA","Red Lake Agency","16","","H25V","RL 016","","","","","","2014","2014/04/11 00:00:00+00","101","2030","Human","Debris and open burning","","2014/04/11 00:00:00+00","101","2130","3","B","47.8803","-95.0203","BIA","MN","","",""
"-95.04419129","47.869391742","1730139","300015238","W-668640","FED","DOI-WFMI","BIA","USMNRLA","Red Lake Agency","MNRLA","Red Lake Agency","17","","H25W","RL 017","","","","","","2014","2014/04/12 00:00:00+00","102","1240","Human","Arson/incendiarism","","2014/04/12 00:00:00+00","102","1325","1.5","B","47.8694","-95.0442","BIA","MN","","",""
"-95.055791286","47.874191742","1730140","300015239","W-668641","FED","DOI-WFMI","BIA","USMNRLA","Red Lake Agency","MNRLA","Red Lake Agency","18","","H25Z","RL 018","","","","","","2014","2014/04/12 00:00:00+00","102","1332","Human","Arson/incendiarism","","2014/04/12 00:00:00+00","102","1355","1","B","47.8742","-95.0558","BIA","MN","","",""
"-95.019391297","47.874991739","1730141","300015240","W-668642","FED","DOI-WFMI","BIA","USMNRLA","Red Lake Agency","MNRLA","Red Lake Agency","19","","H26A","RL 019","","","","","","2014","2014/04/12 00:00:00+00","102","1410","Human","Debris and open burning","","2014/04/12 00:00:00+00","102","1430","1","B","47.875","-95.0194","BIA","MN","","",""
"-94.992191306","47.867991738","1730142","300015241","W-669374","FED","DOI-WFMI","BIA","USMNRLA","Red Lake Agency","MNRLA","Red Lake Agency","20","","H3A9","RL 020","","","","","","2014","2014/04/17 00:00:00+00","107","1455","Human","Debris and open burning","","2014/04/17 00:00:00+00","107","1515","0.1","A","47.868","-94.9922","BIA","MN","","",""
"-94.903591304","48.022191711","1730143","300015242","W-669377","FED","DOI-WFMI","BIA","USMNRLA","Red Lake Agency","MNRLA","Red Lake Agency","21","","H3EH","RL 021","","","","","","2014","2014/04/16 00:00:00+00","106","1502","Human","Misuse of fire by a minor","Minor","2014/04/16 00:00:00+00","106","1613","0.5","B","48.0222","-94.9036","BIA","MN","","",""
"-95.021091296","47.874991739","1730144","300015243","W-669378","FED","DOI-WFMI","BIA","USMNRLA","Red Lake Agency","MNRLA","Red Lake Agency","22","","H3BA","RL 022","","","","","","2014","2014/04/18 00:00:00+00","108","1930","Human","Debris and open burning","","2014/04/18 00:00:00+00","108","1950","0.2","A","47.875","-95.0211","BIA","MN","","",""
"-94.982991308","47.869191737","1730145","300015244","W-669379","FED","DOI-WFMI","BIA","USMNRLA","Red Lake Agency","MNRLA","Red Lake Agency","23","","H3BB","RL 023","","","","","","2014","2014/04/15 00:00:00+00","105","1650","Human","Debris and open burning","","2014/04/15 00:00:00+00","105","1710","1","B","47.8692","-94.983","BIA","MN","","",""
"-94.991891305","47.874991737","1730146","300015245","W-669381","FED","DOI-WFMI","BIA","USMNRLA","Red Lake Agency","MNRLA","Red Lake Agency","24","","H3BC","RL 024","","","","","","2014","2014/04/15 00:00:00+00","105","1705","Human","Misuse of fire by a minor","Minor","2014/04/15 00:00:00+00","105","1750","1.5","B","47.875","-94.9919","BIA","MN","","",""
"-94.879391337","47.876391728","1730147","300015246","W-669383","FED","DOI-WFMI","BIA","USMNRLA","Red Lake Agency","MNRLA","Red Lake Agency","25","","H3BD","RL 025","","","","","","2014","2014/04/15 00:00:00+00","105","1630","Human","Misuse of fire by a minor","Minor","2014/04/15 00:00:00+00","105","1743","10","C","47.8764","-94.8794","BIA","MN","","",""
"-95.282991213","47.920491754","1730148","300015247","W-669384","FED","DOI-WFMI","BIA","USMNRLA","Red Lake Agency","MNRLA","Red Lake Agency","26","","H3BH","RL 026","","","","","","2014","2014/04/15 00:00:00+00","105","1740","Human","Arson/incendiarism","","2014/04/15 00:00:00+00","105","1813","1.5","B","47.9205","-95.283","BIA","MN","","",""
"-94.910291328","47.875291731","1730149","300015248","W-669386","FED","DOI-WFMI","BIA","USMNRLA","Red Lake Agency","MNRLA","Red Lake Agency","27","","H3B3","RL 027","","","","","","2014","2014/04/15 00:00:00+00","105","1845","Human","Misuse of fire by a minor","Minor","2014/04/15 00:00:00+00","105","1905","0.5","B","47.8753","-94.9103","BIA","MN","","",""
"-94.895791332","47.875491729","1730150","300015249","W-669387","FED","DOI-WFMI","BIA","USMNRLA","Red Lake Agency","MNRLA","Red Lake Agency","28","","H3BF","RL 028","","","","","","2014","2014/04/15 00:00:00+00","105","1900","Human","Misuse of fire by a minor","Minor","2014/04/15 00:00:00+00","105","1920","0.1","A","47.8755","-94.8958","BIA","MN","","",""
"-94.873591339","47.874991728","1730151","300015250","W-669388","FED","DOI-WFMI","BIA","USMNRLA","Red Lake Agency","MNRLA","Red Lake Agency","29","","H3BJ","RL 029","","","","","","2014","2014/04/15 00:00:00+00","105","0800","Human","Misuse of fire by a minor","Minor","2014/04/15 00:00:00+00","105","0815","0.3","B","47.875","-94.8736","BIA","MN","","",""
"-95.021391296","47.874191739","1730152","300015251","W-669393","FED","DOI-WFMI","BIA","USMNRLA","Red Lake Agency","MNRLA","Red Lake Agency","30","","H3CV","RL 030","","","","","","2014","2014/04/15 00:00:00+00","105","2030","Human","Misuse of fire by a minor","Minor","2014/04/15 00:00:00+00","105","2040","0.3","B","47.8742","-95.0214","BIA","MN","","",""
"-94.995791304","47.872791738","1730153","300015252","W-669395","FED","DOI-WFMI","BIA","USMNRLA","Red Lake Agency","MNRLA","Red Lake Agency","31","","H3EJ","RL 031","","","","","","2014","2014/04/16 00:00:00+00","106","1203","Human","Debris and open burning","","2014/04/16 00:00:00+00","106","1223","1","B","47.8728","-94.9958","BIA","MN","","",""
"-95.038891291","47.873291741","1730154","300015253","W-669397","FED","DOI-WFMI","BIA","USMNRLA","Red Lake Agency","MNRLA","Red Lake Agency","32","","H3CW","RL 032","","","","","","2014","2014/04/16 00:00:00+00","106","1330","Human","Arson/incendiarism","","2014/04/16 00:00:00+00","106","1340","0.1","A","47.8733","-95.0389","BIA","MN","","",""
"-94.982991309","47.866391737","1730155","300015254","W-669398","FED","DOI-WFMI","BIA","USMNRLA","Red Lake Agency","MNRLA","Red Lake Agency","33","","H3E0","RL 033","","","","","","2014","2014/04/17 00:00:00+00","107","2200","Human","Misuse of fire by a minor","Minor","2014/04/17 00:00:00+00","107","2359","0.5","B","47.8664","-94.983","BIA","MN","","",""
"-94.913291327","47.875291731","1730156","300015255","W-669399","FED","DOI-WFMI","BIA","USMNRLA","Red Lake Agency","MNRLA","Red Lake Agency","34","","H3CX","RL 034","","","","","","2014","2014/04/16 00:00:00+00","106","1249","Human","Other causes","","2014/04/16 00:00:00+00","106","1249","0.5","B","47.8753","-94.9133","BIA","MN","","",""
"-95.26969122","47.901091755","1730157","300015256","W-669400","FED","DOI-WFMI","BIA","USMNRLA","Red Lake Agency","MNRLA","Red Lake Agency","35","","H3CY","RL 035","","","","","","2014","2014/04/16 00:00:00+00","106","1340","Human","Debris and open burning","","2014/04/16 00:00:00+00","106","1413","0.5","B","47.9011","-95.2697","BIA","MN","","",""
"-95.011391299","47.876391738","1730158","300015257","W-669402","FED","DOI-WFMI","BIA","USMNRLA","Red Lake Agency","MNRLA","Red Lake Agency","36","","H3EK","RL 036","","","","","","2014","2014/04/16 00:00:00+00","106","1415","Human","Debris and open burning","","2014/04/16 00:00:00+00","106","1425","1","B","47.8764","-95.0114","BIA","MN","","",""
"-94.980291277","48.050791714","1730159","300015258","W-669403","FED","DOI-WFMI","BIA","USMNRLA","Red Lake Agency","MNRLA","Red Lake Agency","37","","H3CZ","RL 037","","","","","","2014","2014/04/16 00:00:00+00","106","1541","Human","Misuse of fire by a minor","Minor","2014/04/16 00:00:00+00","106","1547","0.1","A","48.0508","-94.9803","BIA","MN","","",""
"-94.815291357","47.865791724","1730160","300015259","W-669404","FED","DOI-WFMI","BIA","USMNRLA","Red Lake Agency","MNRLA","Red Lake Agency","38","","H3C2","RL 038","","","","","","2014","2014/04/16 00:00:00+00","106","1715","Human","Debris and open burning","","2014/04/16 00:00:00+00","106","1737","0.1","A","47.8658","-94.8153","BIA","MN","","",""
"-95.019191296","47.879991738","1730161","300015260","W-669405","FED","DOI-WFMI","BIA","USMNRLA","Red Lake Agency","MNRLA","Red Lake Agency","39","","H3C3","RL 039","","","","","","2014","2014/04/16 00:00:00+00","106","1745","Human","Misuse of fire by a minor","Minor","2014/04/16 00:00:00+00","106","1750","0.2","A","47.88","-95.0192","BIA","MN","","",""
"-95.016391298","47.874691739","1730162","300015261","W-669406","FED","DOI-WFMI","BIA","USMNRLA","Red Lake Agency","MNRLA","Red Lake Agency","40","","H3DF","RL 040","","","","","","2014","2014/04/16 00:00:00+00","106","1747","Human","Misuse of fire by a minor","Minor","2014/04/16 00:00:00+00","106","1800","0.1","A","47.8747","-95.0164","BIA","MN","","",""
"-95.019191296","47.879991738","1730163","300015262","W-669407","FED","DOI-WFMI","BIA","USMNRLA","Red Lake Agency","MNRLA","Red Lake Agency","41","","H3C5","RL 041","","","","","","2014","2014/04/16 00:00:00+00","106","1800","Human","Misuse of fire by a minor","Minor","2014/04/16 00:00:00+00","106","1820","2","B","47.88","-95.0192","BIA","MN","","",""
"-95.020291296","47.875291739","1730164","300015263","W-669408","FED","DOI-WFMI","BIA","USMNRLA","Red Lake Agency","MNRLA","Red Lake Agency","42","","H3EL","RL 042","","","","","","2014","2014/04/16 00:00:00+00","106","1807","Human","Misuse of fire by a minor","Minor","2014/04/16 00:00:00+00","106","1826","0.3","B","47.8753","-95.0203","BIA","MN","","",""
"-95.017191298","47.87079174","1730165","300015264","W-669409","FED","DOI-WFMI","BIA","USMNRLA","Red Lake Agency","MNRLA","Red Lake Agency","43","","H3C6","RL 043","","","","","","2014","2014/04/16 00:00:00+00","106","1845","Human","Misuse of fire by a minor","Minor","2014/04/16 00:00:00+00","106","1855","0.1","A","47.8708","-95.0172","BIA","MN","","",""
"-95.012791299","47.872491739","1730166","300015265","W-669411","FED","DOI-WFMI","BIA","USMNRLA","Red Lake Agency","MNRLA","Red Lake Agency","44","","H3EM","RL 044","","","","","","2014","2014/04/16 00:00:00+00","106","1800","Human","Missing data/not specified/undetermined","","2014/04/16 00:00:00+00","106","1850","0.2","A","47.8725","-95.0128","BIA","MN","","",""
"-94.999691303","47.873291738","1730167","300015266","W-669412","FED","DOI-WFMI","BIA","USMNRLA","Red Lake Agency","MNRLA","Red Lake Agency","45","","H3C7","RL 045","","","","","","2014","2014/04/16 00:00:00+00","106","1915","Human","Misuse of fire by a minor","Minor","2014/04/16 00:00:00+00","106","1925","0.3","B","47.8733","-94.9997","BIA","MN","","",""
"-95.218291241","47.867191756","1730168","300015267","W-669415","FED","DOI-WFMI","BIA","USMNRLA","Red Lake Agency","MNRLA","Red Lake Agency","46","","H3C9","RL 046","","","","","","2014","2014/04/16 00:00:00+00","106","1600","Human","Arson/incendiarism","","2014/04/16 00:00:00+00","106","1630","1.5","B","47.8672","-95.2183","BIA","MN","","",""
"-94.953291316","47.870291735","1730169","300015268","W-669464","FED","DOI-WFMI","BIA","USMNRLA","Red Lake Agency","MNRLA","Red Lake Agency","47","","H3EN","RL 047","","","","","","2014","2014/04/17 00:00:00+00","107","1306","Human","Misuse of fire by a minor","Minor","2014/04/17 00:00:00+00","107","1342","4","B","47.8703","-94.9533","BIA","MN","","",""
"-95.072191282","47.869191744","1730170","300015269","W-669465","FED","DOI-WFMI","BIA","USMNRLA","Red Lake Agency","MNRLA","Red Lake Agency","48","","H3ED","RL 048","","","","","","2014","2014/04/17 00:00:00+00","107","1505","Human","Debris and open burning","","2014/04/17 00:00:00+00","107","1528","1","B","47.8692","-95.0722","BIA","MN","","",""
"-95.153291259","47.86939175","1730171","300015270","W-669467","FED","DOI-WFMI","BIA","USMNRLA","Red Lake Agency","MNRLA","Red Lake Agency","49","","H3EQ","RL 049","","","","","","2014","2014/04/17 00:00:00+00","107","1515","Human","Misuse of fire by a minor","Minor","2014/04/17 00:00:00+00","107","1530","0.1","A","47.8694","-95.1533","BIA","MN","","",""
"-95.153291259","47.86939175","1730172","300015271","W-669468","FED","DOI-WFMI","BIA","USMNRLA","Red Lake Agency","MNRLA","Red Lake Agency","50","","H3ER","RL 050","","","","","","2014","2014/04/17 00:00:00+00","107","1540","Human","Arson/incendiarism","","2014/04/17 00:00:00+00","107","1550","0.5","B","47.8694","-95.1533","BIA","MN","","",""
"-94.872791314","48.019191709","1730173","300015272","W-669469","FED","DOI-WFMI","BIA","USMNRLA","Red Lake Agency","MNRLA","Red Lake Agency","51","","H3ES","RL 051","","","","","","2014","2014/04/17 00:00:00+00","107","1716","Human","Misuse of fire by a minor","Minor","2014/04/17 00:00:00+00","107","1743","0.2","A","48.0192","-94.8728","BIA","MN","","",""
"-94.90719133","47.871691731","1730174","300015273","W-669470","FED","DOI-WFMI","BIA","USMNRLA","Red Lake Agency","MNRLA","Red Lake Agency","52","","H3ET","RL 052","","","","","","2014","2014/04/17 00:00:00+00","107","1740","Human","Debris and open burning","","2014/04/17 00:00:00+00","107","1800","2","B","47.8717","-94.9072","BIA","MN","","",""
"-94.89969133","47.879691729","1730175","300015274","W-669471","FED","DOI-WFMI","BIA","USMNRLA","Red Lake Agency","MNRLA","Red Lake Agency","53","","H3EU","RL 053","","","","","","2014","2014/04/17 00:00:00+00","107","1820","Human","Misuse of fire by a minor","Minor","2014/04/17 00:00:00+00","107","2011","1","B","47.8797","-94.8997","BIA","MN","","",""
"-95.079691281","47.865491745","1730176","300015275","W-669472","FED","DOI-WFMI","BIA","USMNRLA","Red Lake Agency","MNRLA","Red Lake Agency","54","","H3EV","RL 054","","","","","","2014","2014/04/17 00:00:00+00","107","1800","Human","Missing data/not specified/undetermined","","2014/04/17 00:00:00+00","107","1900","0.5","B","47.8655","-95.0797","BIA","MN","","",""
"-94.917791301","48.018591713","1730177","300015276","W-669473","FED","DOI-WFMI","BIA","USMNRLA","Red Lake Agency","MNRLA","Red Lake Agency","55","","H3EW","RL 055","","","","","","2014","2014/04/17 00:00:00+00","107","1945","Human","Debris and open burning","","2014/04/17 00:00:00+00","107","2002","0.3","B","48.0186","-94.9178","BIA","MN","","",""
"-95.171891254","47.869991752","1730178","300015277","W-669476","FED","DOI-WFMI","BIA","USMNRLA","Red Lake Agency","MNRLA","Red Lake Agency","56","","H3EX","RL 056","","","","","","2014","2014/04/17 00:00:00+00","107","1925","Human","Debris and open burning","","2014/04/17 00:00:00+00","107","2005","2.5","B","47.87","-95.1719","BIA","MN","","",""
"-94.922991326","47.868591732","1730179","300015278","W-669480","FED","DOI-WFMI","BIA","USMNRLA","Red Lake Agency","MNRLA","Red Lake Agency","57","","H3EY","RL 057","","","","","","2014","2014/04/17 00:00:00+00","107","1920","Human","Misuse of fire by a minor","Minor","2014/04/17 00:00:00+00","107","2015","0.5","B","47.8686","-94.923","BIA","MN","","",""
"-95.0102913","47.871691739","1730180","300015279","W-669481","FED","DOI-WFMI","BIA","USMNRLA","Red Lake Agency","MNRLA","Red Lake Agency","58","","H3EZ","RL 058","","","","","","2014","2014/04/17 00:00:00+00","107","1930","Human","Misuse of fire by a minor","Minor","2014/04/17 00:00:00+00","107","1959","1","B","47.8717","-95.0103","BIA","MN","","",""
"-94.963591313","47.876091735","1730181","300015280","W-669482","FED","DOI-WFMI","BIA","USMNRLA","Red Lake Agency","MNRLA","Red Lake Agency","59","","H3FW","RL 059","","","","","","2014","2014/04/17 00:00:00+00","107","1100","Human","Debris and open burning","","2014/04/17 00:00:00+00","107","1137","0.3","B","47.8761","-94.9636","BIA","MN","","",""
"-95.32689121","47.864691765","1730182","300015281","W-669484","FED","DOI-WFMI","BIA","USMNRLA","Red Lake Agency","MNRLA","Red Lake Agency","60","","H3FD","RL 060","","","","","","2014","2014/04/18 00:00:00+00","108","1145","Human","Arson/incendiarism","","2014/04/18 00:00:00+00","108","1155","0.5","B","47.8647","-95.3269","BIA","MN","","",""
"-94.997191303","47.872491738","1730183","300015282","W-670216","FED","DOI-WFMI","BIA","USMNRLA","Red Lake Agency","MNRLA","Red Lake Agency","61","","H3HW","RL 061","","","","","","2014","2014/04/18 00:00:00+00","108","1135","Human","Debris and open burning","","2014/04/18 00:00:00+00","108","1205","0.5","B","47.8725","-94.9972","BIA","MN","","",""
"-94.886691334","47.878891728","1730184","300015283","W-670003","FED","DOI-WFMI","BIA","USMNRLA","Red Lake Agency","MNRLA","Red Lake Agency","62","","H3LF","RL 062","","","","","","2014","2014/04/18 00:00:00+00","108","1200","Human","Misuse of fire by a minor","Minor","2014/04/18 00:00:00+00","108","1230","1","B","47.8789","-94.8867","BIA","MN","","",""
"-94.893591333","47.875491729","1730185","300015284","W-670005","FED","DOI-WFMI","BIA","USMNRLA","Red Lake Agency","MNRLA","Red Lake Agency","63","","H3FG","RL 063","","","","","","2014","2014/04/18 00:00:00+00","108","1210","Human","Misuse of fire by a minor","Minor","2014/04/18 00:00:00+00","108","1216","1.5","B","47.8755","-94.8936","BIA","MN","","",""
"-94.921391325","47.877191731","1730186","300015285","W-670217","FED","DOI-WFMI","BIA","USMNRLA","Red Lake Agency","MNRLA","Red Lake Agency","64","","H3HY","RL 064","","","","","","2014","2014/04/18 00:00:00+00","108","1210","Human","Misuse of fire by a minor","Minor","2014/04/18 00:00:00+00","108","1225","0.2","A","47.8772","-94.9214","BIA","MN","","",""
"-94.992791272","48.058591714","1730187","300015286","W-670218","FED","DOI-WFMI","BIA","USMNRLA","Red Lake Agency","MNRLA","Red Lake Agency","65","","H3HZ","RL 065","","","","","","2014","2014/04/18 00:00:00+00","108","1240","Human","Arson/incendiarism","","2014/04/18 00:00:00+00","108","1320","1.5","B","48.0586","-94.9928","BIA","MN","","",""
"-94.984191308","47.867791737","1730188","300015287","W-670006","FED","DOI-WFMI","BIA","USMNRLA","Red Lake Agency","MNRLA","Red Lake Agency","66","","H3FH","RL 066","","","","","","2014","2014/04/18 00:00:00+00","108","1220","Human","Arson/incendiarism","Minor","2014/04/18 00:00:00+00","108","1240","1.5","B","47.8678","-94.9842","BIA","MN","","",""
"-94.909991328","47.87859173","1730189","300015288","W-670007","FED","DOI-WFMI","BIA","USMNRLA","Red Lake Agency","MNRLA","Red Lake Agency","67","","H3FX","RL 067","","","","","","2014","2014/04/18 00:00:00+00","108","1309","Human","Debris and open burning","","2014/04/18 00:00:00+00","108","1322","0.1","A","47.8786","-94.91","BIA","MN","","",""
"-94.90829133","47.867491731","1730190","300015289","W-670009","FED","DOI-WFMI","BIA","USMNRLA","Red Lake Agency","MNRLA","Red Lake Agency","68","","H3FK","RL 068","","","","","","2014","2014/04/18 00:00:00+00","108","1313","Human","Arson/incendiarism","","2014/04/18 00:00:00+00","108","1331","0.3","B","47.8675","-94.9083","BIA","MN","","",""
"-95.408291192","47.833591775","1730191","300015290","W-670039","FED","DOI-WFMI","BIA","USMNRLA","Red Lake Agency","MNRLA","Red Lake Agency","69","","H3FL","RL 069","","","","","","2014","2014/04/16 00:00:00+00","106","1435","Human","Arson/incendiarism","","2014/04/16 00:00:00+00","106","1525","5","B","47.8336","-95.4083","BIA","MN","","",""
"-95.408291192","47.833591775","1730192","300015291","W-670058","FED","DOI-WFMI","BIA","USMNRLA","Red Lake Agency","MNRLA","Red Lake Agency","70","","H3FM","RL 070","","","","","","2014","2014/04/19 00:00:00+00","109","1307","Human","Debris and open burning","","2014/04/19 00:00:00+00","109","1600","0.5","B","47.8336","-95.4083","BIA","MN","","",""
"-94.776391344","48.005291703","1730193","300015292","W-670219","FED","DOI-WFMI","BIA","USMNRLA","Red Lake Agency","MNRLA","Red Lake Agency","71","","H3F9","RL 071","","","","","","2014","2014/04/18 00:00:00+00","108","1526","Human","Debris and open burning","","2014/04/18 00:00:00+00","108","1530","0.3","B","48.0053","-94.7764","BIA","MN","","",""
"-94.995791272","48.058291714","1730194","300015293","W-670220","FED","DOI-WFMI","BIA","USMNRLA","Red Lake Agency","MNRLA","Red Lake Agency","72","","H3GA","RL 072","","","","","","2014","2014/04/18 00:00:00+00","108","1638","Human","Arson/incendiarism","","2014/04/18 00:00:00+00","108","1707","1.5","B","48.0583","-94.9958","BIA","MN","","",""
"-95.0163913","47.861091741","1730195","300015294","W-670059","FED","DOI-WFMI","BIA","USMNRLA","Red Lake Agency","MNRLA","Red Lake Agency","73","","H3FN","RL 073","","","","","","2014","2014/04/18 00:00:00+00","108","1705","Human","Debris and open burning","","2014/04/18 00:00:00+00","108","1725","0.5","B","47.8611","-95.0164","BIA","MN","","",""
"-94.743891356","47.993591702","1730196","300015295","W-670221","FED","DOI-WFMI","BIA","USMNRLA","Red Lake Agency","MNRLA","Red Lake Agency","74","","H3H0","RL 074","","","","","","2014","2014/04/18 00:00:00+00","108","1725","Human","Debris and open burning","","2014/04/18 00:00:00+00","108","1740","0.3","B","47.9936","-94.7439","BIA","MN","","",""
"-95.082991279","47.869191745","1730197","300015296","W-670060","FED","DOI-WFMI","BIA","USMNRLA","Red Lake Agency","MNRLA","Red Lake Agency","75","","H3FP","RL 075","","","","","","2014","2014/04/18 00:00:00+00","108","1750","Human","Debris and open burning","","2014/04/18 00:00:00+00","108","1805","0.3","B","47.8692","-95.083","BIA","MN","","",""
"-94.886691335","47.872491729","1730198","300015297","W-670061","FED","DOI-WFMI","BIA","USMNRLA","Red Lake Agency","MNRLA","Red Lake Agency","76","","H3FG","RL 076","","","","","","2014","2014/04/18 00:00:00+00","108","1805","Human","Misuse of fire by a minor","Minor","2014/04/18 00:00:00+00","108","1830","1","B","47.8725","-94.8867","BIA","MN","","",""
"-94.999691303","47.871691738","1730199","300015298","W-670062","FED","DOI-WFMI","BIA","USMNRLA","Red Lake Agency","MNRLA","Red Lake Agency","77","","H3FS","RL 077","","","","","","2014","2014/04/18 00:00:00+00","108","1900","Human","Misuse of fire by a minor","Minor","2014/04/18 00:00:00+00","108","1915","1","B","47.8717","-94.9997","BIA","MN","","",""
"-94.916391326","47.875491731","1730200","300015299","W-670063","FED","DOI-WFMI","BIA","USMNRLA","Red Lake Agency","MNRLA","Red Lake Agency","78","","H3FT","RL 078","","","","","","2014","2014/04/18 00:00:00+00","108","1920","Human","Arson/incendiarism","","2014/04/18 00:00:00+00","108","1935","1","B","47.8755","-94.9164","BIA","MN","","",""
"-94.918891326","47.870291732","1730201","300015300","W-670066","FED","DOI-WFMI","BIA","USMNRLA","Red Lake Agency","MNRLA","Red Lake Agency","79","","H3FU","RL 079","","","","","","2014","2014/04/18 00:00:00+00","108","1930","Human","Debris and open burning","","2014/04/18 00:00:00+00","108","1930","2","B","47.8703","-94.9189","BIA","MN","","",""
"-94.985491308","47.867791737","1730202","300015301","W-670068","FED","DOI-WFMI","BIA","USMNRLA","Red Lake Agency","MNRLA","Red Lake Agency","80","","H3FV","RL 080","","","","","","2014","2014/04/19 00:00:00+00","109","0030","Human","Misuse of fire by a minor","Minor","2014/04/19 00:00:00+00","109","0120","0.8","B","47.8678","-94.9855","BIA","MN","","",""
"-95.085791278","47.873591745","1730203","300015302","W-670222","FED","DOI-WFMI","BIA","USMNRLA","Red Lake Agency","MNRLA","Red Lake Agency","81","","H3H1","RL 081","","","","","","2014","2014/04/19 00:00:00+00","109","1225","Human","Debris and open burning","","2014/04/19 00:00:00+00","109","1255","2","B","47.8736","-95.0858","BIA","MN","","",""
"-94.934191321","47.873591733","1730204","300015303","W-670214","FED","DOI-WFMI","BIA","USMNRLA","Red Lake Agency","MNRLA","Red Lake Agency","82","","H3FY","RL 082","","","","","","2014","2014/04/19 00:00:00+00","109","1201","Human","Misuse of fire by a minor","Minor","2014/04/19 00:00:00+00","109","1203","0.1","A","47.8736","-94.9342","BIA","MN","","",""
"-94.892491333","47.875491729","1730205","300015304","W-670223","FED","DOI-WFMI","BIA","USMNRLA","Red Lake Agency","MNRLA","Red Lake Agency","83","","H3GB","RL 083","","","","","","2014","2014/04/19 00:00:00+00","109","1650","Human","Arson/incendiarism","","2014/04/19 00:00:00+00","109","1650","6","B","47.8755","-94.8925","BIA","MN","","",""
"-94.986891305","47.879691736","1730206","300015305","W-670224","FED","DOI-WFMI","BIA","USMNRLA","Red Lake Agency","MNRLA","Red Lake Agency","84","","H3GH","RL 084","","","","","","2014","2014/04/19 00:00:00+00","109","1510","Human","Misuse of fire by a minor","Minor","2014/04/19 00:00:00+00","109","1706","5","B","47.8797","-94.9869","BIA","MN","","",""
"-94.923591324","47.877191731","1730207","300015306","W-670225","FED","DOI-WFMI","BIA","USMNRLA","Red Lake Agency","MNRLA","Red Lake Agency","85","","H3H2","RL 085","","","","","","2014","2014/04/18 00:00:00+00","108","1530","Human","Misuse of fire by a minor","Minor","2014/04/18 00:00:00+00","108","1530","1","B","47.8772","-94.9236","BIA","MN","","",""
"-94.957791315","47.872491735","1730208","300015307","W-670226","FED","DOI-WFMI","BIA","USMNRLA","Red Lake Agency","MNRLA","Red Lake Agency","86","","H3H3","RL 086","","","","","","2014","2014/04/19 00:00:00+00","109","1550","Human","Debris and open burning","","2014/04/19 00:00:00+00","109","1550","0.2","A","47.8725","-94.9578","BIA","MN","","",""
"-94.882991335","47.882791727","1730209","300015308","W-670227","FED","DOI-WFMI","BIA","USMNRLA","Red Lake Agency","MNRLA","Red Lake Agency","87","","H3H6","RL 087","","","","","","2014","2014/04/19 00:00:00+00","109","1500","Human","Arson/incendiarism","","2014/04/19 00:00:00+00","109","1530","0.5","B","47.8828","-94.883","BIA","MN","","",""
"-95.04279129","47.874691741","1730210","300015309","W-670228","FED","DOI-WFMI","BIA","USMNRLA","Red Lake Agency","MNRLA","Red Lake Agency","88","","H3H7","RL 088","","","","","","2014","2014/04/19 00:00:00+00","109","1710","Human","Arson/incendiarism","","2014/04/19 00:00:00+00","109","1728","0.3","B","47.8747","-95.0428","BIA","MN","","",""
"-95.016391297","47.876091739","1730211","300015310","W-670230","FED","DOI-WFMI","BIA","USMNRLA","Red Lake Agency","MNRLA","Red Lake Agency","89","","H3F8","RL 089","","","","","","2014","2014/04/19 00:00:00+00","109","1741","Human","Arson/incendiarism","Minor","2014/04/19 00:00:00+00","109","1805","1.5","B","47.8761","-95.0164","BIA","MN","","",""
"-95.020791295","47.880491739","1730212","300015311","W-670231","FED","DOI-WFMI","BIA","USMNRLA","Red Lake Agency","MNRLA","Red Lake Agency","90","","H3F6","RL 090","","","","","","2014","2014/04/18 00:00:00+00","108","1751","Human","Arson/incendiarism","Minor","2014/04/18 00:00:00+00","108","1824","3","B","47.8805","-95.0208","BIA","MN","","",""
"-95.071691283","47.868591744","1730213","300015312","W-670241","FED","DOI-WFMI","BIA","USMNRLA","Red Lake Agency","MNRLA","Red Lake Agency","91","","H3H8","RL 091","","","","","","2014","2014/04/19 00:00:00+00","109","1915","Human","Misuse of fire by a minor","Minor","2014/04/19 00:00:00+00","109","1930","1","B","47.8686","-95.0717","BIA","MN","","",""
"-94.990491305","47.876891737","1730214","300015313","W-670248","FED","DOI-WFMI","BIA","USMNRLA","Red Lake Agency","MNRLA","Red Lake Agency","92","","H3H9","RL 092","","","","","","2014","2014/04/19 00:00:00+00","109","2000","Human","Debris and open burning","","2014/04/19 00:00:00+00","109","2007","0.1","A","47.8769","-94.9905","BIA","MN","","",""
"-95.021391297","47.86969174","1730215","300015314","W-670250","FED","DOI-WFMI","BIA","USMNRLA","Red Lake Agency","MNRLA","Red Lake Agency","93","","H3JC","RL 093","","","","","","2014","2014/04/19 00:00:00+00","109","2007","Human","Misuse of fire by a minor","Minor","2014/04/19 00:00:00+00","109","2024","0.3","B","47.8697","-95.0214","BIA","MN","","",""
"-95.004191302","47.869991739","1730216","300015315","W-670251","FED","DOI-WFMI","BIA","USMNRLA","Red Lake Agency","MNRLA","Red Lake Agency","94","","H3JD","RL 094","","","","","","2014","2014/04/18 00:00:00+00","108","2035","Human","Arson/incendiarism","Minor","2014/04/18 00:00:00+00","108","2040","0.3","B","47.87","-95.0042","BIA","MN","","",""
"-94.893891333","47.87139173","1730217","300015316","W-670252","FED","DOI-WFMI","BIA","USMNRLA","Red Lake Agency","MNRLA","Red Lake Agency","95","","H3JE","RL 095","","","","","","2014","2014/04/19 00:00:00+00","109","1120","Human","Misuse of fire by a minor","Minor","2014/04/19 00:00:00+00","109","1130","0.3","B","47.8714","-94.8939","BIA","MN","","",""
"-94.94219132","47.871391734","1730218","300015317","W-670255","FED","DOI-WFMI","BIA","USMNRLA","Red Lake Agency","MNRLA","Red Lake Agency","96","","H3JF","RL 096","","","","","","2014","2014/04/20 00:00:00+00","110","1110","Human","Misuse of fire by a minor","Minor","2014/04/20 00:00:00+00","110","1141","0.1","A","47.8714","-94.9422","BIA","MN","","",""
"-94.741091357","47.990791702","1730219","300015318","W-670258","FED","DOI-WFMI","BIA","USMNRLA","Red Lake Agency","MNRLA","Red Lake Agency","97","","H3JG","RL 097","","","","","","2014","2014/04/20 00:00:00+00","110","1214","Human","Debris and open burning","","2014/04/20 00:00:00+00","110","1239","0.5","B","47.9908","-94.7411","BIA","MN","","",""
"-94.993291272","48.057991714","1730220","300015319","W-670260","FED","DOI-WFMI","BIA","USMNRLA","Red Lake Agency","MNRLA","Red Lake Agency","98","","H3JH","RL 098","","","","","","2014","2014/04/20 00:00:00+00","110","1305","Human","Debris and open burning","","2014/04/20 00:00:00+00","110","1324","2.5","B","48.058","-94.9933","BIA","MN","","",""
"-94.774991344","48.008291703","1730221","300015320","W-670261","FED","DOI-WFMI","BIA","USMNRLA","Red Lake Agency","MNRLA","Red Lake Agency","99","","H3JK","RL 099","","","","","","2014","2014/04/20 00:00:00+00","110","1329","Human","Debris and open burning","","2014/04/20 00:00:00+00","110","1338","0.1","A","48.0083","-94.775","BIA","MN","","",""
"-94.872491342","47.86029173","1730222","300015321","W-670341","FED","DOI-WFMI","BIA","USMNRLA","Red Lake Agency","MNRLA","Red Lake Agency","100","","H3JL","RL 100","","","","","","2014","2014/04/19 00:00:00+00","109","1314","Human","Misuse of fire by a minor","Minor","2014/04/19 00:00:00+00","109","1350","1.5","B","47.8603","-94.8725","BIA","MN","","",""
"-94.990291305","47.876891737","1730223","300015322","W-670342","FED","DOI-WFMI","BIA","USMNRLA","Red Lake Agency","MNRLA","Red Lake Agency","101","","H3JM","RL 101","","","","","","2014","2014/04/20 00:00:00+00","110","1339","Human","Debris and open burning","","2014/04/20 00:00:00+00","110","1405","0.5","B","47.8769","-94.9903","BIA","MN","","",""
"-94.916391328","47.867491732","1730224","300015323","W-670344","FED","DOI-WFMI","BIA","USMNRLA","Red Lake Agency","MNRLA","Red Lake Agency","102","","H3JN","RL 102","","","","","","2014","2014/04/20 00:00:00+00","110","1350","Human","Arson/incendiarism","","2014/04/20 00:00:00+00","110","1411","3","B","47.8675","-94.9164","BIA","MN","","",""
"-94.894191333","47.875491729","1730225","300015324","W-670345","FED","DOI-WFMI","BIA","USMNRLA","Red Lake Agency","MNRLA","Red Lake Agency","103","","H3L5","RL 103","","","","","","2014","2014/04/19 00:00:00+00","109","1522","Human","Misuse of fire by a minor","Minor","2014/04/19 00:00:00+00","109","1605","2.5","B","47.8755","-94.8942","BIA","MN","","",""
"-94.999691302","47.876091737","1730226","300015325","W-670346","FED","DOI-WFMI","BIA","USMNRLA","Red Lake Agency","MNRLA","Red Lake Agency","104","","H3JQ","RL 104","","","","","","2014","2014/04/20 00:00:00+00","110","1625","Human","Arson/incendiarism","","2014/04/20 00:00:00+00","110","1625","0.1","A","47.8761","-94.9997","BIA","MN","","",""
"-94.917991301","48.017991713","1730227","300015326","W-673360","FED","DOI-WFMI","BIA","USMNRLA","Red Lake Agency","MNRLA","Red Lake Agency","105","","H3JR","RL 105","","","","","","2014","2014/04/20 00:00:00+00","110","1637","Human","Misuse of fire by a minor","Minor","2014/04/20 00:00:00+00","110","1644","0.3","B","48.018","-94.918","BIA","MN","","",""
"-94.999691303","47.871091738","1730228","300015327","W-673361","FED","DOI-WFMI","BIA","USMNRLA","Red Lake Agency","MNRLA","Red Lake Agency","106","","H3JS","RL 106","","","","","","2014","2014/04/20 00:00:00+00","110","1538","Human","Missing data/not specified/undetermined","","2014/04/20 00:00:00+00","110","1727","6","B","47.8711","-94.9997","BIA","MN","","",""
"-94.982991309","47.866091737","1730229","300015328","W-673362","FED","DOI-WFMI","BIA","USMNRLA","Red Lake Agency","MNRLA","Red Lake Agency","107","","H3JT","RL 107","","","","","","2014","2014/04/20 00:00:00+00","110","1711","Human","Arson/incendiarism","","2014/04/20 00:00:00+00","110","1711","0.5","B","47.8661","-94.983","BIA","MN","","",""
"-94.984191308","47.869191737","1730230","300015329","W-673364","FED","DOI-WFMI","BIA","USMNRLA","Red Lake Agency","MNRLA","Red Lake Agency","108","","H3JU","RL 108","","","","","","2014","2014/04/20 00:00:00+00","110","1710","Human","Misuse of fire by a minor","Minor","2014/04/20 00:00:00+00","110","1730","0.1","A","47.8692","-94.9842","BIA","MN","","",""
"-95.052491287","47.877191741","1730231","300015330","W-673365","FED","DOI-WFMI","BIA","USMNRLA","Red Lake Agency","MNRLA","Red Lake Agency","109","","H3JV","RL 109","","","","","","2014","2014/04/20 00:00:00+00","110","1710","Human","Arson/incendiarism","Minor","2014/04/20 00:00:00+00","110","1715","6","B","47.8772","-95.0525","BIA","MN","","",""
"-94.925791298","48.021391713","1730232","300015331","W-673366","FED","DOI-WFMI","BIA","USMNRLA","Red Lake Agency","MNRLA","Red Lake Agency","110","","H3JW","RL 110","","","","","","2014","2014/04/20 00:00:00+00","110","1705","Human","Misuse of fire by a minor","Minor","2014/04/20 00:00:00+00","110","1727","0.5","B","48.0214","-94.9258","BIA","MN","","",""
"-94.911691328","47.874691731","1730233","300015332","W-673368","FED","DOI-WFMI","BIA","USMNRLA","Red Lake Agency","MNRLA","Red Lake Agency","111","","H3JX","RL 111","","","","","","2014","2014/04/19 00:00:00+00","109","1730","Human","Arson/incendiarism","","2014/04/19 00:00:00+00","109","1740","0.3","B","47.8747","-94.9117","BIA","MN","","",""
"-95.040791295","47.846891744","1730234","300015333","W-673371","FED","DOI-WFMI","BIA","USMNRLA","Red Lake Agency","MNRLA","Red Lake Agency","112","","H3JY","RL 112","","","","","","2014","2014/04/20 00:00:00+00","110","1745","Human","Misuse of fire by a minor","Minor","2014/04/20 00:00:00+00","110","1753","0.5","B","47.8469","-95.0408","BIA","MN","","",""
"-95.021391297","47.86969174","1730235","300015334","W-673372","FED","DOI-WFMI","BIA","USMNRLA","Red Lake Agency","MNRLA","Red Lake Agency","113","","H3JZ","RL 113","","","","","","2014","2014/04/20 00:00:00+00","110","1751","Human","Arson/incendiarism","Minor","2014/04/20 00:00:00+00","110","1754","0.1","A","47.8697","-95.0214","BIA","MN","","",""
"-94.932991322","47.874991732","1730236","300015335","W-673373","FED","DOI-WFMI","BIA","USMNRLA","Red Lake Agency","MNRLA","Red Lake Agency","114","","H3J1","RL 114","","","","","","2014","2014/04/20 00:00:00+00","110","1759","Human","Debris and open burning","","2014/04/20 00:00:00+00","110","1810","0.5","B","47.875","-94.933","BIA","MN","","",""
"-94.772491366","47.887191718","1730237","300015336","W-673374","FED","DOI-WFMI","BIA","USMNRLA","Red Lake Agency","MNRLA","Red Lake Agency","115","","H3J2","RL 115","","","","","","2014","2014/04/20 00:00:00+00","110","1727","Human","Arson/incendiarism","","2014/04/20 00:00:00+00","110","1727","0.3","B","47.8872","-94.7725","BIA","MN","","",""
"-95.08299128","47.866091745","1730238","300015337","W-673375","FED","DOI-WFMI","BIA","USMNRLA","Red Lake Agency","MNRLA","Red Lake Agency","116","","H3J3","RL 116","","","","","","2014","2014/04/20 00:00:00+00","110","1927","Human","Misuse of fire by a minor","Minor","2014/04/20 00:00:00+00","110","1940","0.3","B","47.8661","-95.083","BIA","MN","","",""
"-95.582991113","47.998891768","1730239","300015338","W-673376","FED","DOI-WFMI","BIA","USMNRLA","Red Lake Agency","MNRLA","Red Lake Agency","117","","HEJ4","RL 117","","","","","","2014","2014/04/20 00:00:00+00","110","1745","Human","Arson/incendiarism","","2014/04/20 00:00:00+00","110","1951","30","C","47.9989","-95.583","BIA","MN","","",""
"-94.995291304","47.875291737","1730240","300015339","W-673377","FED","DOI-WFMI","BIA","USMNRLA","Red Lake Agency","MNRLA","Red Lake Agency","118","","HEJ5","RL 118","","","","","","2014","2014/04/20 00:00:00+00","110","2001","Human","Arson/incendiarism","Minor","2014/04/20 00:00:00+00","110","2011","0.3","B","47.8753","-94.9953","BIA","MN","","",""
"-94.894391332","47.876391729","1730241","300015340","W-673378","FED","DOI-WFMI","BIA","USMNRLA","Red Lake Agency","MNRLA","Red Lake Agency","119","","H3J7","RL 119","","","","","","2014","2014/04/20 00:00:00+00","110","1942","Human","Debris and open burning","","2014/04/20 00:00:00+00","110","2025","0.5","B","47.8764","-94.8944","BIA","MN","","",""
"-94.916391301","48.019991712","1730242","300015341","W-673379","FED","DOI-WFMI","BIA","USMNRLA","Red Lake Agency","MNRLA","Red Lake Agency","120","","H3J9","RL 120","","","","","","2014","2014/04/18 00:00:00+00","108","2355","Human","Misuse of fire by a minor","Minor","2014/04/19 00:00:00+00","109","0155","0.5","B","48.02","-94.9164","BIA","MN","","",""
"-94.899691306","48.021091711","1730243","300015342","W-673380","FED","DOI-WFMI","BIA","USMNRLA","Red Lake Agency","MNRLA","Red Lake Agency","121","","H3KA","RL 121","","","","","","2014","2014/04/18 00:00:00+00","108","2130","Human","Arson/incendiarism","Minor","2014/04/18 00:00:00+00","108","2145","0.3","B","48.0211","-94.8997","BIA","MN","","",""
"-94.999691302","47.876691737","1730244","300015343","W-673381","FED","DOI-WFMI","BIA","USMNRLA","Red Lake Agency","MNRLA","Red Lake Agency","122","","H3KB","RL 122","","","","","","2014","2014/04/18 00:00:00+00","108","2230","Human","Misuse of fire by a minor","Minor","2014/04/18 00:00:00+00","108","2253","0.5","B","47.8767","-94.9997","BIA","MN","","",""
"-94.938591295","48.019691714","1730245","300015344","W-673382","FED","DOI-WFMI","BIA","USMNRLA","Red Lake Agency","MNRLA","Red Lake Agency","123","","H3KC","RL 123","","","","","","2014","2014/04/20 00:00:00+00","110","2308","Human","Arson/incendiarism","","2014/04/20 00:00:00+00","110","2316","0.1","A","48.0197","-94.9386","BIA","MN","","",""
"-94.985791275","48.052491714","1730246","300015345","W-673400","FED","DOI-WFMI","BIA","USMNRLA","Red Lake Agency","MNRLA","Red Lake Agency","124","","H3KD","RL 124","","","","","","2014","2014/04/20 00:00:00+00","110","2214","Human","Arson/incendiarism","","2014/04/20 00:00:00+00","110","2226","0.1","A","48.0525","-94.9858","BIA","MN","","",""
"-94.991691306","47.867191738","1730247","300015346","W-673402","FED","DOI-WFMI","BIA","USMNRLA","Red Lake Agency","MNRLA","Red Lake Agency","125","","H3KE","RL 125","","","","","","2014","2014/04/19 00:00:00+00","109","2130","Human","Arson/incendiarism","","2014/04/19 00:00:00+00","109","2140","0.1","A","47.8672","-94.9917","BIA","MN","","",""
"-94.909691328","47.874391731","1730248","300015347","W-673403","FED","DOI-WFMI","BIA","USMNRLA","Red Lake Agency","MNRLA","Red Lake Agency","126","","H3KG","RL 126","","","","","","2014","2014/04/19 00:00:00+00","109","2142","Human","Fireworks","Minor","2014/04/19 00:00:00+00","109","2156","0.1","A","47.8744","-94.9097","BIA","MN","","",""
"-95.39439119","47.86719177","1730249","300015348","W-673404","FED","DOI-WFMI","BIA","USMNRLA","Red Lake Agency","MNRLA","Red Lake Agency","127","","H3LH","RL 127","","","","","","2014","2014/04/21 00:00:00+00","111","1510","Human","Misuse of fire by a minor","Minor","2014/04/21 00:00:00+00","111","1730","3","B","47.8672","-95.3944","BIA","MN","","",""
"-95.003891304","47.85969174","1730250","300015349","W-673405","FED","DOI-WFMI","BIA","USMNRLA","Red Lake Agency","MNRLA","Red Lake Agency","128","","H3LJ","RL 128","","","","","","2014","2014/04/21 00:00:00+00","111","1600","Human","Arson/incendiarism","Minor","2014/04/21 00:00:00+00","111","1630","1","B","47.8597","-95.0039","BIA","MN","","",""
"-95.021691299","47.857191742","1730251","300015350","W-673407","FED","DOI-WFMI","BIA","USMNRLA","Red Lake Agency","MNRLA","Red Lake Agency","129","","H3LL","RL 129","","","","","","2014","2014/04/21 00:00:00+00","111","1630","Human","Arson/incendiarism","Minor","2014/04/21 00:00:00+00","111","1635","0.1","A","47.8572","-95.0217","BIA","MN","","",""
"-95.013291301","47.858291741","1730252","300015351","W-673408","FED","DOI-WFMI","BIA","USMNRLA","Red Lake Agency","MNRLA","Red Lake Agency","130","","H3LE","RL 130","","","","","","2014","2014/04/21 00:00:00+00","111","2049","Human","Arson/incendiarism","","2014/04/21 00:00:00+00","111","2100","0.3","B","47.8583","-95.0133","BIA","MN","","",""
"-94.841391323","48.016891707","1730253","300015352","W-673410","FED","DOI-WFMI","BIA","USMNRLA","Red Lake Agency","MNRLA","Red Lake Agency","131","","H3LM","RL 131","","","","","","2014","2014/04/21 00:00:00+00","111","1654","Human","Arson/incendiarism","","2014/04/21 00:00:00+00","111","1718","5","B","48.0169","-94.8414","BIA","MN","","",""
"-95.010791301","47.86139174","1730254","300015353","W-673413","FED","DOI-WFMI","BIA","USMNRLA","Red Lake Agency","MNRLA","Red Lake Agency","132","","H3LN","RL 132","","","","","","2014","2014/04/21 00:00:00+00","111","1658","Human","Arson/incendiarism","","2014/04/21 00:00:00+00","111","1726","0.5","B","47.8614","-95.0108","BIA","MN","","",""
"-95.063291289","47.846091746","1730255","300015354","W-673416","FED","DOI-WFMI","BIA","USMNRLA","Red Lake Agency","MNRLA","Red Lake Agency","133","","H3LP","RL 133","","","","","","2014","2014/04/21 00:00:00+00","111","1800","Human","Debris and open burning","","2014/04/21 00:00:00+00","111","1800","2.5","B","47.8461","-95.0633","BIA","MN","","",""
"-95.021891295","47.877791739","1730256","300015355","W-673421","FED","DOI-WFMI","BIA","USMNRLA","Red Lake Agency","MNRLA","Red Lake Agency","134","","H3LQ","RL 134","","","","","","2014","2014/04/21 00:00:00+00","111","1815","Human","Arson/incendiarism","Minor","2014/04/21 00:00:00+00","111","1837","0.3","B","47.8778","-95.0219","BIA","MN","","",""
"-95.118291271","47.859191749","1730257","300015356","W-673422","FED","DOI-WFMI","BIA","USMNRLA","Red Lake Agency","MNRLA","Red Lake Agency","135","","H3LT","RL 135","","","","","","2014","2014/04/21 00:00:00+00","111","1940","Human","Arson/incendiarism","Minor","2014/04/21 00:00:00+00","111","1959","4","B","47.8592","-95.1183","BIA","MN","","",""
"-95.016391298","47.874191739","1730258","300015357","W-673424","FED","DOI-WFMI","BIA","USMNRLA","Red Lake Agency","MNRLA","Red Lake Agency","136","","H3LR","RL 136","","","","","","2014","2014/04/21 00:00:00+00","111","1945","Human","Arson/incendiarism","Minor","2014/04/21 00:00:00+00","111","2000","0.5","B","47.8742","-95.0164","BIA","MN","","",""
"-94.987791306","47.875791737","1730259","300015358","W-673426","FED","DOI-WFMI","BIA","USMNRLA","Red Lake Agency","MNRLA","Red Lake Agency","137","","H3LS","RL 137","","","","","","2014","2014/04/21 00:00:00+00","111","2005","Human","Arson/incendiarism","Minor","2014/04/21 00:00:00+00","111","2020","0.3","B","47.8758","-94.9878","BIA","MN","","",""
"-94.987491306","47.872491737","1730260","300015359","W-673428","FED","DOI-WFMI","BIA","USMNRLA","Red Lake Agency","MNRLA","Red Lake Agency","138","","H3S3","RL 138","","","","","","2014","2014/04/22 00:00:00+00","112","1310","Human","Missing data/not specified/undetermined","","2014/04/22 00:00:00+00","112","1320","0.3","B","47.8725","-94.9875","BIA","MN","","",""
"-94.990791304","47.879691736","1730261","300015360","W-673429","FED","DOI-WFMI","BIA","USMNRLA","Red Lake Agency","MNRLA","Red Lake Agency","139","","H3S4","RL 139","","","","","","2014","2014/04/22 00:00:00+00","112","1255","Human","Debris and open burning","","2014/04/22 00:00:00+00","112","1331","0.5","B","47.8797","-94.9908","BIA","MN","","",""
"-95.037191292","47.869991741","1730262","300015361","W-673430","FED","DOI-WFMI","BIA","USMNRLA","Red Lake Agency","MNRLA","Red Lake Agency","140","","H3S5","RL 140","","","","","","2014","2014/04/22 00:00:00+00","112","1627","Human","Debris and open burning","","2014/04/22 00:00:00+00","112","1636","0.3","B","47.87","-95.0372","BIA","MN","","",""
"-95.019391297","47.872491739","1730263","300015362","W-673431","FED","DOI-WFMI","BIA","USMNRLA","Red Lake Agency","MNRLA","Red Lake Agency","141","","H3PZ","RL 141","","","","","","2014","2014/04/22 00:00:00+00","112","1713","Human","Arson/incendiarism","Minor","2014/04/22 00:00:00+00","112","1750","0.2","A","47.8725","-95.0194","BIA","MN","","",""
"-95.037191292","47.869391741","1730264","300015363","W-673432","FED","DOI-WFMI","BIA","USMNRLA","Red Lake Agency","MNRLA","Red Lake Agency","142","","H3S6","RL 142","","","","","","2014","2014/04/22 00:00:00+00","112","1745","Human","Arson/incendiarism","","2014/04/22 00:00:00+00","112","1800","0.3","B","47.8694","-95.0372","BIA","MN","","",""
"-94.999691302","47.879191737","1730265","300015364","W-673433","FED","DOI-WFMI","BIA","USMNRLA","Red Lake Agency","MNRLA","Red Lake Agency","143","","H3S7","RL 143","","","","","","2014","2014/04/22 00:00:00+00","112","1814","Human","Debris and open burning","","2014/04/22 00:00:00+00","112","1832","0.5","B","47.8792","-94.9997","BIA","MN","","",""
"-95.039691294","47.857191743","1730266","300015365","W-673435","FED","DOI-WFMI","BIA","USMNRLA","Red Lake Agency","MNRLA","Red Lake Agency","144","","H3S8","RL 144","","","","","","2014","2014/04/22 00:00:00+00","112","1920","Human","Arson/incendiarism","Minor","2014/04/22 00:00:00+00","112","1933","0.3","B","47.8572","-95.0397","BIA","MN","","",""
"-94.989191306","47.870791737","1730267","300015366","W-673437","FED","DOI-WFMI","BIA","USMNRLA","Red Lake Agency","MNRLA","Red Lake Agency","145","","H3Q1","RL 145","","","","","","2014","2014/04/22 00:00:00+00","112","1900","Human","Arson/incendiarism","","2014/04/22 00:00:00+00","112","1934","0.5","B","47.8708","-94.9892","BIA","MN","","",""
"-95.039691291","47.872791741","1730268","300015367","W-673440","FED","DOI-WFMI","BIA","USMNRLA","Red Lake Agency","MNRLA","Red Lake Agency","146","","H3Q0","RL 146","","","","","","2014","2014/04/22 00:00:00+00","112","1920","Human","Arson/incendiarism","","2014/04/22 00:00:00+00","112","1928","0.1","A","47.8728","-95.0397","BIA","MN","","",""
"-94.957191289","48.023591715","1730269","300015368","W-673441","FED","DOI-WFMI","BIA","USMNRLA","Red Lake Agency","MNRLA","Red Lake Agency","147","","H3QZ","RL 147","","","","","","2014","2014/04/22 00:00:00+00","112","1930","Human","Arson/incendiarism","","2014/04/22 00:00:00+00","112","1945","0.3","B","48.0236","-94.9572","BIA","MN","","",""
"-95.034991302","47.814991748","1730270","300015369","W-673442","FED","DOI-WFMI","BIA","USMNRLA","Red Lake Agency","MNRLA","Red Lake Agency","148","","H3QY","RL 148","","","","","","2014","2014/04/22 00:00:00+00","112","1955","Human","Arson/incendiarism","","2014/04/22 00:00:00+00","112","2014","0.5","B","47.815","-95.035","BIA","MN","","",""
"-95.395291172","47.969391757","1730271","300015370","W-673444","FED","DOI-WFMI","BIA","USMNRLA","Red Lake Agency","MNRLA","Red Lake Agency","149","","H3S2","RL 149","","","","","","2014","2014/04/22 00:00:00+00","112","1950","Human","Debris and open burning","","2014/04/22 00:00:00+00","112","2030","1","B","47.9694","-95.3953","BIA","MN","","",""
"-94.893291332","47.879991729","1730272","300015371","W-673445","FED","DOI-WFMI","BIA","USMNRLA","Red Lake Agency","MNRLA","Red Lake Agency","150","","H3QX","RL 150","","","","","","2014","2014/04/22 00:00:00+00","112","2020","Human","Arson/incendiarism","","2014/04/22 00:00:00+00","112","2033","0.2","A","47.88","-94.8933","BIA","MN","","",""
"-94.885791335","47.875291729","1730273","300015372","W-673447","FED","DOI-WFMI","BIA","USMNRLA","Red Lake Agency","MNRLA","Red Lake Agency","151","","H3QW","RL 151","","","","","","2014","2014/04/22 00:00:00+00","112","2004","Human","Arson/incendiarism","","2014/04/22 00:00:00+00","112","2048","0.5","B","47.8753","-94.8858","BIA","MN","","",""
"-95.086391278","47.869191745","1730274","300015373","W-673654","FED","DOI-WFMI","BIA","USMNRLA","Red Lake Agency","MNRLA","Red Lake Agency","152","","H3QV","RL 152","","","","","","2014","2014/04/22 00:00:00+00","112","2050","Human","Arson/incendiarism","Minor","2014/04/22 00:00:00+00","112","2055","0.1","A","47.8692","-95.0864","BIA","MN","","",""
"-95.070491283","47.868591744","1730275","300015374","W-673655","FED","DOI-WFMI","BIA","USMNRLA","Red Lake Agency","MNRLA","Red Lake Agency","153","","H3QU","RL 153","","","","","","2014","2014/04/22 00:00:00+00","112","2100","Human","Arson/incendiarism","Minor","2014/04/22 00:00:00+00","112","2105","0.1","A","47.8686","-95.0705","BIA","MN","","",""
"-95.149691261","47.863891751","1730276","300015375","W-673656","FED","DOI-WFMI","BIA","USMNRLA","Red Lake Agency","MNRLA","Red Lake Agency","154","","H3QS","RL 154","","","","","","2014","2014/04/22 00:00:00+00","112","2240","Human","Misuse of fire by a minor","Minor","2014/04/22 00:00:00+00","112","2256","0.5","B","47.8639","-95.1497","BIA","MN","","",""
"-95.003891301","47.878291738","1730277","300015376","W-673657","FED","DOI-WFMI","BIA","USMNRLA","Red Lake Agency","MNRLA","Red Lake Agency","155","","H3QR","RL 155","","","","","","2014","2014/04/22 00:00:00+00","112","2310","Human","Misuse of fire by a minor","Minor","2014/04/22 00:00:00+00","112","2325","0.5","B","47.8783","-95.0039","BIA","MN","","",""
"-94.916691327","47.871091732","1730278","300015377","W-673658","FED","DOI-WFMI","BIA","USMNRLA","Red Lake Agency","MNRLA","Red Lake Agency","156","","H3QT","RL 156","","","","","","2014","2014/04/23 00:00:00+00","113","1255","Human","Arson/incendiarism","","2014/04/23 00:00:00+00","113","1255","1","B","47.8711","-94.9167","BIA","MN","","",""
"-95.099691275","47.868891746","1730279","300015378","W-673659","FED","DOI-WFMI","BIA","USMNRLA","Red Lake Agency","MNRLA","Red Lake Agency","157","","H3SY","RL 157","","","","","","2014","2014/04/23 00:00:00+00","113","1642","Human","Recreation and ceremony","","2014/04/23 00:00:00+00","113","1659","0.1","A","47.8689","-95.0997","BIA","MN","","",""
