"ï»¿X","Y","OBJECTID","FOD_ID","FPA_ID","SOURCE_SYSTEM_TYPE","SOURCE_SYSTEM","NWCG_REPORTING_AGENCY","NWCG_REPORTING_UNIT_ID","NWCG_REPORTING_UNIT_NAME","SOURCE_REPORTING_UNIT","SOURCE_REPORTING_UNIT_NAME","LOCAL_FIRE_REPORT_ID","LOCAL_INCIDENT_ID","FIRE_CODE","FIRE_NAME","ICS_209_PLUS_INCIDENT_JOIN_ID","ICS_209_PLUS_COMPLEX_JOIN_ID","MTBS_ID","MTBS_FIRE_NAME","COMPLEX_NAME","FIRE_YEAR","DISCOVERY_DATE","DISCOVERY_DOY","DISCOVERY_TIME","NWCG_CAUSE_CLASSIFICATION","NWCG_GENERAL_CAUSE","NWCG_CAUSE_AGE_CATEGORY","CONT_DATE","CONT_DOY","CONT_TIME","FIRE_SIZE","FIRE_SIZE_CLASS","LATITUDE","LONGITUDE","OWNER_DESCR","STATE","COUNTY","FIPS_CODE","FIPS_NAME"
"-120.785264241","41.995827919","1060001","1272763","FS-363056","FED","FS-FIRESTAT","FS","USORFWF","Fremont-Winema National Forest","0602","Fremont-Winema National Forest","14","","0001","POTHOLE","","","","","","2001","2001/07/10 00:00:00+00","191","1358","Natural","Natural","","2001/07/10 00:00:00+00","191","1930","0.1","A","41.99583333","-120.78527778","USFS","OR","037","41037","Lake County"
"-119.854154178","34.529995186","1060002","1272764","FS-363458","FED","FS-FIRESTAT","FS","USCALPF","Los Padres National Forest","0507","Los Padres National Forest","16","","3102","PARADISE","","","","","","2001","2001/06/12 00:00:00+00","163","1612","Human","Equipment and vehicle use","","2001/06/12 00:00:00+00","163","2000","1.5","B","34.53","-119.85416667","USFS","CA","","",""
"-118.316654328","35.666939414","1060003","1272765","FS-363553","FED","FS-FIRESTAT","FS","USCASQF","Sequoia National Forest","0513","Sequoia National Forest","1","","","PRINCE","","","","","","2001","2001/03/13 00:00:00+00","72","0918","Human","Missing data/not specified/undetermined","","2001/03/13 00:00:00+00","72","1029","2","B","35.66694444","-118.31666667","STATE OR PRIVATE","CA","","",""
"-118.684431981","36.235550499","1060004","1272766","FS-363555","FED","FS-FIRESTAT","FS","USCASQF","Sequoia National Forest","0513","Sequoia National Forest","20","","5638","MOSES","","","","","","2001","2001/06/20 00:00:00+00","171","1650","Human","Missing data/not specified/undetermined","","2001/06/21 00:00:00+00","172","0100","3","B","36.23555556","-118.68444444","MISSING/NOT SPECIFIED","CA","","",""
"-118.303043221","35.657772754","1060005","1272767","FS-363561","FED","FS-FIRESTAT","FS","USCASQF","Sequoia National Forest","0513","Sequoia National Forest","10","","","QUAIL","","","","","","2001","2001/06/07 00:00:00+00","158","1830","Human","Missing data/not specified/undetermined","","2001/06/07 00:00:00+00","158","2000","15","C","35.65777778","-118.30305556","OTHER FEDERAL","CA","","",""
"-118.418876523","35.751661642","1060006","1272768","FS-363568","FED","FS-FIRESTAT","FS","USCASQF","Sequoia National Forest","0513","Sequoia National Forest","44","","5654","SIRRETTA","","","","","","2001","2001/07/13 00:00:00+00","194","1139","Human","Misuse of fire by a minor","Minor","2001/07/13 00:00:00+00","194","1230","0.1","A","35.75166667","-118.41888889","MISSING/NOT SPECIFIED","CA","","",""
"-118.40082098","35.601106096","1060007","1272769","FS-363570","FED","FS-FIRESTAT","FS","USCASQF","Sequoia National Forest","0513","Sequoia National Forest","41","","5652","SHADOW","","","","","","2001","2001/07/08 00:00:00+00","189","1623","Human","Missing data/not specified/undetermined","","2001/07/08 00:00:00+00","189","1651","0.2","A","35.60111111","-118.40083333","STATE OR PRIVATE","CA","","",""
"-119.109987636","34.446106261","1060008","1272770","FS-363584","FED","FS-FIRESTAT","FS","USCALPF","Los Padres National Forest","0507","Los Padres National Forest","17","","3108","KOENIGSTEIN","","","","","","2001","2001/06/20 00:00:00+00","171","1555","Human","Equipment and vehicle use","","2001/06/20 00:00:00+00","171","2000","13","C","34.44611111","-119.11","MISSING/NOT SPECIFIED","CA","","",""
"-118.43498763","35.755272753","1060009","1272771","FS-363890","FED","FS-FIRESTAT","FS","USCASQF","Sequoia National Forest","0513","Sequoia National Forest","45","","5656","STONE","","","","","","2001","2001/07/16 00:00:00+00","197","1745","Human","Missing data/not specified/undetermined","","2001/07/16 00:00:00+00","197","1830","0.1","A","35.75527778","-118.435","STATE OR PRIVATE","CA","","",""
"-121.001097759","40.516939163","1060010","1272772","FS-363997","FED","FS-FIRESTAT","FS","USCALNF","Lassen National Forest","0506","Lassen National Forest","10","","","ROADSIDE","","","","","","2001","2001/06/09 00:00:00+00","160","0437","Human","Recreation and ceremony","","2001/06/09 00:00:00+00","160","0520","0.1","A","40.51694444","-121.00111111","STATE OR PRIVATE","CA","","",""
"-120.984986692","40.234716964","1060011","1272773","FS-364141","FED","FS-FIRESTAT","FS","USCALNF","Lassen National Forest","0506","Lassen National Forest","85","","","DEARHEART","","","","","","2001","2001/07/29 00:00:00+00","210","1810","Human","Missing data/not specified/undetermined","","2001/07/29 00:00:00+00","210","1920","0.1","A","40.23472222","-120.985","USFS","CA","","",""
"-120.155541692","44.47582768","1060012","1272774","FS-364277","FED","FS-FIRESTAT","FS","USOROCF","Ochoco National Forest","0607","Ochoco National Forest","52","","","1221","","","","","","2001","2001/08/13 00:00:00+00","225","0802","Natural","Natural","","2001/08/13 00:00:00+00","225","1200","1","B","44.47583333","-120.15555556","STATE OR PRIVATE","OR","","",""
"-93.800270768","36.627771187","1060013","1272775","FS-364427","FED","FS-FIRESTAT","FS","USMOMTF","Mark Twain National Forest","0905","Mark Twain National Forest","112","","0503","NOBODY'S HOME","","","","","","2001","2001/04/21 00:00:00+00","111","2125","Human","Arson/incendiarism","","2001/04/21 00:00:00+00","111","2242","4","B","36.62777778","-93.80027778","MISSING/NOT SPECIFIED","MO","","",""
"-121.484708685","41.251383597","1060014","1272776","FS-364483","FED","FS-FIRESTAT","FS","USCALNF","Lassen National Forest","0506","Lassen National Forest","104","","","WILEY","","","","","","2001","2001/09/12 00:00:00+00","255","1330","Natural","Natural","","2001/09/12 00:00:00+00","255","1530","0.1","A","41.25138889","-121.48472222","USFS","CA","","",""
"-121.550542015","41.251661383","1060015","1272777","FS-364484","FED","FS-FIRESTAT","FS","USCALNF","Lassen National Forest","0506","Lassen National Forest","105","","","FLAT","","","","","","2001","2001/09/12 00:00:00+00","255","1300","Natural","Natural","","2001/09/12 00:00:00+00","255","1550","0.1","A","41.25166667","-121.55055556","USFS","CA","","",""
"-105.500267914","36.242216336","1060016","1272780","FS-364517","FED","FS-FIRESTAT","FS","USNMCAF","Carson National Forest","0302","Carson National Forest","5","","","MAESTAS","","","","","","2001","2001/07/31 00:00:00+00","212","0900","Natural","Natural","","2001/07/31 00:00:00+00","212","1600","0.2","A","36.24222222","-105.50027778","USFS","NM","55","35055","Taos County"
"-121.750819793","40.98499475","1060017","1272781","FS-364651","FED","FS-FIRESTAT","FS","USCALNF","Lassen National Forest","0506","Lassen National Forest","116","","","GOOSE","","","","","","2001","2001/09/16 00:00:00+00","259","1710","Natural","Natural","","2001/09/16 00:00:00+00","259","1900","0.1","A","40.985","-121.75083333","USFS","CA","","",""
"-121.134431022","40.834161379","1060018","1272782","FS-364652","FED","FS-FIRESTAT","FS","USCALNF","Lassen National Forest","0506","Lassen National Forest","117","","","DAVIS","","","","","","2001","2001/09/16 00:00:00+00","259","1230","Natural","Natural","","2001/09/16 00:00:00+00","259","1400","0.1","A","40.83416667","-121.13444444","USFS","CA","","",""
"-120.528597563","42.298327874","1060019","1272783","FS-364799","FED","FS-FIRESTAT","FS","USORFWF","Fremont-Winema National Forest","0602","Fremont-Winema National Forest","96","","0001","RIDGETOP","","","","","","2001","2001/09/16 00:00:00+00","259","1830","Natural","Natural","","2001/09/17 00:00:00+00","260","1200","0.1","A","42.29833333","-120.52861111","USFS","OR","037","41037","Lake County"
"-121.301375441","40.86916139","1060020","1272784","FS-364885","FED","FS-FIRESTAT","FS","USCALNF","Lassen National Forest","0506","Lassen National Forest","101","","","TRACTOR","","","","","","2001","2001/09/12 00:00:00+00","255","1040","Human","Equipment and vehicle use","","2001/09/12 00:00:00+00","255","1230","0.1","A","40.86916667","-121.30138889","USFS","CA","","",""
"-121.535819777","41.316939146","1060021","1272785","FS-364886","FED","FS-FIRESTAT","FS","USCALNF","Lassen National Forest","0506","Lassen National Forest","102","","","BARRUM","","","","","","2001","2001/09/12 00:00:00+00","255","1500","Natural","Natural","","2001/09/12 00:00:00+00","255","1630","0.1","A","41.31694444","-121.53583333","USFS","CA","","",""
"-121.450542025","41.284161371","1060022","1272786","FS-364887","FED","FS-FIRESTAT","FS","USCALNF","Lassen National Forest","0506","Lassen National Forest","103","","","WHITE HORSE","","","","","","2001","2001/09/12 00:00:00+00","255","1400","Natural","Natural","","2001/09/12 00:00:00+00","255","1630","0.1","A","41.28416667","-121.45055556","USFS","CA","","",""
"-118.40193211","35.384439449","1060023","1272787","FS-365069","FED","FS-FIRESTAT","FS","USCASQF","Sequoia National Forest","0513","Sequoia National Forest","47","","5659","CALIENTE","","","","","","2001","2001/07/23 00:00:00+00","204","0915","Human","Missing data/not specified/undetermined","","2001/07/23 00:00:00+00","204","1100","0.1","A","35.38444444","-118.40194444","STATE OR PRIVATE","CA","","",""
"-119.166931849","36.75055048","1060024","1272788","FS-365084","FED","FS-FIRESTAT","FS","USCASQF","Sequoia National Forest","0513","Sequoia National Forest","18","","5363","DUNLAP","","","","","","2001","2001/06/20 00:00:00+00","171","1216","Human","Equipment and vehicle use","","2001/06/20 00:00:00+00","171","1230","0.5","B","36.75055556","-119.16694444","MISSING/NOT SPECIFIED","CA","","",""
"-118.984987451","36.633606029","1060025","1272789","FS-365090","FED","FS-FIRESTAT","FS","USCASQF","Sequoia National Forest","0513","Sequoia National Forest","77","","5684","STAGECOACH","","","","","","2001","2001/09/12 00:00:00+00","255","1200","Human","Other causes","","2001/09/12 00:00:00+00","255","1630","0.1","A","36.63361111","-118.985","MISSING/NOT SPECIFIED","CA","","",""
"-79.65833054","33.258326838","1060026","1272790","FS-365215","FED","FS-FIRESTAT","FS","USSCFMF","Francis Marion & Sumter National Forests","0812","Francis Marion-Sumter National Forest","34","","","HARTLEY HILL","","","","","","2001","2001/05/09 00:00:00+00","129","0630","Human","Arson/incendiarism","","2001/05/10 00:00:00+00","130","1700","2","B","33.25833333","-79.65833333","STATE OR PRIVATE","SC","15","45015","Berkeley County"
"-79.60110834","33.185271303","1060027","1272791","FS-365218","FED","FS-FIRESTAT","FS","USSCFMF","Francis Marion & Sumter National Forests","0812","Francis Marion-Sumter National Forest","35","","","MCDONALD","","","","","","2001","2001/05/12 00:00:00+00","132","1430","Human","Power generation/transmission/distribution","","2001/05/15 00:00:00+00","135","1800","10","C","33.18527778","-79.60111111","STATE OR PRIVATE","SC","15","45015","Berkeley County"
"-79.584997242","33.034437996","1060028","1272792","FS-365219","FED","FS-FIRESTAT","FS","USSCFMF","Francis Marion & Sumter National Forests","0812","Francis Marion-Sumter National Forest","37","","","GOMER","","","","","","2001","2001/05/25 00:00:00+00","145","1215","Human","Debris and open burning","","2001/05/25 00:00:00+00","145","1400","0.3","B","33.03444444","-79.585","STATE OR PRIVATE","SC","19","45019","Charleston County"
"-79.934719348","33.252215739","1060029","1272793","FS-365220","FED","FS-FIRESTAT","FS","USSCFMF","Francis Marion & Sumter National Forests","0812","Francis Marion-Sumter National Forest","21","","","FIELD","","","","","","2001","2001/02/19 00:00:00+00","50","1623","Human","Arson/incendiarism","","2001/02/20 00:00:00+00","51","1200","2","B","33.25222222","-79.93472222","STATE OR PRIVATE","SC","15","45015","Berkeley County"
"-79.433608394","33.101382426","1060030","1272794","FS-365223","FED","FS-FIRESTAT","FS","USSCFMF","Francis Marion & Sumter National Forests","0812","Francis Marion-Sumter National Forest","41","","","TBONE","","","","","","2001","2001/06/02 00:00:00+00","153","1800","Human","Arson/incendiarism","","2001/06/04 00:00:00+00","155","1200","11","C","33.10138889","-79.43361111","USFS","SC","19","45019","Charleston County"
"-79.80027496","33.000271351","1060031","1272795","FS-365226","FED","FS-FIRESTAT","FS","USSCFMF","Francis Marion & Sumter National Forests","0812","Francis Marion-Sumter National Forest","225","","","MISSED CHANCE","","","","","","2000","2000/11/15 00:00:00+00","320","1700","Human","Arson/incendiarism","","2000/11/15 00:00:00+00","320","1800","0.5","B","33.00027778","-79.80027778","USFS","SC","15","45015","Berkeley County"
"-79.799997174","33.116660215","1060032","1272796","FS-365227","FED","FS-FIRESTAT","FS","USSCFMF","Francis Marion & Sumter National Forests","0812","Francis Marion-Sumter National Forest","226","","","SILK","","","","","","2000","2000/11/20 00:00:00+00","325","1615","Human","Power generation/transmission/distribution","","2000/11/20 00:00:00+00","325","1700","0.1","A","33.11666667","-79.8","STATE OR PRIVATE","SC","15","45015","Berkeley County"
"-79.651108335","32.985549129","1060033","1272797","FS-365228","FED","FS-FIRESTAT","FS","USSCFMF","Francis Marion & Sumter National Forests","0812","Francis Marion-Sumter National Forest","227","","","PLANTATION","","","","","","2000","2000/11/21 00:00:00+00","326","1155","Human","Arson/incendiarism","","2000/11/21 00:00:00+00","326","1630","38.5","C","32.98555556","-79.65111111","USFS","SC","19","45019","Charleston County"
"-79.884719367","33.15166021","1060034","1272798","FS-365229","FED","FS-FIRESTAT","FS","USSCFMF","Francis Marion & Sumter National Forests","0812","Francis Marion-Sumter National Forest","228","","","BELLAMY","","","","","","2000","2000/11/21 00:00:00+00","326","1410","Human","Arson/incendiarism","","2000/11/21 00:00:00+00","326","1534","10","C","33.15166667","-79.88472222","USFS","SC","15","45015","Berkeley County"
"-79.867219364","33.334715718","1060035","1272799","FS-365230","FED","FS-FIRESTAT","FS","USSCFMF","Francis Marion & Sumter National Forests","0812","Francis Marion-Sumter National Forest","229","","","CRANBERRY","","","","","","2000","2000/11/21 00:00:00+00","326","1415","Human","Arson/incendiarism","","2000/11/21 00:00:00+00","326","1730","14.2","C","33.33472222","-79.86722222","USFS","SC","15","45015","Berkeley County"
"-83.272218286","34.767493307","1060036","1272800","FS-365231","FED","FS-FIRESTAT","FS","USSCFMF","Francis Marion & Sumter National Forests","0812","Francis Marion-Sumter National Forest","230","","","BATES MOTEL","","","","","","2000","2000/11/26 00:00:00+00","331","1400","Human","Arson/incendiarism","","2000/11/26 00:00:00+00","331","1445","0.1","A","34.7675","-83.27222222","STATE OR PRIVATE","SC","73","45073","Oconee County"
"-79.783330502","33.283326837","1060037","1272801","FS-365232","FED","FS-FIRESTAT","FS","USSCFMF","Francis Marion & Sumter National Forests","0812","Francis Marion-Sumter National Forest","231","","","LAZY DOE","","","","","","2000","2000/11/21 00:00:00+00","326","1510","Human","Arson/incendiarism","","2000/11/21 00:00:00+00","326","1620","1","B","33.28333333","-79.78333333","USFS","SC","15","45015","Berkeley County"
"-79.783330501","33.299993503","1060038","1272802","FS-365233","FED","FS-FIRESTAT","FS","USSCFMF","Francis Marion & Sumter National Forests","0812","Francis Marion-Sumter National Forest","232","","","GUMBO","","","","","","2000","2000/11/21 00:00:00+00","326","1630","Human","Arson/incendiarism","","2000/11/21 00:00:00+00","326","1900","5","B","33.3","-79.78333333","USFS","SC","15","45015","Berkeley County"
"-79.76666385","33.216660191","1060039","1272803","FS-365238","FED","FS-FIRESTAT","FS","USSCFMF","Francis Marion & Sumter National Forests","0812","Francis Marion-Sumter National Forest","42","","","HOLE","","","","","","2001","2001/06/06 00:00:00+00","157","1200","Natural","Natural","","2001/06/08 00:00:00+00","159","1200","5.3","B","33.21666667","-79.76666667","USFS","SC","15","45015","Berkeley County"
"-82.183329771","33.716660163","1060040","1272804","FS-365239","FED","FS-FIRESTAT","FS","USSCFMF","Francis Marion & Sumter National Forests","0812","Francis Marion-Sumter National Forest","45","","","CANOE","","","","","","2001","2001/07/22 00:00:00+00","203","1055","Human","Smoking","","2001/07/22 00:00:00+00","203","1230","0.1","A","33.71666667","-82.18333333","USFS","SC","65","45065","McCormick County"
"-82.066663152","33.583326848","1060041","1272805","FS-365241","FED","FS-FIRESTAT","FS","USSCFMF","Francis Marion & Sumter National Forests","0812","Francis Marion-Sumter National Forest","23","","","POWERLINE","","","","","","2001","2001/03/04 00:00:00+00","63","1300","Human","Power generation/transmission/distribution","","2001/03/04 00:00:00+00","63","1530","3","B","33.58333333","-82.06666667","USFS","SC","37","45037","Edgefield County"
"-79.602219458","33.018049121","1060042","1272806","FS-365243","FED","FS-FIRESTAT","FS","USSCFMF","Francis Marion & Sumter National Forests","0812","Francis Marion-Sumter National Forest","2","","","RAVEN","","","","","","2001","2001/01/23 00:00:00+00","23","1330","Human","Debris and open burning","","2001/01/23 00:00:00+00","23","1530","5","B","33.01805556","-79.60222222","STATE OR PRIVATE","SC","19","45019","Charleston County"
"-83.117496108","34.834993287","1060043","1272807","FS-365279","FED","FS-FIRESTAT","FS","USSCFMF","Francis Marion & Sumter National Forests","0812","Francis Marion-Sumter National Forest","10","","","JOHN S. CARTER","","","","","","2001","2001/02/02 00:00:00+00","33","1400","Human","Debris and open burning","","2001/02/02 00:00:00+00","33","1520","1","B","34.835","-83.1175","STATE OR PRIVATE","SC","73","45073","Oconee County"
"-83.169162761","34.851659955","1060044","1272808","FS-365281","FED","FS-FIRESTAT","FS","USSCFMF","Francis Marion & Sumter National Forests","0812","Francis Marion-Sumter National Forest","16","","","ROCKY GAP","","","","","","2001","2001/02/09 00:00:00+00","40","1310","Human","Debris and open burning","","2001/02/09 00:00:00+00","40","1630","4","B","34.85166667","-83.16916667","STATE OR PRIVATE","SC","73","45073","Oconee County"
"-79.664441658","33.049993555","1060045","1272809","FS-365282","FED","FS-FIRESTAT","FS","USSCFMF","Francis Marion & Sumter National Forests","0812","Francis Marion-Sumter National Forest","26","","","COOTER FIRE","","","","","","2001","2001/03/10 00:00:00+00","69","1055","Human","Arson/incendiarism","","2001/03/10 00:00:00+00","69","1115","0.2","A","33.05","-79.66444444","USFS","SC","15","45015","Berkeley County"
"-79.816663831","33.299993504","1060046","1272810","FS-365283","FED","FS-FIRESTAT","FS","USSCFMF","Francis Marion & Sumter National Forests","0812","Francis Marion-Sumter National Forest","5","","","NEEDING FIRE","","","","","","2001","2001/01/24 00:00:00+00","24","1000","Human","Arson/incendiarism","","2001/01/24 00:00:00+00","24","1100","0.5","B","33.3","-79.81666667","USFS","SC","15","45015","Berkeley County"
"-79.616663897","33.149993531","1060047","1272811","FS-365284","FED","FS-FIRESTAT","FS","USSCFMF","Francis Marion & Sumter National Forests","0812","Francis Marion-Sumter National Forest","17","","","WOODCHUCK","","","","","","2001","2001/02/09 00:00:00+00","40","2000","Human","Arson/incendiarism","","2001/02/09 00:00:00+00","40","2045","4","B","33.15","-79.61666667","USFS","SC","15","45015","Berkeley County"
"-79.616663897","33.149993531","1060048","1272812","FS-365285","FED","FS-FIRESTAT","FS","USSCFMF","Francis Marion & Sumter National Forests","0812","Francis Marion-Sumter National Forest","18","","","EMILY FIRE","","","","","","2001","2001/02/09 00:00:00+00","40","2100","Human","Arson/incendiarism","","2001/02/10 00:00:00+00","41","1100","7","B","33.15","-79.61666667","USFS","SC","15","45015","Berkeley County"
"-83.16694053","34.883882168","1060049","1272814","FS-365341","FED","FS-FIRESTAT","FS","USSCFMF","Francis Marion & Sumter National Forests","0812","Francis Marion-Sumter National Forest","25","","","MTN. REST LAKE","","","","","","2001","2001/03/06 00:00:00+00","65","1245","Human","Power generation/transmission/distribution","","2001/03/06 00:00:00+00","65","1500","0.5","B","34.88388889","-83.16694444","STATE OR PRIVATE","SC","73","45073","Oconee County"
"-83.233329406","34.799993299","1060050","1272815","FS-365344","FED","FS-FIRESTAT","FS","USSCFMF","Francis Marion & Sumter National Forests","0812","Francis Marion-Sumter National Forest","27","","","ROUND MTN","","","","","","2001","2001/03/11 00:00:00+00","70","1230","Human","Debris and open burning","","2001/03/11 00:00:00+00","70","1315","0.5","B","34.8","-83.23333333","STATE OR PRIVATE","SC","73","45073","Oconee County"
"-120.247487376","35.309161802","1060051","1272816","FS-365498","FED","FS-FIRESTAT","FS","USCALPF","Los Padres National Forest","0507","Los Padres National Forest","8","","3088","POZO","","","","","","2001","2001/05/17 00:00:00+00","137","1218","Human","Debris and open burning","","2001/05/17 00:00:00+00","137","1413","4","B","35.30916667","-120.2475","MISSING/NOT SPECIFIED","CA","","",""
"-118.813875283","44.308327563","1060052","1272817","FS-365517","FED","FS-FIRESTAT","FS","USORMAF","Malheur National Forest","0604","Malheur National Forest","83","","0001","OR-MAF-194","","","","","","2001","2001/08/11 00:00:00+00","223","0618","Natural","Natural","","2001/08/12 00:00:00+00","224","1300","0.1","A","44.30833333","-118.81388889","USFS","OR","023","41023","Grant County"
"-108.533878234","37.543883009","1060053","1272818","FS-365549","FED","FS-FIRESTAT","FS","USCOSJF","San Juan National Forest","0213","San Juan National Forest","105","","","RATTLESNAKE","","","","","","2001","2001/07/13 00:00:00+00","194","1430","Natural","Natural","","2001/07/13 00:00:00+00","194","1635","0.1","A","37.54388889","-108.53388889","USFS","CO","","",""
"-108.369156044","37.594716321","1060054","1272819","FS-365550","FED","FS-FIRESTAT","FS","USCOSJF","San Juan National Forest","0213","San Juan National Forest","60","","","NORTH BOGGY WFU","","","","","","2001","2001/07/03 00:00:00+00","184","1330","Natural","Natural","","2001/07/03 00:00:00+00","184","1800","1","B","37.59472222","-108.36916667","USFS","CO","","",""
"-107.825267279","37.514716297","1060055","1272820","FS-365563","FED","FS-FIRESTAT","FS","USCOSJF","San Juan National Forest","0213","San Juan National Forest","158","","","GOULDING","","","","","","2001","2001/08/29 00:00:00+00","241","1730","Natural","Natural","","2001/08/31 00:00:00+00","243","1030","0.3","B","37.51472222","-107.82527778","USFS","CO","","",""
"-116.534986705","44.834160644","1060056","1272822","FS-365602","FED","FS-FIRESTAT","FS","USIDPAF","Payette National Forest","0412","Payette National Forest","80","","5600","BADGER","","","","","","2001","2001/09/16 00:00:00+00","259","0902","Natural","Natural","","2001/09/16 00:00:00+00","259","1130","0.4","B","44.83416667","-116.535","OTHER FEDERAL","ID","","",""
"-118.2688765","36.25166158","1060057","1272823","FS-365737","FED","FS-FIRESTAT","FS","USCAINF","Inyo National Forest","0504","Inyo National Forest","34","","","CASA VIEJA","","","","","","2001","2001/07/05 00:00:00+00","186","1830","Natural","Natural","","2001/07/11 00:00:00+00","192","2100","0.1","A","36.25166667","-118.26888889","USFS","CA","","",""
"-116.023875245","47.028327081","1060058","1272824","FS-365791","FED","FS-FIRESTAT","FS","USIDIPF","Idaho Panhandle National Forest","0104","Idaho Panhandle National Forest","118","","2105","FREEZEOUT #36","","","","","","2001","2001/09/18 00:00:00+00","261","1115","Natural","Natural","","2001/09/19 00:00:00+00","262","1741","0.1","A","47.02833333","-116.02388889","USFS","ID","79","16079","Shoshone County"
"-121.426098213","36.227772901","1060059","1272825","FS-365832","FED","FS-FIRESTAT","FS","USCALPF","Los Padres National Forest","0507","Los Padres National Forest","37","","3158","ARROYO SECO","","","","","","2001","2001/08/25 00:00:00+00","237","1101","Human","Arson/incendiarism","","2001/08/25 00:00:00+00","237","1700","9","B","36.22777778","-121.42611111","MISSING/NOT SPECIFIED","CA","","",""
"-121.431098212","36.227495121","1060060","1272826","FS-365834","FED","FS-FIRESTAT","FS","USCALPF","Los Padres National Forest","0507","Los Padres National Forest","18","","3109","MILLER","","","","","","2001","2001/06/21 00:00:00+00","172","1102","Human","Other causes","","2001/06/21 00:00:00+00","172","1700","1","B","36.2275","-121.43111111","MISSING/NOT SPECIFIED","CA","","",""
"-111.950543092","45.268326833","1060061","1272827","FS-366026","FED","FS-FIRESTAT","FS","USMTBDF","Beaverhead-Deerlodge National Forest","0102","Beaverhead-Deerlodge National Forest","42","","0370","ELKHORN CITY","","","","","","2001","2001/09/19 00:00:00+00","262","1245","Human","Other causes","","2001/09/19 00:00:00+00","262","1630","0.2","A","45.26833333","-111.95055556","MISSING/NOT SPECIFIED","MT","","",""
"-112.249709487","46.313604544","1060062","1272828","FS-366027","FED","FS-FIRESTAT","FS","USMTBDF","Beaverhead-Deerlodge National Forest","0102","Beaverhead-Deerlodge National Forest","45","","0392","SATURDAY NIGHT","","","","","","2001","2001/10/07 00:00:00+00","280","2256","Human","Arson/incendiarism","","2001/10/08 00:00:00+00","281","0800","1.5","B","46.31361111","-112.24972222","STATE OR PRIVATE","MT","","",""
"-81.96166306","35.861659697","1060063","1272829","FS-366212","FED","FS-FIRESTAT","FS","USNCNCF","National Forests in North Carolina","0811","National Forests in North Carolina","71","","8098","HONEYCUTT","","","","","","2001","2001/04/26 00:00:00+00","116","1120","Human","Railroad operations and maintenance","","2001/04/26 00:00:00+00","116","1400","0.1","A","35.86166667","-81.96166667","MISSING/NOT SPECIFIED","NC","111","37111","McDowell County"
"-114.918875261","47.923604679","1060064","1272830","FS-366214","FED","FS-FIRESTAT","FS","USMTLNF","Lolo National Forest","0116","Lolo National Forest","127","","7734","SHRODER/MURR","","","","","","2001","2001/07/13 00:00:00+00","194","1600","Natural","Natural","","2001/07/13 00:00:00+00","194","2053","0.1","A","47.92361111","-114.91888889","USFS","MT","89","30089","Sanders County"
"-115.171930755","47.949438033","1060065","1272831","FS-366215","FED","FS-FIRESTAT","FS","USMTLNF","Lolo National Forest","0116","Lolo National Forest","128","","7735","WHITE BULL","","","","","","2001","2001/07/21 00:00:00+00","202","1010","Natural","Natural","","2001/07/21 00:00:00+00","202","1425","0.1","A","47.94944444","-115.17194444","USFS","MT","89","30089","Sanders County"
"-82.250274096","35.662493079","1060066","1272832","FS-366217","FED","FS-FIRESTAT","FS","USNCNCF","National Forests in North Carolina","0811","National Forests in North Carolina","24","","8051","GRAPHITE","","","","","","2001","2001/03/10 00:00:00+00","69","1400","Human","Railroad operations and maintenance","","2001/03/10 00:00:00+00","69","2330","10","C","35.6625","-82.25027778","MISSING/NOT SPECIFIED","NC","111","37111","McDowell County"
"-81.598329817","36.048326304","1060067","1272833","FS-366218","FED","FS-FIRESTAT","FS","USNCNCF","National Forests in North Carolina","0811","National Forests in North Carolina","50","","8077","WATERFALLS","","","","","","2001","2001/04/10 00:00:00+00","100","1510","Human","Debris and open burning","","2001/04/10 00:00:00+00","100","2200","15","C","36.04833333","-81.59833333","MISSING/NOT SPECIFIED","NC","27","37027","Caldwell County"
"-81.893329736","35.92832634","1060068","1272834","FS-366222","FED","FS-FIRESTAT","FS","USNCNCF","National Forests in North Carolina","0811","National Forests in North Carolina","81","","8108","LINVILLE FALLS","","","","","","2001","2001/04/28 00:00:00+00","118","1700","Human","Debris and open burning","","2001/04/28 00:00:00+00","118","2330","6","B","35.92833333","-81.89333333","MISSING/NOT SPECIFIED","NC","111","37111","McDowell County"
"-81.584996491","36.043326304","1060069","1272835","FS-366224","FED","FS-FIRESTAT","FS","USNCNCF","National Forests in North Carolina","0811","National Forests in North Carolina","92","","8119","FORD","","","","","","2001","2001/05/04 00:00:00+00","124","1800","Natural","Natural","","2001/05/04 00:00:00+00","124","2230","1","B","36.04333333","-81.585","STATE OR PRIVATE","NC","27","37027","Caldwell County"
"-81.681107573","36.036104089","1060070","1272836","FS-366225","FED","FS-FIRESTAT","FS","USNCNCF","National Forests in North Carolina","0811","National Forests in North Carolina","95","","8122","GLOBE MOUNTAIN","","","","","","2001","2001/05/07 00:00:00+00","127","1210","Human","Debris and open burning","","2001/05/07 00:00:00+00","127","2330","30","C","36.03611111","-81.68111111","MISSING/NOT SPECIFIED","NC","27","37027","Caldwell County"
"-81.678329794","36.03499298","1060071","1272837","FS-366226","FED","FS-FIRESTAT","FS","USNCNCF","National Forests in North Carolina","0811","National Forests in North Carolina","98","","8125","OLD CHARLEY","","","","","","2001","2001/05/15 00:00:00+00","135","1900","Human","Other causes","","2001/05/16 00:00:00+00","136","0130","6","B","36.035","-81.67833333","MISSING/NOT SPECIFIED","NC","27","37027","Caldwell County"
"-83.193329403","35.060826572","1060072","1272838","FS-366230","FED","FS-FIRESTAT","FS","USNCNCF","National Forests in North Carolina","0811","National Forests in North Carolina","114","","8141","ROLLING ACRES","","","","","","2001","2001/10/26 00:00:00+00","299","1455","Human","Missing data/not specified/undetermined","","2001/10/26 00:00:00+00","299","1600","0.3","B","35.06083333","-83.19333333","MISSING/NOT SPECIFIED","NC","113","37113","Macon County"
"-121.044708159","44.719161091","1060073","1272839","FS-366560","FED","FS-FIRESTAT","FS","USOROCF","Ochoco National Forest","0607","Ochoco National Forest","8","","0922","0271","","","","","","2001","2001/06/02 00:00:00+00","153","1805","Human","Missing data/not specified/undetermined","","2001/06/02 00:00:00+00","153","1930","0.1","A","44.71916667","-121.04472222","STATE OR PRIVATE","OR","","",""
"-122.244985913","43.845272375","1060074","1272840","FS-366565","FED","FS-FIRESTAT","FS","USORWIF","Willamette National Forest","0618","Willamette National Forest","93","","","BLAIR LAKE","","","","","","2001","2001/09/15 00:00:00+00","258","0700","Natural","Natural","","2001/09/15 00:00:00+00","258","1300","0.1","A","43.84527778","-122.245","USFS","OR","039","41039","Lane County"
"-111.219155749","34.368050271","1060075","1272841","FS-366670","FED","FS-FIRESTAT","FS","USAZTNF","Tonto National Forest","0312","Tonto National Forest","213","","8717","WALK","","","","","","2001","2001/10/15 00:00:00+00","288","1228","Human","Missing data/not specified/undetermined","","2001/10/15 00:00:00+00","288","1600","1.5","B","34.36805556","-111.21916667","STATE OR PRIVATE","AZ","007","04007","Gila County"
"-83.884440296","35.306659888","1060076","1272842","FS-366675","FED","FS-FIRESTAT","FS","USNCNCF","National Forests in North Carolina","0811","National Forests in North Carolina","113","","8140","SQUALLY","","","","","","2001","2001/10/26 00:00:00+00","299","1250","Human","Missing data/not specified/undetermined","","2001/10/26 00:00:00+00","299","2030","46","C","35.30666667","-83.88444444","STATE OR PRIVATE","NC","75","37075","Graham County"
"-84.116662475","35.033326614","1060077","1272843","FS-366678","FED","FS-FIRESTAT","FS","USNCNCF","National Forests in North Carolina","0811","National Forests in North Carolina","110","","8137","HILLTOP","","","","","","2001","2001/10/24 00:00:00+00","297","1525","Human","Debris and open burning","","2001/10/24 00:00:00+00","297","1800","10","C","35.03333333","-84.11666667","STATE OR PRIVATE","NC","39","37039","Cherokee County"
"-84.142218016","35.048604391","1060078","1272844","FS-366679","FED","FS-FIRESTAT","FS","USNCNCF","National Forests in North Carolina","0811","National Forests in North Carolina","118","","8145","GRAHAM","","","","","","2001","2001/10/29 00:00:00+00","302","1255","Human","Debris and open burning","","2001/10/29 00:00:00+00","302","1730","0.5","B","35.04861111","-84.14222222","STATE OR PRIVATE","NC","39","37039","Cherokee County"
"-122.751653241","39.118883864","1060079","1272845","FS-366894","FED","FS-FIRESTAT","FS","USCAMNF","Mendocino National Forest","0508","Mendocino National Forest","10","","","LONG","","","","","","2001","2001/06/10 00:00:00+00","161","1340","Human","Missing data/not specified/undetermined","","2001/06/10 00:00:00+00","161","1830","2","B","39.11888889","-122.75166667","STATE OR PRIVATE","CA","","",""
"-122.991653168","39.399994972","1060080","1272846","FS-366900","FED","FS-FIRESTAT","FS","USCAMNF","Mendocino National Forest","0508","Mendocino National Forest","9","","3684","EEL","","","","","","2001","2001/05/28 00:00:00+00","148","1120","Human","Recreation and ceremony","","2001/05/28 00:00:00+00","148","1400","0.1","A","39.4","-122.99166667","MISSING/NOT SPECIFIED","CA","33","06033","Lake County"
"-122.218596927","44.378883448","1060081","1272847","FS-367010","FED","FS-FIRESTAT","FS","USORWIF","Willamette National Forest","0618","Willamette National Forest","27","","0001","SEVEN MILE","","","","","","2001","2001/07/12 00:00:00+00","193","0900","Human","Equipment and vehicle use","","2001/07/12 00:00:00+00","193","2000","0.1","A","44.37888889","-122.21861111","USFS","OR","043","41043","Linn County"
"-94.245826548","31.208327798","1060082","1272848","FS-367028","FED","FS-FIRESTAT","FS","USTXTXF","National Forests And Grasslands In Texas","0813","National Forests in Texas","14","","9500","REUNION","","","","","","2001","2001/08/04 00:00:00+00","216","1200","Human","Debris and open burning","","2001/08/04 00:00:00+00","216","1830","10","C","31.20833333","-94.24583333","STATE OR PRIVATE","TX","","",""
"-95.112493034","30.391105775","1060083","1272849","FS-367033","FED","FS-FIRESTAT","FS","USTXTXF","National Forests And Grasslands In Texas","0813","National Forests in Texas","21","","9500","MYSTERY","","","","","","2001","2001/08/20 00:00:00+00","232","0400","Human","Debris and open burning","","2001/08/23 00:00:00+00","235","1400","27","C","30.39111111","-95.1125","STATE OR PRIVATE","TX","","",""
"-94.14721547","31.076938931","1060084","1272850","FS-367035","FED","FS-FIRESTAT","FS","USTXTXF","National Forests And Grasslands In Texas","0813","National Forests in Texas","4","","9500","MYSTERY","","","","","","2001","2001/05/02 00:00:00+00","122","0500","Human","Debris and open burning","","2001/05/02 00:00:00+00","122","1100","29","C","31.07694444","-94.14722222","STATE OR PRIVATE","TX","","",""
"-92.673604738","31.275272176","1060085","1272851","FS-367042","FED","FS-FIRESTAT","FS","USLAKIF","Kisatchie National Forest","0806","Kisatchie National Forest","23","","6500","023 OFFICE","","","","","","2001","2001/10/22 00:00:00+00","295","1430","Human","Debris and open burning","","2001/10/22 00:00:00+00","295","1530","2","B","31.27527778","-92.67361111","STATE OR PRIVATE","LA","","",""
"-114.236931289","46.358882514","1060086","1272852","FS-367161","FED","FS-FIRESTAT","FS","USMTBRF","Bitterroot National Forest","0103","Bitterroot National Forest","9","","1475","FRED BURR FLAT","","","","","","2001","2001/07/02 00:00:00+00","183","1750","Human","Debris and open burning","","2001/07/02 00:00:00+00","183","2200","0.3","B","46.35888889","-114.23694444","MISSING/NOT SPECIFIED","MT","","",""
"-103.630545392","42.704159755","1060087","1272853","FS-367246","FED","FS-FIRESTAT","FS","USNENBF","Nebraska National Forest","0207","Nebraska National Forest","12","","3018","DOUBLE WINDMILL","","","","","","2001","2001/08/28 00:00:00+00","240","0200","Human","Equipment and vehicle use","","2001/08/28 00:00:00+00","240","1800","239.6","D","42.70416667","-103.63055556","STATE OR PRIVATE","NE","","",""
"-100.138323826","44.146659297","1060088","1272854","FS-367263","FED","FS-FIRESTAT","FS","USNENBF","Nebraska National Forest","0207","Nebraska National Forest","13","","3018","CEDAR CREEK","","","","","","2001","2001/08/28 00:00:00+00","240","1200","Human","Equipment and vehicle use","","2001/08/28 00:00:00+00","240","2030","239.6","D","44.14666667","-100.13833333","STATE OR PRIVATE","SD","85","46085","Lyman County"
"-94.312493203","31.156105591","1060089","1272855","FS-367324","FED","FS-FIRESTAT","FS","USTXTXF","National Forests And Grasslands In Texas","0813","National Forests in Texas","8","","9500","HIGHLINE","","","","","","2001","2001/07/03 00:00:00+00","184","1545","Human","Power generation/transmission/distribution","","2001/07/03 00:00:00+00","184","1615","0.5","B","31.15611111","-94.3125","STATE OR PRIVATE","TX","","",""
"-76.799997994","34.916659717","1060090","1272856","FS-367409","FED","FS-FIRESTAT","FS","USNCNCF","National Forests in North Carolina","0811","National Forests in North Carolina","112","","8139","FERRY ROAD","","","","","","2001","2001/10/26 00:00:00+00","299","1230","Human","Debris and open burning","","2001/10/26 00:00:00+00","299","1500","5","B","34.91666667","-76.8","STATE OR PRIVATE","NC","49","37049","Craven County"
"-76.816664658","34.933326374","1060091","1272857","FS-367410","FED","FS-FIRESTAT","FS","USNCNCF","National Forests in North Carolina","0811","National Forests in North Carolina","123","","8150","DORY COURT","","","","","","2001","2001/10/30 00:00:00+00","303","1330","Human","Misuse of fire by a minor","Minor","2001/10/30 00:00:00+00","303","1500","1","B","34.93333333","-76.81666667","STATE OR PRIVATE","NC","49","37049","Craven County"
"-83.866940298","35.369159874","1060092","1272858","FS-367411","FED","FS-FIRESTAT","FS","USNCNCF","National Forests in North Carolina","0811","National Forests in North Carolina","146","","8173","SANTEETLAH DAM","","","","","","2001","2001/11/12 00:00:00+00","316","1915","Human","Missing data/not specified/undetermined","","2001/11/12 00:00:00+00","316","2200","2","B","35.36916667","-83.86694444","STATE OR PRIVATE","NC","75","37075","Graham County"
"-83.769162557","35.350548764","1060093","1272859","FS-367412","FED","FS-FIRESTAT","FS","USNCNCF","National Forests in North Carolina","0811","National Forests in North Carolina","160","","8187","FROSTY","","","","","","2001","2001/11/18 00:00:00+00","322","1850","Human","Arson/incendiarism","","2001/11/18 00:00:00+00","322","2200","1","B","35.35055556","-83.76916667","STATE OR PRIVATE","NC","75","37075","Graham County"
"-83.218607174","35.072493241","1060094","1272860","FS-367413","FED","FS-FIRESTAT","FS","USNCNCF","National Forests in North Carolina","0811","National Forests in North Carolina","120","","8141","REPEAT","","","","","","2001","2001/10/30 00:00:00+00","303","1045","Human","Debris and open burning","","2001/10/30 00:00:00+00","303","1230","0.1","A","35.0725","-83.21861111","USFS","NC","113","37113","Macon County"
"-83.244718279","35.039159919","1060095","1272861","FS-367414","FED","FS-FIRESTAT","FS","USNCNCF","National Forests in North Carolina","0811","National Forests in North Carolina","122","","8149","LICKLOG","","","","","","2001","2001/10/30 00:00:00+00","303","1535","Human","Smoking","","2001/10/30 00:00:00+00","303","1635","2","B","35.03916667","-83.24472222","MISSING/NOT SPECIFIED","NC","113","37113","Macon County"
"-83.212218287","35.066104352","1060096","1272862","FS-367416","FED","FS-FIRESTAT","FS","USNCNCF","National Forests in North Carolina","0811","National Forests in North Carolina","134","","8161","WYANOAK","","","","","","2001","2001/11/08 00:00:00+00","312","1040","Human","Missing data/not specified/undetermined","","2001/11/08 00:00:00+00","312","1200","0.3","B","35.06611111","-83.21222222","MISSING/NOT SPECIFIED","NC","113","37113","Macon County"
"-83.234996059","35.089437678","1060097","1272863","FS-367420","FED","FS-FIRESTAT","FS","USNCNCF","National Forests in North Carolina","0811","National Forests in North Carolina","153","","8180","BRUSH CREEK","","","","","","2001","2001/11/16 00:00:00+00","320","1310","Human","Smoking","","2001/11/16 00:00:00+00","320","1545","3","B","35.08944444","-83.235","MISSING/NOT SPECIFIED","NC","113","37113","Macon County"
"-112.231654652","42.249716049","1060098","1272864","FS-367472","FED","FS-FIRESTAT","FS","USIDCTF","Caribou-Targhee National Forest","0405","Caribou National Forest","16","","7000","FREDRICKSON","","","","","","2001","2001/07/27 00:00:00+00","208","2015","Natural","Natural","","2001/07/28 00:00:00+00","209","0230","5","B","42.24972222","-112.23166667","MISSING/NOT SPECIFIED","ID","71","16071","Oneida County"
"-112.146376929","41.98638274","1060099","1272865","FS-367477","FED","FS-FIRESTAT","FS","USIDCTF","Caribou-Targhee National Forest","0405","Caribou National Forest","13","","7000","BORDER","","","","","","2001","2001/07/14 00:00:00+00","195","1600","Natural","Natural","","2001/07/17 00:00:00+00","198","1400","8","B","41.98638889","-112.14638889","MISSING/NOT SPECIFIED","UT","3","49003","Box Elder County"
"-112.838321176","42.337216091","1060100","1272866","FS-367482","FED","FS-FIRESTAT","FS","USIDCTF","Caribou-Targhee National Forest","0405","Caribou National Forest","34","","7084","KRESS","","","","","","2001","2001/09/19 00:00:00+00","262","1446","Human","Debris and open burning","","2001/09/19 00:00:00+00","262","2030","250","D","42.33722222","-112.83833333","MISSING/NOT SPECIFIED","ID","77","16077","Power County"
"-112.213876902","42.074438286","1060101","1272867","FS-367484","FED","FS-FIRESTAT","FS","USIDCTF","Caribou-Targhee National Forest","0405","Caribou National Forest","33","","7000","BOUNDARY","","","","","","2001","2001/08/12 00:00:00+00","224","1900","Natural","Natural","","2001/08/12 00:00:00+00","224","2130","0.1","A","42.07444444","-112.21388889","MISSING/NOT SPECIFIED","ID","71","16071","Oneida County"
"-111.43109929","42.023327117","1060102","1272868","FS-367524","FED","FS-FIRESTAT","FS","USIDCTF","Caribou-Targhee National Forest","0405","Caribou National Forest","19","","7048","BEAR LAKE WEST","","","","","","2001","2001/08/03 00:00:00+00","215","0200","Human","Other causes","","2001/08/03 00:00:00+00","215","0400","1","B","42.02333333","-111.43111111","MISSING/NOT SPECIFIED","ID","7","16007","Bear Lake County"
"-103.668323059","43.351104115","1060103","1272869","FS-367599","FED","FS-FIRESTAT","FS","USSDBKF","Black Hills National Forest","0203","Black Hills National Forest","34","","0903","HELLS CANYON #2","","","","","","2001","2001/06/09 00:00:00+00","160","1901","Human","Power generation/transmission/distribution","","2001/06/10 00:00:00+00","161","1130","4","B","43.35111111","-103.66833333","USFS","SD","","",""
"-118.783319651","44.716660869","1060104","1272870","FS-367667","FED","FS-FIRESTAT","FS","USORMAF","Malheur National Forest","0604","Malheur National Forest","255","","2134","OR-MAF-352","","","","","","2001","2001/10/26 00:00:00+00","299","1620","Human","Missing data/not specified/undetermined","","2001/10/27 00:00:00+00","300","2359","3","B","44.71666667","-118.78333333","STATE OR PRIVATE","OR","023","41023","Grant County"
"-122.615264086","41.152494812","1060105","1272871","FS-367715","FED","FS-FIRESTAT","FS","USCASHF","Shasta-Trinity National Forest","0514","Shasta-Trinity National Forest","48","","6300","METER","","","","","","2001","2001/07/13 00:00:00+00","194","1900","Natural","Natural","","2001/07/14 00:00:00+00","195","1200","0.1","A","41.1525","-122.61527778","STATE OR PRIVATE","CA","","",""
"-122.533875163","41.451939223","1060106","1272872","FS-367736","FED","FS-FIRESTAT","FS","USCASHF","Shasta-Trinity National Forest","0514","Shasta-Trinity National Forest","68","","6300","CHINA","","","","","","2001","2001/07/12 00:00:00+00","193","1000","Natural","Natural","","2001/07/12 00:00:00+00","193","1430","0.1","A","41.45194444","-122.53388889","USFS","CA","","",""
"-121.624986438","41.283328047","1060107","1272873","FS-367752","FED","FS-FIRESTAT","FS","USCASHF","Shasta-Trinity National Forest","0514","Shasta-Trinity National Forest","35","","6300","JULIET","","","","","","2001","2001/07/03 00:00:00+00","184","1335","Natural","Natural","","2001/07/03 00:00:00+00","184","1630","0.1","A","41.28333333","-121.625","USFS","CA","","",""
"-122.435264171","40.767494824","1060108","1272874","FS-367758","FED","FS-FIRESTAT","FS","USCASHF","Shasta-Trinity National Forest","0514","Shasta-Trinity National Forest","86","","6300","MINE","","","","","","2001","2001/08/03 00:00:00+00","215","1235","Human","Equipment and vehicle use","","2001/08/03 00:00:00+00","215","1715","0.1","A","40.7675","-122.43527778","USFS","CA","","",""
"-122.966652983","40.749994871","1060109","1272875","FS-367774","FED","FS-FIRESTAT","FS","USCASHF","Shasta-Trinity National Forest","0514","Shasta-Trinity National Forest","101","","6415","OREGON","2001_CA-SHU-07984_OREGON","","CA4074312296820010828","OREGON","","2001","2001/08/28 00:00:00+00","240","1501","Human","Equipment and vehicle use","","2001/09/02 00:00:00+00","245","1800","1680","F","40.75","-122.96666667","USFS","CA","","",""
"-103.648323059","43.383326329","1060110","1272876","FS-367832","FED","FS-FIRESTAT","FS","USSDBKF","Black Hills National Forest","0203","Black Hills National Forest","52","","0921","FALLS CANYON","","","","","","2001","2001/07/03 00:00:00+00","184","1630","Natural","Natural","","2001/07/04 00:00:00+00","185","1100","7","B","43.38333333","-103.64833333","MISSING/NOT SPECIFIED","SD","","",""
"-116.908321368","34.086106175","1060111","1272877","FS-368009","FED","FS-FIRESTAT","FS","USCABDF","San Bernardino National Forest","0512","San Bernardino National Forest","4","","4800","ALDER","","","","","","2001","2001/01/03 00:00:00+00","3","1555","Human","Arson/incendiarism","","2001/01/03 00:00:00+00","3","1700","0.1","A","34.08611111","-116.90833333","STATE OR PRIVATE","CA","","",""
"-116.866932513","33.735828433","1060112","1272878","FS-368012","FED","FS-FIRESTAT","FS","USCABDF","San Bernardino National Forest","0512","San Bernardino National Forest","14","","4800","FOOL","","","","","","2001","2001/04/01 00:00:00+00","91","1200","Human","Equipment and vehicle use","","2001/04/01 00:00:00+00","91","1245","0.1","A","33.73583333","-116.86694444","MISSING/NOT SPECIFIED","CA","","",""
"-116.866654742","33.751661771","1060113","1272879","FS-368015","FED","FS-FIRESTAT","FS","USCABDF","San Bernardino National Forest","0512","San Bernardino National Forest","19","","4800","SOBOBA-1","","","","","","2001","2001/05/14 00:00:00+00","134","1535","Human","Equipment and vehicle use","","2001/05/14 00:00:00+00","134","1645","1","B","33.75166667","-116.86666667","MISSING/NOT SPECIFIED","CA","","",""
"-116.849988086","33.616661786","1060114","1272880","FS-368016","FED","FS-FIRESTAT","FS","USCABDF","San Bernardino National Forest","0512","San Bernardino National Forest","23","","4800","STANLEY","","","","","","2001","2001/05/21 00:00:00+00","141","0930","Human","Other causes","","2001/05/21 00:00:00+00","141","1500","0.5","B","33.61666667","-116.85","MISSING/NOT SPECIFIED","CA","","",""
"-116.883876957","33.784717318","1060115","1272881","FS-368017","FED","FS-FIRESTAT","FS","USCABDF","San Bernardino National Forest","0512","San Bernardino National Forest","30","","4800","POPPET","","","","","","2001","2001/06/06 00:00:00+00","157","1204","Human","Equipment and vehicle use","","2001/06/06 00:00:00+00","157","1500","3","B","33.78472222","-116.88388889","MISSING/NOT SPECIFIED","CA","","",""
"-116.884988069","33.752217322","1060116","1272882","FS-368018","FED","FS-FIRESTAT","FS","USCABDF","San Bernardino National Forest","0512","San Bernardino National Forest","34","","4800","FAIRVIEW","","","","","","2001","2001/06/07 00:00:00+00","158","1706","Human","Arson/incendiarism","","2001/06/07 00:00:00+00","158","1900","1","B","33.75222222","-116.885","MISSING/NOT SPECIFIED","CA","","",""
"-116.601932552","33.834717297","1060117","1272883","FS-368020","FED","FS-FIRESTAT","FS","USCABDF","San Bernardino National Forest","0512","San Bernardino National Forest","42","","4800","TRAM","","","","","","2001","2001/06/17 00:00:00+00","168","1840","Human","Arson/incendiarism","","2001/06/18 00:00:00+00","169","1800","300","E","33.83472222","-116.60194444","MISSING/NOT SPECIFIED","CA","","",""
"-117.179987977","34.25832839","1060118","1272884","FS-368023","FED","FS-FIRESTAT","FS","USCABDF","San Bernardino National Forest","0512","San Bernardino National Forest","13","","","LAKEBROOK","","","","","","2001","2001/03/25 00:00:00+00","84","1158","Human","Other causes","","2001/03/25 00:00:00+00","84","1201","0.1","A","34.25833333","-117.18","STATE OR PRIVATE","CA","","",""
"-117.441654595","34.341661736","1060119","1272885","FS-368025","FED","FS-FIRESTAT","FS","USCABDF","San Bernardino National Forest","0512","San Bernardino National Forest","7","","4800","MCCOY","","","","","","2001","2001/01/05 00:00:00+00","5","1300","Human","Equipment and vehicle use","","2001/01/05 00:00:00+00","5","1320","0.1","A","34.34166667","-117.44166667","MISSING/NOT SPECIFIED","CA","","",""
"-117.408043499","34.243050635","1060120","1272886","FS-368026","FED","FS-FIRESTAT","FS","USCABDF","San Bernardino National Forest","0512","San Bernardino National Forest","10","","4800","COPSE","","","","","","2001","2001/02/17 00:00:00+00","48","0834","Human","Arson/incendiarism","","2001/02/17 00:00:00+00","48","0950","0.1","A","34.24305556","-117.40805556","STATE OR PRIVATE","CA","","",""
"-117.269987966","34.207495071","1060121","1272887","FS-368027","FED","FS-FIRESTAT","FS","USCABDF","San Bernardino National Forest","0512","San Bernardino National Forest","12","","4800","WATERMAN","","","","","","2001","2001/03/13 00:00:00+00","72","1323","Human","Arson/incendiarism","","2001/03/13 00:00:00+00","72","1500","0.1","A","34.2075","-117.27","STATE OR PRIVATE","CA","","",""
"-116.901654744","33.651661785","1060122","1272888","FS-368029","FED","FS-FIRESTAT","FS","USCABDF","San Bernardino National Forest","0512","San Bernardino National Forest","50","","4800","CACTUS","","","","","","2001","2001/06/25 00:00:00+00","176","1456","Human","Missing data/not specified/undetermined","","2001/06/25 00:00:00+00","176","1620","0.1","A","33.65166667","-116.90166667","MISSING/NOT SPECIFIED","CA","","",""
"-116.417765943","33.601106205","1060123","1272889","FS-368031","FED","FS-FIRESTAT","FS","USCABDF","San Bernardino National Forest","0512","San Bernardino National Forest","58","","4801","MANZANITA","","","","","","2001","2001/07/03 00:00:00+00","184","2327","Natural","Natural","","2001/07/04 00:00:00+00","185","0100","0.1","A","33.60111111","-116.41777778","MISSING/NOT SPECIFIED","CA","","",""
"-116.916654745","33.601384012","1060124","1272890","FS-368038","FED","FS-FIRESTAT","FS","USCABDF","San Bernardino National Forest","0512","San Bernardino National Forest","78","","4801","BALLINGER","","","","","","2001","2001/07/09 00:00:00+00","190","1350","Natural","Natural","","2001/07/10 00:00:00+00","191","1800","350","E","33.60138889","-116.91666667","MISSING/NOT SPECIFIED","CA","","",""
"-117.303043515","34.273050626","1060125","1272891","FS-368056","FED","FS-FIRESTAT","FS","USCABDF","San Bernardino National Forest","0512","San Bernardino National Forest","32","","","BOAT","","","","","","2001","2001/06/08 00:00:00+00","159","1001","Human","Equipment and vehicle use","","2001/06/08 00:00:00+00","159","1045","0.1","A","34.27305556","-117.30305556","STATE OR PRIVATE","CA","","",""
"-116.866654757","33.566661793","1060126","1272892","FS-368064","FED","FS-FIRESTAT","FS","USCABDF","San Bernardino National Forest","0512","San Bernardino National Forest","94","","4800","FIELDS","","","","","","2001","2001/07/29 00:00:00+00","210","1008","Human","Debris and open burning","","2001/07/29 00:00:00+00","210","1113","0.1","A","33.56666667","-116.86666667","MISSING/NOT SPECIFIED","CA","","",""
"-116.915265837","33.841661764","1060127","1272893","FS-368067","FED","FS-FIRESTAT","FS","USCABDF","San Bernardino National Forest","0512","San Bernardino National Forest","79","","4855","SILENT","2001_CA-RRU-47545_SILENT","","","","","2001","2001/07/11 00:00:00+00","192","1344","Human","Debris and open burning","","2001/07/14 00:00:00+00","195","1700","548","E","33.84166667","-116.91527778","MISSING/NOT SPECIFIED","CA","","",""
"-116.899710284","33.7824951","1060128","1272894","FS-368069","FED","FS-FIRESTAT","FS","USCABDF","San Bernardino National Forest","0512","San Bernardino National Forest","119","","4855","SOBOBA #2","","","","","","2001","2001/08/18 00:00:00+00","230","1516","Human","Missing data/not specified/undetermined","","2001/08/18 00:00:00+00","230","2200","10","C","33.7825","-116.89972222","MISSING/NOT SPECIFIED","CA","","",""
"-117.285543524","34.200828403","1060129","1272895","FS-368071","FED","FS-FIRESTAT","FS","USCABDF","San Bernardino National Forest","0512","San Bernardino National Forest","22","","4800","GREYHOUND","","","","","","2001","2001/05/20 00:00:00+00","140","1308","Human","Equipment and vehicle use","","2001/05/20 00:00:00+00","140","1330","0.1","A","34.20083333","-117.28555556","STATE OR PRIVATE","CA","","",""
"-117.441654602","34.258328405","1060130","1272896","FS-368099","FED","FS-FIRESTAT","FS","USCABDF","San Bernardino National Forest","0512","San Bernardino National Forest","53","","4800","BURNT CAR","","","","","","2001","2001/06/30 00:00:00+00","181","2216","Human","Equipment and vehicle use","","2001/06/30 00:00:00+00","181","2305","0.1","A","34.25833333","-117.44166667","STATE OR PRIVATE","CA","","",""
"-117.127765755","34.392495042","1060131","1272897","FS-368107","FED","FS-FIRESTAT","FS","USCABDF","San Bernardino National Forest","0512","San Bernardino National Forest","127","","","FORKS","","","","","","2001","2001/08/30 00:00:00+00","242","1321","Human","Missing data/not specified/undetermined","","2001/08/30 00:00:00+00","242","1445","0.5","B","34.3925","-117.12777778","MISSING/NOT SPECIFIED","CA","","",""
"-116.866654701","34.258328373","1060132","1272898","FS-368109","FED","FS-FIRESTAT","FS","USCABDF","San Bernardino National Forest","0512","San Bernardino National Forest","130","","","HIGHLAND","","","","","","2001","2001/09/01 00:00:00+00","244","1739","Human","Misuse of fire by a minor","Minor","2001/09/01 00:00:00+00","244","1804","0.1","A","34.25833333","-116.86666667","MISSING/NOT SPECIFIED","CA","","",""
"-117.389987946","34.199995079","1060133","1272899","FS-368115","FED","FS-FIRESTAT","FS","USCABDF","San Bernardino National Forest","0512","San Bernardino National Forest","90","","4847","SHELBY","2001_CA-BDF-5746_SHELBY","","","","","2001","2001/07/27 00:00:00+00","208","1022","Human","Railroad operations and maintenance","","2001/07/29 00:00:00+00","210","1800","720","E","34.2","-117.39","MISSING/NOT SPECIFIED","CA","","",""
"-116.839710316","33.506661799","1060134","1272900","FS-368123","FED","FS-FIRESTAT","FS","USCABDF","San Bernardino National Forest","0512","San Bernardino National Forest","131","","4801","MUSEUM","","","","","","2001","2001/09/02 00:00:00+00","245","1330","Natural","Natural","","2001/09/02 00:00:00+00","245","1410","0.1","A","33.50666667","-116.83972222","MISSING/NOT SPECIFIED","CA","","",""
"-117.332765734","34.218328404","1060135","1272901","FS-368126","FED","FS-FIRESTAT","FS","USCABDF","San Bernardino National Forest","0512","San Bernardino National Forest","151","","4865","DEVILS CANYON","2001_CA-BDF-7589_DEVILS COMPLEX","2001_CA-BDF-7589_DEVILS COMPLEX","","","DEVILS COMPLEX","2001","2001/09/23 00:00:00+00","266","1903","Human","Missing data/not specified/undetermined","","2001/09/26 00:00:00+00","269","1800","150","D","34.21833333","-117.33277778","STATE OR PRIVATE","CA","","",""
"-117.436099049","34.183328414","1060136","1272902","FS-368132","FED","FS-FIRESTAT","FS","USCABDF","San Bernardino National Forest","0512","San Bernardino National Forest","85","","4800","LYTLE CREEK","","","","","","2001","2001/07/20 00:00:00+00","201","0003","Human","Arson/incendiarism","","2001/07/20 00:00:00+00","201","1200","1","B","34.18333333","-117.43611111","MISSING/NOT SPECIFIED","CA","","",""
"-117.458321255","34.303328401","1060137","1272903","FS-368139","FED","FS-FIRESTAT","FS","USCABDF","San Bernardino National Forest","0512","San Bernardino National Forest","56","","4800","CLEGHORN","","","","","","2001","2001/07/02 00:00:00+00","183","1531","Human","Equipment and vehicle use","","2001/07/22 00:00:00+00","203","1534","0.1","A","34.30333333","-117.45833333","STATE OR PRIVATE","CA","","",""
"-117.494987912","34.388050624","1060138","1272904","FS-368140","FED","FS-FIRESTAT","FS","USCABDF","San Bernardino National Forest","0512","San Bernardino National Forest","70","","4800","OAK HILLS","","","","","","2001","2001/07/04 00:00:00+00","185","1005","Human","Equipment and vehicle use","","2001/07/04 00:00:00+00","185","1032","0.1","A","34.38805556","-117.495","STATE OR PRIVATE","CA","","",""
"-117.421654611","34.193328412","1060139","1272907","FS-368151","FED","FS-FIRESTAT","FS","USCABDF","San Bernardino National Forest","0512","San Bernardino National Forest","165","","4900","INDEPENDENCE","","","","","","2001","2001/10/12 00:00:00+00","285","1820","Human","Missing data/not specified/undetermined","","2001/10/13 00:00:00+00","286","1800","6","B","34.19333333","-117.42166667","MISSING/NOT SPECIFIED","CA","","",""
"-116.738876984","33.763883983","1060140","1272908","FS-368176","FED","FS-FIRESTAT","FS","USCABDF","San Bernardino National Forest","0512","San Bernardino National Forest","187","","4900","PINE COVE","","","","","","2001","2001/11/07 00:00:00+00","311","2049","Human","Missing data/not specified/undetermined","","2001/11/07 00:00:00+00","311","2110","0.1","A","33.76388889","-116.73888889","MISSING/NOT SPECIFIED","CA","","",""
"-117.408321269","34.243328405","1060141","1272909","FS-368179","FED","FS-FIRESTAT","FS","USCABDF","San Bernardino National Forest","0512","San Bernardino National Forest","152","","4868","DUNCAN","2001_CA-BDF-7589_DEVILS COMPLEX","2001_CA-BDF-7589_DEVILS COMPLEX","","","DEVILS COMPLEX","2001","2001/09/24 00:00:00+00","267","1655","Human","Arson/incendiarism","","2001/09/26 00:00:00+00","269","1800","127","D","34.24333333","-117.40833333","MISSING/NOT SPECIFIED","CA","","",""
"-117.451932377","34.181661755","1060142","1272910","FS-368180","FED","FS-FIRESTAT","FS","USCABDF","San Bernardino National Forest","0512","San Bernardino National Forest","167","","4905","UNITED","","","","","","2001","2001/10/13 00:00:00+00","286","0357","Human","Arson/incendiarism","","2001/10/14 00:00:00+00","287","1800","120","D","34.18166667","-117.45194444","MISSING/NOT SPECIFIED","CA","","",""
"-120.434153475","40.052216934","1060143","1272911","FS-368265","FED","FS-FIRESTAT","FS","USCAPNF","Plumas National Forest","0511","Plumas National Forest","46","","4300","CROSSING","","","","","","2001","2001/07/10 00:00:00+00","191","1350","Human","Recreation and ceremony","","2001/07/10 00:00:00+00","191","2025","0.1","A","40.05222222","-120.43416667","USFS","CA","","",""
"-118.666653024","44.649994193","1060144","1272912","FS-368299","FED","FS-FIRESTAT","FS","USORMAF","Malheur National Forest","0604","Malheur National Forest","272","","2140","OR-MAF-361","","","","","","2001","2001/11/08 00:00:00+00","312","1742","Human","Debris and open burning","","2001/11/09 00:00:00+00","313","1402","50","C","44.65","-118.66666667","STATE OR PRIVATE","OR","023","41023","Grant County"
"-117.284987964","34.199995073","1060145","1272913","FS-368374","FED","FS-FIRESTAT","FS","USCABDF","San Bernardino National Forest","0512","San Bernardino National Forest","170","","4900","DEL ROSA","","","","","","2001","2001/10/15 00:00:00+00","288","0947","Human","Equipment and vehicle use","","2001/10/15 00:00:00+00","288","1045","0.1","A","34.2","-117.285","MISSING/NOT SPECIFIED","CA","","",""
"-117.399987943","34.216661748","1060146","1272914","FS-368376","FED","FS-FIRESTAT","FS","USCABDF","San Bernardino National Forest","0512","San Bernardino National Forest","181","","4900","HIGHWAY 2","","","","","","2001","2001/11/02 00:00:00+00","306","1427","Human","Equipment and vehicle use","","2001/11/02 00:00:00+00","306","1432","0.1","A","34.21666667","-117.4","MISSING/NOT SPECIFIED","CA","","",""
"-113.699431549","45.601660307","1060147","1272915","FS-368407","FED","FS-FIRESTAT","FS","USMTBDF","Beaverhead-Deerlodge National Forest","0102","Beaverhead-Deerlodge National Forest","51","","0398","SAWPIT","","","","","","2001","2001/11/05 00:00:00+00","309","1030","Human","Smoking","","2001/11/05 00:00:00+00","309","1100","0.1","A","45.60166667","-113.69944444","USFS","MT","","",""
"-112.983320562","45.716660228","1060148","1272916","FS-368408","FED","FS-FIRESTAT","FS","USMTBDF","Beaverhead-Deerlodge National Forest","0102","Beaverhead-Deerlodge National Forest","47","","","UPPER BUTLER","","","","","","2001","2001/10/11 00:00:00+00","284","1200","Human","Recreation and ceremony","","2001/10/15 00:00:00+00","288","1500","0.1","A","45.71666667","-112.98333333","USFS","MT","","",""
"-120.451931276","39.801383626","1060149","1272917","FS-368462","FED","FS-FIRESTAT","FS","USCAPNF","Plumas National Forest","0511","Plumas National Forest","149","","4351","PORTOLA","","","","","","2001","2001/10/06 00:00:00+00","279","1210","Human","Arson/incendiarism","","2001/10/06 00:00:00+00","279","1230","0.1","A","39.80138889","-120.45194444","MISSING/NOT SPECIFIED","CA","","",""
"-116.401097868","44.685827303","1060150","1272918","FS-368575","FED","FS-FIRESTAT","FS","USIDPAF","Payette National Forest","0412","Payette National Forest","7","","5611","COOL1","","","","","","2001","2001/07/03 00:00:00+00","184","1520","Human","Equipment and vehicle use","","2001/07/03 00:00:00+00","184","1700","50","C","44.68583333","-116.40111111","MISSING/NOT SPECIFIED","ID","003","16003","Adams County"
"-111.416099069","43.466382523","1060151","1272919","FS-368857","FED","FS-FIRESTAT","FS","USIDCTF","Caribou-Targhee National Forest","0415","Caribou-Targhee National Forest","65","","7000","SOUTH FORK","","","","","","2001","2001/09/05 00:00:00+00","248","1630","Natural","Natural","","2001/09/05 00:00:00+00","248","1849","0.8","B","43.46638889","-111.41611111","MISSING/NOT SPECIFIED","ID","19","16019","Bonneville County"
"-116.088875805","44.146105099","1060152","1272920","FS-369132","FED","FS-FIRESTAT","FS","USIDBOF","Boise National Forest","0402","Boise National Forest","178","","","NORTH FORK SOLDIER","","","","","","2001","2001/07/17 00:00:00+00","198","1600","Natural","Natural","","2001/07/17 00:00:00+00","198","2000","0.1","A","44.14611111","-116.08888889","USFS","ID","015","16015","Boise County"
"-120.807764396","40.956105782","1060153","1272921","FS-369266","FED","FS-FIRESTAT","FS","USCAMDF","Modoc National Forest","0509","Modoc National Forest","224","","","CDF2","","","","","","2001","2001/09/12 00:00:00+00","255","1604","Natural","Natural","","2001/09/12 00:00:00+00","255","1715","0.5","B","40.95611111","-120.80777778","USFS","CA","","",""
"-120.788875514","40.926939113","1060154","1272922","FS-369267","FED","FS-FIRESTAT","FS","USCAMDF","Modoc National Forest","0509","Modoc National Forest","225","","","CDF3","","","","","","2001","2001/09/16 00:00:00+00","259","0950","Natural","Natural","","2001/09/16 00:00:00+00","259","1130","0.1","A","40.92694444","-120.78888889","USFS","CA","","",""
"-120.783875445","41.391383526","1060155","1272923","FS-369289","FED","FS-FIRESTAT","FS","USCAMDF","Modoc National Forest","0509","Modoc National Forest","178","","","CDF1","","","","","","2001","2001/07/09 00:00:00+00","190","1705","Natural","Natural","","2001/07/10 00:00:00+00","191","0800","0.1","A","41.39138889","-120.78388889","USFS","CA","","",""
"-121.635263998","42.650550178","1060156","1272924","FS-369305","FED","FS-FIRESTAT","FS","USORFWF","Fremont-Winema National Forest","0620","Winema National Forest","125","","9115","SPRING","","","","","","2001","2001/03/24 00:00:00+00","83","1543","Human","Debris and open burning","","2001/03/24 00:00:00+00","83","1635","33","C","42.65055556","-121.63527778","USFS","OR","","",""
"-120.164153801","37.807772669","1060157","1272925","FS-369321","FED","FS-FIRESTAT","FS","USCASTF","Stanislaus National Forest","0516","Stanislaus National Forest","85","","7500","HELL'S","","","","","","2001","2001/09/25 00:00:00+00","268","1744","Natural","Natural","","2001/09/26 00:00:00+00","269","2000","0.1","A","37.80777778","-120.16416667","USFS","CA","","",""
"-120.095542714","37.701383784","1060158","1272926","FS-369322","FED","FS-FIRESTAT","FS","USCASTF","Stanislaus National Forest","0516","Stanislaus National Forest","84","","7500","GENTRY","","","","","","2001","2001/09/25 00:00:00+00","268","0930","Natural","Natural","","2001/09/25 00:00:00+00","268","1130","0.1","A","37.70138889","-120.09555556","USFS","CA","","",""
"-77.189997877","34.86665974","1060159","1272927","FS-369362","FED","FS-FIRESTAT","FS","USNCNCF","National Forests in North Carolina","0811","National Forests in North Carolina","149","","8176","COLLINS","","","","","","2001","2001/11/14 00:00:00+00","318","1230","Human","Misuse of fire by a minor","Minor","2001/11/14 00:00:00+00","318","1336","2.5","B","34.86666667","-77.19","STATE OR PRIVATE","NC","103","37103","Jones County"
"-83.840273655","35.204437677","1060160","1272928","FS-369363","FED","FS-FIRESTAT","FS","USNCNCF","National Forests in North Carolina","0811","National Forests in North Carolina","130","","8157","DAN HOLLAND","","","","","","2001","2001/11/06 00:00:00+00","310","1210","Human","Debris and open burning","","2001/11/06 00:00:00+00","310","1800","4","B","35.20444444","-83.84027778","STATE OR PRIVATE","NC","39","37039","Cherokee County"
"-83.798329225","35.074993262","1060161","1272929","FS-369364","FED","FS-FIRESTAT","FS","USNCNCF","National Forests in North Carolina","0811","National Forests in North Carolina","132","","8159","BRISTOL ROAD","","","","","","2001","2001/11/07 00:00:00+00","311","1255","Human","Arson/incendiarism","","2001/11/07 00:00:00+00","311","1800","25","C","35.075","-83.79833333","STATE OR PRIVATE","NC","43","37043","Clay County"
"-83.719995919","35.053326594","1060162","1272930","FS-369365","FED","FS-FIRESTAT","FS","USNCNCF","National Forests in North Carolina","0811","National Forests in North Carolina","133","","8160","COLD BRANCH","","","","","","2001","2001/11/07 00:00:00+00","311","1340","Human","Arson/incendiarism","","2001/11/07 00:00:00+00","311","2100","15","C","35.05333333","-83.72","STATE OR PRIVATE","NC","43","37043","Clay County"
"-84.208329099","35.186659925","1060163","1272931","FS-369367","FED","FS-FIRESTAT","FS","USNCNCF","National Forests in North Carolina","0811","National Forests in North Carolina","136","","8163","BUCK KNOB","","","","","","2001","2001/11/09 00:00:00+00","313","2055","Human","Arson/incendiarism","","2001/11/10 00:00:00+00","314","0400","20","C","35.18666667","-84.20833333","STATE OR PRIVATE","NC","39","37039","Cherokee County"
"-77.186664548","34.879993067","1060164","1272932","FS-369372","FED","FS-FIRESTAT","FS","USNCNCF","National Forests in North Carolina","0811","National Forests in North Carolina","30","","8057","DUDLEY DRIVE","","","","","","2001","2001/03/14 00:00:00+00","73","1330","Human","Debris and open burning","","2001/03/14 00:00:00+00","73","1500","1","B","34.88","-77.18666667","STATE OR PRIVATE","NC","103","37103","Jones County"
"-82.750273933","35.917215266","1060165","1272933","FS-369373","FED","FS-FIRESTAT","FS","USNCNCF","National Forests in North Carolina","0811","National Forests in North Carolina","106","","8133","HURRICANE CHAPEL","","","","","","2001","2001/10/18 00:00:00+00","291","1600","Human","Debris and open burning","","2001/10/18 00:00:00+00","291","1630","10","C","35.91722222","-82.75027778","STATE OR PRIVATE","NC","115","37115","Madison County"
"-121.628320413","36.122772923","1060166","1272934","FS-372257","FED","FS-FIRESTAT","FS","USCALPF","Los Padres National Forest","0507","Los Padres National Forest","41","","3164","FLARE","","","","","","2001","2001/09/09 00:00:00+00","252","1201","Human","Debris and open burning","","","","","0.1","A","36.12277778","-121.62833333","OTHER FEDERAL","CA","","",""
"-92.689715506","36.63499335","1060167","1272935","FS-369415","FED","FS-FIRESTAT","FS","USMOMTF","Mark Twain National Forest","0905","Mark Twain National Forest","103","","0503","PONDFORK","","","","","","2001","2001/04/13 00:00:00+00","103","1315","Human","Debris and open burning","","2001/04/13 00:00:00+00","103","1629","6","B","36.635","-92.68972222","STATE OR PRIVATE","MO","","",""
"-76.722775805","34.758881969","1060168","1272936","FS-369440","FED","FS-FIRESTAT","FS","USNCNCF","National Forests in North Carolina","0811","National Forests in North Carolina","165","","8192","BLONDIE","","","","","","2001","2001/11/22 00:00:00+00","326","1055","Human","Arson/incendiarism","","2001/11/22 00:00:00+00","326","1500","3","B","34.75888889","-76.72277778","STATE OR PRIVATE","NC","31","37031","Carteret County"
"-76.879997971","34.878326388","1060169","1272937","FS-369441","FED","FS-FIRESTAT","FS","USNCNCF","National Forests in North Carolina","0811","National Forests in North Carolina","166","","8193","RICE LANE","","","","","","2001","2001/11/22 00:00:00+00","326","1516","Human","Fireworks","Minor","2001/11/22 00:00:00+00","326","1540","1","B","34.87833333","-76.88","STATE OR PRIVATE","NC","49","37049","Craven County"
"-76.853331315","34.758326413","1060170","1272938","FS-369442","FED","FS-FIRESTAT","FS","USNCNCF","National Forests in North Carolina","0811","National Forests in North Carolina","167","","8194","JUNKYARD","","","","","","2001","2001/11/26 00:00:00+00","330","1130","Human","Debris and open burning","","2001/11/26 00:00:00+00","330","1800","1","B","34.75833333","-76.85333333","STATE OR PRIVATE","NC","31","37031","Carteret County"
"-84.269995751","35.183326588","1060171","1272939","FS-369446","FED","FS-FIRESTAT","FS","USNCNCF","National Forests in North Carolina","0811","National Forests in North Carolina","170","","8197","WEST MORROW","","","","","","2001","2001/12/06 00:00:00+00","340","1955","Human","Arson/incendiarism","","2001/12/07 00:00:00+00","341","0300","1","B","35.18333333","-84.27","STATE OR PRIVATE","NC","39","37039","Cherokee County"
"-83.909995859","35.124993256","1060172","1272940","FS-369447","FED","FS-FIRESTAT","FS","USNCNCF","National Forests in North Carolina","0811","National Forests in North Carolina","171","","8198","INDIAN GRAVE GAP","","","","","","2001","2001/12/06 00:00:00+00","340","2240","Human","Arson/incendiarism","","2001/12/07 00:00:00+00","341","0300","2","B","35.125","-83.91","STATE OR PRIVATE","NC","39","37039","Cherokee County"
"-82.200829633","36.134715199","1060173","1272941","FS-369450","FED","FS-FIRESTAT","FS","USNCNCF","National Forests in North Carolina","0811","National Forests in North Carolina","141","","8168","IRON MOUNTAIN","","","","","","2001","2001/11/10 00:00:00+00","314","1700","Human","Missing data/not specified/undetermined","","2001/11/10 00:00:00+00","314","1815","1.5","B","36.13472222","-82.20083333","STATE OR PRIVATE","NC","121","37121","Mitchell County"
"-83.162773865","34.997215474","1060174","1272942","FS-369451","FED","FS-FIRESTAT","FS","USNCNCF","National Forests in North Carolina","0811","National Forests in North Carolina","169","","8196","WINDY HILL","","","","","","2001","2001/12/06 00:00:00+00","340","1350","Human","Arson/incendiarism","","2001/12/06 00:00:00+00","340","1540","0.5","B","34.99722222","-83.16277778","MISSING/NOT SPECIFIED","NC","113","37113","Macon County"
"-81.953329721","35.874993024","1060175","1272943","FS-369452","FED","FS-FIRESTAT","FS","USNCNCF","National Forests in North Carolina","0811","National Forests in North Carolina","32","","8059","NORTH COVE","","","","","","2001","2001/03/18 00:00:00+00","77","1305","Human","Railroad operations and maintenance","","2001/03/18 00:00:00+00","77","1430","0.2","A","35.875","-81.95333333","MISSING/NOT SPECIFIED","NC","111","37111","McDowell County"
"-82.014996378","35.791659713","1060176","1272944","FS-369453","FED","FS-FIRESTAT","FS","USNCNCF","National Forests in North Carolina","0811","National Forests in North Carolina","103","","8130","TRACK","","","","","","2001","2001/10/08 00:00:00+00","281","1115","Human","Railroad operations and maintenance","","2001/10/09 00:00:00+00","282","1200","2","B","35.79166667","-82.015","MISSING/NOT SPECIFIED","NC","111","37111","McDowell County"
"-81.764996443","35.949993001","1060177","1272945","FS-369455","FED","FS-FIRESTAT","FS","USNCNCF","National Forests in North Carolina","0811","National Forests in North Carolina","109","","8136","CRAIG CREEK","","","","","","2001","2001/10/22 00:00:00+00","295","1510","Human","Debris and open burning","","2001/10/22 00:00:00+00","295","1630","2","B","35.95","-81.765","MISSING/NOT SPECIFIED","NC","27","37027","Caldwell County"
"-81.88666308","35.901659685","1060178","1272946","FS-369457","FED","FS-FIRESTAT","FS","USNCNCF","National Forests in North Carolina","0811","National Forests in North Carolina","121","","8148","GINGERCAKE","","","","","","2001","2001/10/30 00:00:00+00","303","1115","Human","Smoking","","2001/10/30 00:00:00+00","303","1800","8","B","35.90166667","-81.88666667","MISSING/NOT SPECIFIED","NC","23","37023","Burke County"
"-82.216385218","35.624437526","1060179","1272947","FS-369477","FED","FS-FIRESTAT","FS","USNCNCF","National Forests in North Carolina","0811","National Forests in North Carolina","105","","8132","OLD FORT MOUNTAIN","","","","","","2001","2001/10/18 00:00:00+00","291","1510","Human","Equipment and vehicle use","","2001/10/18 00:00:00+00","291","1600","0.1","A","35.62444444","-82.21638889","MISSING/NOT SPECIFIED","NC","111","37111","McDowell County"
"-82.239996319","35.651659751","1060180","1272948","FS-369479","FED","FS-FIRESTAT","FS","USNCNCF","National Forests in North Carolina","0811","National Forests in North Carolina","131","","8158","LOOP","","","","","","2001","2001/11/06 00:00:00+00","310","1515","Human","Railroad operations and maintenance","","2001/11/06 00:00:00+00","310","1800","7","B","35.65166667","-82.24","MISSING/NOT SPECIFIED","NC","111","37111","McDowell County"
"-81.723885348","35.904715228","1060181","1272949","FS-369480","FED","FS-FIRESTAT","FS","USNCNCF","National Forests in North Carolina","0811","National Forests in North Carolina","140","","8167","CARROLL MILL CREEK","","","","","","2001","2001/11/10 00:00:00+00","314","1535","Human","Equipment and vehicle use","","2001/11/10 00:00:00+00","314","1645","0.5","B","35.90472222","-81.72388889","MISSING/NOT SPECIFIED","NC","27","37027","Caldwell County"
"-81.597774268","36.037770756","1060182","1272950","FS-369482","FED","FS-FIRESTAT","FS","USNCNCF","National Forests in North Carolina","0811","National Forests in North Carolina","155","","8182","KIRBY MOUNTAIN","","","","","","2001","2001/11/16 00:00:00+00","320","2135","Human","Misuse of fire by a minor","Minor","2001/11/17 00:00:00+00","321","0300","5","B","36.03777778","-81.59777778","MISSING/NOT SPECIFIED","NC","27","37027","Caldwell County"
"-112.634154197","44.517771417","1060183","1272951","FS-369486","FED","FS-FIRESTAT","FS","USMTBDF","Beaverhead-Deerlodge National Forest","0102","Beaverhead-Deerlodge National Forest","49","","","GARFIELD MOUNTAIN","","","","","","2001","2001/11/02 00:00:00+00","306","1230","Human","Recreation and ceremony","","2001/11/26 00:00:00+00","330","0800","6","B","44.51777778","-112.63416667","USFS","MT","","",""
"-112.851376355","44.618049207","1060184","1272952","FS-369487","FED","FS-FIRESTAT","FS","USMTBDF","Beaverhead-Deerlodge National Forest","0102","Beaverhead-Deerlodge National Forest","55","","","WOOD CANYON","","","","","","2001","2001/11/27 00:00:00+00","331","1341","Human","Recreation and ceremony","","2001/12/01 00:00:00+00","335","1430","1","B","44.61805556","-112.85138889","USFS","MT","","",""
"-107.974989385","38.291660651","1060185","1272953","FS-369543","FED","FS-FIRESTAT","FS","USCOGMF","Grand Mesa, Uncompahgre and Gunnison National Forests","0204","Grand Mesa, Uncompahgre and Gunnison National Forests","48","","1858","BROWN SPRING","","","","","","2001","2001/04/30 00:00:00+00","120","1045","Human","Missing data/not specified/undetermined","","2001/04/30 00:00:00+00","120","1515","0.2","A","38.29166667","-107.975","MISSING/NOT SPECIFIED","CO","85","08085","Montrose County"
"-108.315267115","38.077771813","1060186","1272954","FS-369546","FED","FS-FIRESTAT","FS","USCOGMF","Grand Mesa, Uncompahgre and Gunnison National Forests","0204","Grand Mesa, Uncompahgre and Gunnison National Forests","17","","1876","THUNDER","","","","","","2001","2001/06/09 00:00:00+00","160","1330","Natural","Natural","","2001/06/09 00:00:00+00","160","2100","13","C","38.07777778","-108.31527778","MISSING/NOT SPECIFIED","CO","113","08113","San Miguel County"
"-79.208330361","38.925270073","1060187","1272955","FS-369651","FED","FS-FIRESTAT","FS","USWVMOF","Monongahela National Forest","0921","Monongahela National Forest","2","","2104","HART CABIN FIRE","","","","","","2001","2001/04/05 00:00:00+00","95","1535","Human","Power generation/transmission/distribution","","2001/04/05 00:00:00+00","95","1930","20","C","38.92527778","-79.20833333","STATE OR PRIVATE","WV","","",""
"-113.921653485","46.824993554","1060188","1272956","FS-369660","FED","FS-FIRESTAT","FS","USMTLNF","Lolo National Forest","0116","Lolo National Forest","3","","7608","SAM BRAXTON","","","","","","2001","2001/05/11 00:00:00+00","131","1100","Human","Recreation and ceremony","","2001/05/11 00:00:00+00","131","1200","0.1","A","46.825","-113.92166667","USFS","MT","63","30063","Missoula County"
"-120.650264655","39.268883687","1060189","1272958","FS-369753","FED","FS-FIRESTAT","FS","USCATNF","Tahoe National Forest","0517","Tahoe National Forest","62","","","GAP","2001_CA-TNF-14107_GAP","","CA3930112062620010812","GAP","","2001","2001/08/12 00:00:00+00","224","1200","Human","Recreation and ceremony","","2001/08/20 00:00:00+00","232","1800","2462","F","39.26888889","-120.65027778","STATE OR PRIVATE","CA","","",""
"-79.966663508","38.324992443","1060190","1272959","FS-369781","FED","FS-FIRESTAT","FS","USWVMOF","Monongahela National Forest","0921","Monongahela National Forest","7","","2101","CLOVERLICK","","","","","","2001","2001/10/21 00:00:00+00","294","1520","Human","Smoking","","2001/10/21 00:00:00+00","294","1545","0.1","A","38.325","-79.96666667","STATE OR PRIVATE","WV","","",""
"-121.334430766","42.284439057","1060191","1272960","FS-369862","FED","FS-FIRESTAT","FS","USORFWF","Fremont-Winema National Forest","0602","Fremont-Winema National Forest","101","","9146","INDIAN SPRINGS","2001_OR-98S-981-096_INDIAN SPRINGS","","OR4229812131920010803","INDIAN SPRINGS","","2001","2001/08/03 00:00:00+00","215","1501","Human","Equipment and vehicle use","","2001/08/18 00:00:00+00","230","1800","1895","F","42.28444444","-121.33444444","MISSING/NOT SPECIFIED","OR","35","41035","Klamath County"
"-120.392764734","38.968328133","1060192","1272961","FS-369867","FED","FS-FIRESTAT","FS","USCAENF","Eldorado National Forest","0503","Eldorado National Forest","4","","1371","GERLE","","","","","","2001","2001/05/12 00:00:00+00","132","2000","Human","Smoking","","2001/05/12 00:00:00+00","132","2230","2","B","38.96833333","-120.39277778","USFS","CA","","",""
"-120.051375947","38.585550371","1060193","1272962","FS-369874","FED","FS-FIRESTAT","FS","USCAENF","Eldorado National Forest","0503","Eldorado National Forest","13","","1351","ROCK","","","","","","2001","2001/07/10 00:00:00+00","191","1930","Natural","Natural","","2001/07/10 00:00:00+00","191","1932","0.1","A","38.58555556","-120.05138889","USFS","CA","","",""
"-119.941375968","38.554439245","1060194","1272963","FS-369895","FED","FS-FIRESTAT","FS","USCAENF","Eldorado National Forest","0503","Eldorado National Forest","7","","1375","CAT","","","","","","2001","2001/05/26 00:00:00+00","146","1700","Natural","Natural","","2001/05/29 00:00:00+00","149","1630","8","B","38.55444444","-119.94138889","USFS","CA","","",""
"-120.034431418","39.234161422","1060195","1272964","FS-370180","FED","FS-FIRESTAT","FS","USCATMU","Lake Tahoe Basin Management Unit","0519","Lake Tahoe Basin Management Unit","19","","8588","CARNELIAN","","","","","","2001","2001/06/25 00:00:00+00","176","2000","Human","Smoking","","2001/06/25 00:00:00+00","176","2030","0.1","A","39.23416667","-120.03444444","OTHER FEDERAL","CA","61","06061","Placer County"
"-120.034153721","38.652494803","1060196","1272966","FS-369951","FED","FS-FIRESTAT","FS","USCAENF","Eldorado National Forest","0503","Eldorado National Forest","36","","1351","EMIGRANT","","","","","","2001","2001/07/04 00:00:00+00","185","0900","Natural","Natural","","2001/07/04 00:00:00+00","185","1600","0.1","A","38.6525","-120.03416667","USFS","CA","","",""
"-119.93498702","39.034994762","1060197","1272967","FS-369955","FED","FS-FIRESTAT","FS","USCATMU","Lake Tahoe Basin Management Unit","0519","Lake Tahoe Basin Management Unit","26","","8585","CAVE","","","","","","2001","2001/06/24 00:00:00+00","175","1745","Human","Other causes","","2001/06/24 00:00:00+00","175","1930","0.1","A","39.035","-119.935","MISSING/NOT SPECIFIED","NV","5","32005","Douglas County"
"-120.152209196","39.100828103","1060198","1272968","FS-369958","FED","FS-FIRESTAT","FS","USCATMU","Lake Tahoe Basin Management Unit","0519","Lake Tahoe Basin Management Unit","45","","8599","PUMP","","","","","","2001","2001/08/09 00:00:00+00","221","0600","Human","Misuse of fire by a minor","Minor","2001/08/09 00:00:00+00","221","0740","0.3","B","39.10083333","-120.15222222","STATE OR PRIVATE","CA","61","06061","Placer County"
"-120.367764794","38.51749484","1060199","1272969","FS-369961","FED","FS-FIRESTAT","FS","USCAENF","Eldorado National Forest","0503","Eldorado National Forest","80","","1103","PANTHER","","","","","","2001","2001/09/03 00:00:00+00","246","1802","Human","Missing data/not specified/undetermined","","2001/09/03 00:00:00+00","246","1816","0.1","A","38.5175","-120.36777778","STATE OR PRIVATE","CA","","",""
"-120.419153651","38.717772607","1060200","1272970","FS-371065","FED","FS-FIRESTAT","FS","USCAENF","Eldorado National Forest","0503","Eldorado National Forest","27","","1351","TUMAN","","","","","","2001","2001/09/25 00:00:00+00","268","1105","Natural","Natural","","2001/09/25 00:00:00+00","268","1201","0.1","A","38.71777778","-120.41916667","USFS","CA","","",""
"-120.050820306","39.234439193","1060201","1272971","FS-370116","FED","FS-FIRESTAT","FS","USCATMU","Lake Tahoe Basin Management Unit","0519","Lake Tahoe Basin Management Unit","11","","8570","TAHOE VISTA","","","","","","2001","2001/06/10 00:00:00+00","161","1300","Human","Missing data/not specified/undetermined","","2001/06/10 00:00:00+00","161","1305","0.1","A","39.23444444","-120.05083333","USFS","CA","61","06061","Placer County"
"-79.835274951","32.96666025","1060202","1272972","FS-370144","FED","FS-FIRESTAT","FS","USSCFMF","Francis Marion & Sumter National Forests","0812","Francis Marion-Sumter National Forest","236","","","CHIMERA","","","","","","2000","2000/11/22 00:00:00+00","327","1100","Human","Arson/incendiarism","","2000/11/22 00:00:00+00","327","1330","40","C","32.96666667","-79.83527778","USFS","SC","19","45019","Charleston County"
"-79.499997264","33.099993539","1060203","1272973","FS-370145","FED","FS-FIRESTAT","FS","USSCFMF","Francis Marion & Sumter National Forests","0812","Francis Marion-Sumter National Forest","258","","","SANTA","","","","","","2000","2000/12/25 00:00:00+00","360","0015","Human","Arson/incendiarism","","2000/12/25 00:00:00+00","360","0100","1","B","33.1","-79.5","USFS","SC","19","45019","Charleston County"
"-79.568608357","33.035826886","1060204","1272974","FS-370146","FED","FS-FIRESTAT","FS","USSCFMF","Francis Marion & Sumter National Forests","0812","Francis Marion-Sumter National Forest","238","","","PERRY","","","","","","2000","2000/11/22 00:00:00+00","327","1310","Human","Arson/incendiarism","","2000/11/22 00:00:00+00","327","1330","3","B","33.03583333","-79.56861111","USFS","SC","19","45019","Charleston County"
"-79.783330516","32.966660248","1060205","1272975","FS-370147","FED","FS-FIRESTAT","FS","USSCFMF","Francis Marion & Sumter National Forests","0812","Francis Marion-Sumter National Forest","245","","","BLACK HOLE","","","","","","2000","2000/11/28 00:00:00+00","333","1600","Human","Arson/incendiarism","","2000/11/28 00:00:00+00","333","1830","3","B","32.96666667","-79.78333333","USFS","SC","15","45015","Berkeley County"
"-79.634163897","33.035271338","1060206","1272976","FS-370158","FED","FS-FIRESTAT","FS","USSCFMF","Francis Marion & Sumter National Forests","0812","Francis Marion-Sumter National Forest","233","","","WILLOW","","","","","","2000","2000/11/21 00:00:00+00","326","1717","Human","Arson/incendiarism","","2000/11/21 00:00:00+00","326","2100","5","B","33.03527778","-79.63416667","USFS","SC","19","45019","Charleston County"
"-79.566663915","33.083326875","1060207","1272977","FS-370159","FED","FS-FIRESTAT","FS","USSCFMF","Francis Marion & Sumter National Forests","0812","Francis Marion-Sumter National Forest","234","","","COLTRANE","","","","","","2000","2000/11/22 00:00:00+00","327","0800","Human","Arson/incendiarism","","2000/11/22 00:00:00+00","327","0900","2.5","B","33.08333333","-79.56666667","USFS","SC","19","45019","Charleston County"
"-79.566663915","33.083326875","1060208","1272978","FS-370160","FED","FS-FIRESTAT","FS","USSCFMF","Francis Marion & Sumter National Forests","0812","Francis Marion-Sumter National Forest","235","","","BIRD","","","","","","2000","2000/11/22 00:00:00+00","327","0800","Human","Arson/incendiarism","","2000/11/22 00:00:00+00","327","0900","0.5","B","33.08333333","-79.56666667","USFS","SC","19","45019","Charleston County"
"-79.667497221","32.951104688","1060209","1272979","FS-370161","FED","FS-FIRESTAT","FS","USSCFMF","Francis Marion & Sumter National Forests","0812","Francis Marion-Sumter National Forest","237","","","GRIZZLY","","","","","","2000","2000/11/22 00:00:00+00","327","1212","Human","Arson/incendiarism","","2000/11/22 00:00:00+00","327","1315","4","B","32.95111111","-79.6675","USFS","SC","19","45019","Charleston County"
"-79.566941687","33.035271336","1060210","1272980","FS-370162","FED","FS-FIRESTAT","FS","USSCFMF","Francis Marion & Sumter National Forests","0812","Francis Marion-Sumter National Forest","239","","","DUFFIELD","","","","","","2000","2000/11/22 00:00:00+00","327","1330","Human","Arson/incendiarism","","2000/11/22 00:00:00+00","327","1600","5","B","33.03527778","-79.56694444","USFS","SC","19","45019","Charleston County"
"-79.433330613","33.133326859","1060211","1272981","FS-370163","FED","FS-FIRESTAT","FS","USSCFMF","Francis Marion & Sumter National Forests","0812","Francis Marion-Sumter National Forest","240","","","PANDORA","","","","","","2000","2000/11/28 00:00:00+00","333","1500","Human","Arson/incendiarism","","2000/11/28 00:00:00+00","333","1630","2","B","33.13333333","-79.43333333","USFS","SC","19","45019","Charleston County"
"-79.683330547","32.933326912","1060212","1272982","FS-370164","FED","FS-FIRESTAT","FS","USSCFMF","Francis Marion & Sumter National Forests","0812","Francis Marion-Sumter National Forest","243","","","HOPPER","","","","","","2000","2000/11/28 00:00:00+00","333","1450","Human","Arson/incendiarism","","2000/11/28 00:00:00+00","333","1530","1","B","32.93333333","-79.68333333","USFS","SC","19","45019","Charleston County"
"-79.685552776","32.952493578","1060213","1272983","FS-370165","FED","FS-FIRESTAT","FS","USSCFMF","Francis Marion & Sumter National Forests","0812","Francis Marion-Sumter National Forest","244","","","BURNSIDE","","","","","","2000","2000/11/28 00:00:00+00","333","1325","Human","Arson/incendiarism","","2000/11/28 00:00:00+00","333","1400","2","B","32.9525","-79.68555556","USFS","SC","19","45019","Charleston County"
"-79.667775001","32.951104688","1060214","1272984","FS-370166","FED","FS-FIRESTAT","FS","USSCFMF","Francis Marion & Sumter National Forests","0812","Francis Marion-Sumter National Forest","246","","","GRIZZLY #2","","","","","","2000","2000/11/28 00:00:00+00","333","1523","Human","Arson/incendiarism","","2000/11/28 00:00:00+00","333","1811","4","B","32.95111111","-79.66777778","USFS","SC","19","45019","Charleston County"
"-79.584997242","33.034160226","1060215","1272985","FS-370167","FED","FS-FIRESTAT","FS","USSCFMF","Francis Marion & Sumter National Forests","0812","Francis Marion-Sumter National Forest","247","","","PEACH","","","","","","2000","2000/11/29 00:00:00+00","334","0730","Human","Arson/incendiarism","","2000/11/29 00:00:00+00","334","1200","0.4","B","33.03416667","-79.585","USFS","SC","19","45019","Charleston County"
"-79.584719462","33.034437996","1060216","1272986","FS-370168","FED","FS-FIRESTAT","FS","USSCFMF","Francis Marion & Sumter National Forests","0812","Francis Marion-Sumter National Forest","248","","","HOLTZ","","","","","","2000","2000/11/29 00:00:00+00","334","0730","Human","Arson/incendiarism","","2000/11/29 00:00:00+00","334","1200","0.5","B","33.03444444","-79.58472222","USFS","SC","19","45019","Charleston County"
"-79.584719462","33.033882446","1060217","1272987","FS-370169","FED","FS-FIRESTAT","FS","USSCFMF","Francis Marion & Sumter National Forests","0812","Francis Marion-Sumter National Forest","249","","","OUTBACK","","","","","","2000","2000/11/29 00:00:00+00","334","0730","Human","Arson/incendiarism","","2000/11/29 00:00:00+00","334","1200","5","B","33.03388889","-79.58472222","USFS","SC","19","45019","Charleston County"
"-79.601663907","33.034437997","1060218","1272988","FS-370170","FED","FS-FIRESTAT","FS","USSCFMF","Francis Marion & Sumter National Forests","0812","Francis Marion-Sumter National Forest","251","","","HIGH NOON","","","","","","2000","2000/12/04 00:00:00+00","339","1420","Human","Arson/incendiarism","","2000/12/04 00:00:00+00","339","1530","3.5","B","33.03444444","-79.60166667","USFS","SC","19","45019","Charleston County"
"-79.467219493","33.117215754","1060219","1272989","FS-370171","FED","FS-FIRESTAT","FS","USSCFMF","Francis Marion & Sumter National Forests","0812","Francis Marion-Sumter National Forest","253","","","PARTRIDGE","","","","","","2000","2000/12/08 00:00:00+00","343","0800","Human","Arson/incendiarism","","2000/12/08 00:00:00+00","343","1130","6","B","33.11722222","-79.46722222","USFS","SC","19","45019","Charleston County"
"-79.499997263","33.133326861","1060220","1272990","FS-370172","FED","FS-FIRESTAT","FS","USSCFMF","Francis Marion & Sumter National Forests","0812","Francis Marion-Sumter National Forest","254","","","WOOD","","","","","","2000","2000/12/08 00:00:00+00","343","1830","Human","Arson/incendiarism","","2000/12/08 00:00:00+00","343","1930","1","B","33.13333333","-79.5","USFS","SC","19","45019","Charleston County"
"-79.468608383","33.117493534","1060221","1272991","FS-370173","FED","FS-FIRESTAT","FS","USSCFMF","Francis Marion & Sumter National Forests","0812","Francis Marion-Sumter National Forest","255","","","IMAGINE","","","","","","2000","2000/12/08 00:00:00+00","343","0800","Human","Arson/incendiarism","","2000/12/08 00:00:00+00","343","1130","0.2","A","33.1175","-79.46861111","USFS","SC","19","45019","Charleston County"
"-79.599997238","33.033326887","1060222","1272992","FS-370174","FED","FS-FIRESTAT","FS","USSCFMF","Francis Marion & Sumter National Forests","0812","Francis Marion-Sumter National Forest","256","","","ELF","","","","","","2000","2000/12/08 00:00:00+00","343","2200","Human","Arson/incendiarism","","2000/12/08 00:00:00+00","343","2230","5","B","33.03333333","-79.6","USFS","SC","19","45019","Charleston County"
"-79.518330589","33.101382429","1060223","1272993","FS-370175","FED","FS-FIRESTAT","FS","USSCFMF","Francis Marion & Sumter National Forests","0812","Francis Marion-Sumter National Forest","257","","","DRUMMER BOY","","","","","","2000","2000/12/09 00:00:00+00","344","0940","Human","Arson/incendiarism","","2000/12/09 00:00:00+00","344","1130","15","C","33.10138889","-79.51833333","USFS","SC","19","45019","Charleston County"
"-120.118875852","39.249994757","1060224","1272994","FS-370176","FED","FS-FIRESTAT","FS","USCATMU","Lake Tahoe Basin Management Unit","0519","Lake Tahoe Basin Management Unit","14","","8573","MOUNTAIN","","","","","","2001","2001/06/14 00:00:00+00","165","1330","Human","Missing data/not specified/undetermined","","2001/06/14 00:00:00+00","165","1345","5","B","39.25","-120.11888889","USFS","CA","61","06061","Placer County"
"-120.084431446","38.951105891","1060225","1272995","FS-370178","FED","FS-FIRESTAT","FS","USCATMU","Lake Tahoe Basin Management Unit","0519","Lake Tahoe Basin Management Unit","22","","8581","EMERALD 1","","","","","","2001","2001/06/23 00:00:00+00","174","1435","Human","Misuse of fire by a minor","Minor","2001/06/23 00:00:00+00","174","1505","0.3","B","38.95111111","-120.08444444","USFS","CA","61","06061","Placer County"
"-82.399996362","34.016660105","1060226","1272997","FS-370182","FED","FS-FIRESTAT","FS","USSCFMF","Francis Marion & Sumter National Forests","0812","Francis Marion-Sumter National Forest","79","","","TROUBLE ROAD","","","","","","2001","2001/11/12 00:00:00+00","316","1030","Human","Arson/incendiarism","","2001/11/12 00:00:00+00","316","1730","1","B","34.01666667","-82.4","USFS","SC","65","45065","McCormick County"
"-82.283329721","34.11666008","1060227","1272998","FS-370184","FED","FS-FIRESTAT","FS","USSCFMF","Francis Marion & Sumter National Forests","0812","Francis Marion-Sumter National Forest","61","","","BOX","","","","","","2001","2001/11/03 00:00:00+00","307","1900","Human","Arson/incendiarism","","2001/11/03 00:00:00+00","307","2130","1","B","34.11666667","-82.28333333","STATE OR PRIVATE","SC","1","45001","Abbeville County"
"-82.399996361","34.033326762","1060228","1272999","FS-370185","FED","FS-FIRESTAT","FS","USSCFMF","Francis Marion & Sumter National Forests","0812","Francis Marion-Sumter National Forest","83","","","523 #1","","","","","","2001","2001/11/12 00:00:00+00","316","2200","Human","Arson/incendiarism","","2001/11/14 00:00:00+00","318","1700","1","B","34.03333333","-82.4","USFS","SC","65","45065","McCormick County"
"-82.399996361","34.033326762","1060229","1273000","FS-370186","FED","FS-FIRESTAT","FS","USSCFMF","Francis Marion & Sumter National Forests","0812","Francis Marion-Sumter National Forest","84","","","523 #2","","","","","","2001","2001/11/12 00:00:00+00","316","2200","Human","Arson/incendiarism","","2001/11/14 00:00:00+00","318","1700","1","B","34.03333333","-82.4","USFS","SC","65","45065","McCormick County"
"-82.399996361","34.033326762","1060230","1273001","FS-370187","FED","FS-FIRESTAT","FS","USSCFMF","Francis Marion & Sumter National Forests","0812","Francis Marion-Sumter National Forest","85","","","523 #3","","","","","","2001","2001/11/12 00:00:00+00","316","2200","Human","Arson/incendiarism","","2001/11/14 00:00:00+00","318","1700","1","B","34.03333333","-82.4","USFS","SC","65","45065","McCormick County"
"-82.399996361","34.033326762","1060231","1273002","FS-370188","FED","FS-FIRESTAT","FS","USSCFMF","Francis Marion & Sumter National Forests","0812","Francis Marion-Sumter National Forest","86","","","523 #4","","","","","","2001","2001/11/12 00:00:00+00","316","2200","Human","Arson/incendiarism","","2001/11/14 00:00:00+00","318","1700","1","B","34.03333333","-82.4","USFS","SC","65","45065","McCormick County"
"-82.383329696","34.033326761","1060232","1273003","FS-370189","FED","FS-FIRESTAT","FS","USSCFMF","Francis Marion & Sumter National Forests","0812","Francis Marion-Sumter National Forest","87","","","523 #5","","","","","","2001","2001/11/12 00:00:00+00","316","2200","Human","Arson/incendiarism","","2001/11/14 00:00:00+00","318","1700","1","B","34.03333333","-82.38333333","USFS","SC","65","45065","McCormick County"
"-82.383329696","34.033326761","1060233","1273004","FS-370190","FED","FS-FIRESTAT","FS","USSCFMF","Francis Marion & Sumter National Forests","0812","Francis Marion-Sumter National Forest","88","","","523 #6","","","","","","2001","2001/11/12 00:00:00+00","316","2200","Human","Arson/incendiarism","","2001/11/14 00:00:00+00","318","1700","1","B","34.03333333","-82.38333333","USFS","SC","65","45065","McCormick County"
"-82.383329696","34.033326761","1060234","1273005","FS-370191","FED","FS-FIRESTAT","FS","USSCFMF","Francis Marion & Sumter National Forests","0812","Francis Marion-Sumter National Forest","89","","","523 #7","","","","","","2001","2001/11/12 00:00:00+00","316","2200","Human","Arson/incendiarism","","2001/11/14 00:00:00+00","318","1700","1","B","34.03333333","-82.38333333","USFS","SC","65","45065","McCormick County"
"-82.383329696","34.033326761","1060235","1273006","FS-370192","FED","FS-FIRESTAT","FS","USSCFMF","Francis Marion & Sumter National Forests","0812","Francis Marion-Sumter National Forest","90","","","523 #8","","","","","","2001","2001/11/12 00:00:00+00","316","2200","Human","Arson/incendiarism","","2001/11/14 00:00:00+00","318","1700","1","B","34.03333333","-82.38333333","USFS","SC","65","45065","McCormick County"
"-82.399996361","34.033326762","1060236","1273007","FS-370193","FED","FS-FIRESTAT","FS","USSCFMF","Francis Marion & Sumter National Forests","0812","Francis Marion-Sumter National Forest","91","","","523 #9","","","","","","2001","2001/11/12 00:00:00+00","316","2200","Human","Arson/incendiarism","","2001/11/14 00:00:00+00","318","1700","1","B","34.03333333","-82.4","USFS","SC","65","45065","McCormick County"
"-82.399996361","34.033326762","1060237","1273008","FS-370194","FED","FS-FIRESTAT","FS","USSCFMF","Francis Marion & Sumter National Forests","0812","Francis Marion-Sumter National Forest","92","","","520 #1","","","","","","2001","2001/11/12 00:00:00+00","316","2200","Human","Arson/incendiarism","","2001/11/14 00:00:00+00","318","1700","1","B","34.03333333","-82.4","USFS","SC","65","45065","McCormick County"
"-82.399996361","34.033326762","1060238","1273009","FS-370195","FED","FS-FIRESTAT","FS","USSCFMF","Francis Marion & Sumter National Forests","0812","Francis Marion-Sumter National Forest","93","","","520 #2","","","","","","2001","2001/11/12 00:00:00+00","316","2200","Human","Arson/incendiarism","","2001/11/14 00:00:00+00","318","1700","1","B","34.03333333","-82.4","USFS","SC","65","45065","McCormick County"
"-82.399996361","34.033326762","1060239","1273010","FS-370196","FED","FS-FIRESTAT","FS","USSCFMF","Francis Marion & Sumter National Forests","0812","Francis Marion-Sumter National Forest","94","","","520 #3","","","","","","2001","2001/11/12 00:00:00+00","316","2200","Human","Arson/incendiarism","","2001/11/14 00:00:00+00","318","1700","1","B","34.03333333","-82.4","USFS","SC","65","45065","McCormick County"
"-82.399996361","34.033326762","1060240","1273011","FS-370197","FED","FS-FIRESTAT","FS","USSCFMF","Francis Marion & Sumter National Forests","0812","Francis Marion-Sumter National Forest","95","","","520 #4","","","","","","2001","2001/11/12 00:00:00+00","316","2200","Human","Arson/incendiarism","","2001/11/14 00:00:00+00","318","1700","1","B","34.03333333","-82.4","USFS","SC","65","45065","McCormick County"
"-82.399996361","34.033326762","1060241","1273012","FS-370204","FED","FS-FIRESTAT","FS","USSCFMF","Francis Marion & Sumter National Forests","0812","Francis Marion-Sumter National Forest","96","","","520 #5","","","","","","2001","2001/11/12 00:00:00+00","316","2200","Human","Arson/incendiarism","","2001/11/14 00:00:00+00","318","1700","1","B","34.03333333","-82.4","USFS","SC","65","45065","McCormick County"
