"ï»¿X","Y","OBJECTID","FOD_ID","FPA_ID","SOURCE_SYSTEM_TYPE","SOURCE_SYSTEM","NWCG_REPORTING_AGENCY","NWCG_REPORTING_UNIT_ID","NWCG_REPORTING_UNIT_NAME","SOURCE_REPORTING_UNIT","SOURCE_REPORTING_UNIT_NAME","LOCAL_FIRE_REPORT_ID","LOCAL_INCIDENT_ID","FIRE_CODE","FIRE_NAME","ICS_209_PLUS_INCIDENT_JOIN_ID","ICS_209_PLUS_COMPLEX_JOIN_ID","MTBS_ID","MTBS_FIRE_NAME","COMPLEX_NAME","FIRE_YEAR","DISCOVERY_DATE","DISCOVERY_DOY","DISCOVERY_TIME","NWCG_CAUSE_CLASSIFICATION","NWCG_GENERAL_CAUSE","NWCG_CAUSE_AGE_CATEGORY","CONT_DATE","CONT_DOY","CONT_TIME","FIRE_SIZE","FIRE_SIZE_CLASS","LATITUDE","LONGITUDE","OWNER_DESCR","STATE","COUNTY","FIPS_CODE","FIPS_NAME"
"-112.269988197","40.689994","2020001","400149490","SFO-2017UTFFSL7965","NONFED","ST-NASF","ST/C&L","USUTUTS","Utah Division Forestry Fire State Lands","UTFFSL","Utah Division of Forestry, Fire & State Lands","","7965","","HARDY","","","","","","2017","2017/09/09 00:00:00+00","252","","Human","Missing data/not specified/undetermined","","2017/09/13 00:00:00+00","256","","1.9","B","40.69","-112.27","PRIVATE","UT","Tooele","49045","Tooele County"
"-121.919158993","36.562903124","2020002","400149491","SFO-2017CACDFBEU004863","NONFED","ST-NASF","ST/C&L","USCACDF","California Department of Forestry & Fire Protection","CACDF","Headquarters, California Department of Forestry & Fire Protection","","BEU004863","","CAMINO DEL MONTE  / TORRE","","","","","","2017","2017/09/14 00:00:00+00","257","0640","Human","Missing data/not specified/undetermined","","2017/09/14 00:00:00+00","257","0655","0.01","A","36.562908","-121.919172","MISSING/NOT SPECIFIED","CA","MONTEREY","06053","Monterey County"
"-119.318287347","37.101383896","2020003","400149492","SFO-2017CACDFFKU013407","NONFED","ST-NASF","ST/C&L","USCACDF","California Department of Forestry & Fire Protection","CACDF","Headquarters, California Department of Forestry & Fire Protection","","FKU013407","","SHAVER","","","","","","2017","2017/09/11 00:00:00+00","254","0902","Human","Missing data/not specified/undetermined","","2017/09/14 00:00:00+00","257","0847","8.6","B","37.101389","-119.3183","MISSING/NOT SPECIFIED","CA","FRESNO","06019","Fresno County"
"-124.052369153","40.761211962","2020004","400149493","SFO-2017CACDFHUU008096","NONFED","ST-NASF","ST/C&L","USCACDF","California Department of Forestry & Fire Protection","CACDF","Headquarters, California Department of Forestry & Fire Protection","","HUU008096","","FRESHWATER","","","","","","2017","2017/09/14 00:00:00+00","257","0852","Human","Missing data/not specified/undetermined","","2017/09/14 00:00:00+00","257","0957","0.01","A","40.761217","-124.052383","MISSING/NOT SPECIFIED","CA","HUMBOLDT","06023","Humboldt County"
"-104.578690145","38.294893757","2020005","400149494","SFO-20171014516851","NONFED","ST-NASF","ST/C&L","USCOPUCX","Pueblo Fire Department","10145","Pueblo Fire Department","","16851","","UNKNOWN","","","","","","2017","2017/09/14 00:00:00+00","257","1005","Human","Missing data/not specified/undetermined","","2017/09/14 00:00:00+00","257","1005","0.01","A","38.2949","-104.5787","MISSING/NOT SPECIFIED","CO","PUEBLO","08101","Pueblo County"
"-108.526589178","39.084093915","2020006","400149495","SFO-20177735211132","NONFED","ST-NASF","ST/C&L","USCOGRJX","Grand Junction Fire Department","7735","Grand Junction Fire Department","","211132","","UNKNOWN","","","","","","2017","2017/09/14 00:00:00+00","257","0011","Human","Missing data/not specified/undetermined","","2017/09/14 00:00:00+00","257","0011","0.01","A","39.0841","-108.5266","MISSING/NOT SPECIFIED","CO","MESA","08077","Mesa County"
"-120.729485769","45.817274317","2020007","400149496","SFO-2017WADNR511","NONFED","ST-NASF","ST/C&L","USWAWAS","Washington State Department of Natural Resources Headquarters","WADNR","Washington Department of Natural Resources","","511","","HARPER SPRINGS","","","","","","2017","2017/09/03 00:00:00+00","246","1940","Human","Missing data/not specified/undetermined","","2017/09/14 00:00:00+00","257","1156","0.25","A","45.81728","-120.7295","PRIVATE","WA","39","53039","Klickitat County"
"-121.948455933","37.08286808","2020008","400149497","SFO-2017CACDFCZU006943","NONFED","ST-NASF","ST/C&L","USCACDF","California Department of Forestry & Fire Protection","CACDF","Headquarters, California Department of Forestry & Fire Protection","","CZU006943","","SOQUEL","","","","","","2017","2017/09/14 00:00:00+00","257","1018","Human","Missing data/not specified/undetermined","","2017/09/14 00:00:00+00","257","1318","0.1","A","37.082873","-121.948469","MISSING/NOT SPECIFIED","CA","SANTA CRUZ","06087","Santa Cruz County"
"-80.297008907","35.486460043","2020009","400149498","SFO-2017NCNCSNCST-084-FY2018-0027","NONFED","ST-NASF","ST/C&L","USNCNCS","North Carolina Forest Service","NCNCS","North Carolina State Division of Forest Resouces","","NCST-084-FY2018-0027","","HIDE AND SEEK","","","","","","2017","2017/08/17 00:00:00+00","229","0842","Human","Debris and open burning","","2017/08/17 00:00:00+00","229","0900","0.04","A","35.486467","-80.297012","MISSING/NOT SPECIFIED","NC","Stanly","37167","Stanly County"
"-91.467552629","45.988901735","2020010","400149499","SFO-2017Wi-WIS83030832017","NONFED","ST-NASF","ST/C&L","USWIWIS","Wisconsin Department of Natural Resources","WiWIS","Wisconsin Department of Natural Resources","","83030832017","","FENCE FIRE 1","","","","","","2017","2017/09/14 00:00:00+00","257","1310","Human","Missing data/not specified/undetermined","","2017/09/14 00:00:00+00","257","1324","0.1","A","45.98891","-91.46756","PRIVATE","WI","Sawyer","55113","Sawyer County"
"-91.464292629","45.990271735","2020011","400149500","SFO-2017Wi-WIS83030842017","NONFED","ST-NASF","ST/C&L","USWIWIS","Wisconsin Department of Natural Resources","WiWIS","Wisconsin Department of Natural Resources","","83030842017","","FENCE LINE 2","","","","","","2017","2017/09/14 00:00:00+00","257","1320","Human","Missing data/not specified/undetermined","","2017/09/14 00:00:00+00","257","1324","0.1","A","45.99028","-91.4643","PRIVATE","WI","Sawyer","55113","Sawyer County"
"-117.735385907","47.57896389","2020012","400149501","SFO-2017WADNR759","NONFED","ST-NASF","ST/C&L","USWAWAS","Washington State Department of Natural Resources Headquarters","WADNR","Washington Department of Natural Resources","","759","","FANCHER STUBBLE","","","","","","2017","2017/09/03 00:00:00+00","246","1500","Human","Missing data/not specified/undetermined","","2017/09/14 00:00:00+00","257","1411","210","D","47.57897","-117.7354","PRIVATE","WA","63","53063","Spokane County"
"-124.062636129","40.914377953","2020013","400149502","SFO-2017CACDFHUU008100","NONFED","ST-NASF","ST/C&L","USCACDF","California Department of Forestry & Fire Protection","CACDF","Headquarters, California Department of Forestry & Fire Protection","","HUU008100","","NORTH","","","","","","2017","2017/09/14 00:00:00+00","257","1010","Human","Missing data/not specified/undetermined","","2017/09/14 00:00:00+00","257","1414","0.94","B","40.914383","-124.06265","MISSING/NOT SPECIFIED","CA","HUMBOLDT","06023","Humboldt County"
"-104.533190093","38.889993669","2020014","400149503","SFO-201741421724","NONFED","ST-NASF","ST/C&L","USCOFALX","Falcon Fire Protection District","4142","Falcon Fire Protection District","","1724","","UNKNOWN","","","","","","2017","2017/09/14 00:00:00+00","257","1419","Human","Missing data/not specified/undetermined","","2017/09/14 00:00:00+00","257","1419","0.01","A","38.89","-104.5332","MISSING/NOT SPECIFIED","CO","EL PASO","08041","El Paso County"
"-123.02084857","38.814583018","2020015","400149504","SFO-2017CACDFLNU009078","NONFED","ST-NASF","ST/C&L","USCACDF","California Department of Forestry & Fire Protection","CACDF","Headquarters, California Department of Forestry & Fire Protection","","LNU009078","","SHAHAN","","","","","","2017","2017/09/14 00:00:00+00","257","1400","Human","Missing data/not specified/undetermined","","2017/09/14 00:00:00+00","257","1435","1","B","38.814588","-123.020862","MISSING/NOT SPECIFIED","CA","SONOMA","06097","Sonoma County"
"-107.862189512","37.309294107","2020016","400149505","SFO-20176770173906","NONFED","ST-NASF","ST/C&L","USCODFRX","Durango Fire Rescue Authority","6770","Durango Fire Rescue Authority","","173906","","UNKNOWN","","","","","","2017","2017/09/14 00:00:00+00","257","1459","Human","Missing data/not specified/undetermined","","2017/09/14 00:00:00+00","257","1459","0.01","A","37.3093","-107.8622","MISSING/NOT SPECIFIED","CO","LA PLATA","08067","La Plata County"
"-104.622490142","38.22659377","2020017","400149506","SFO-20171014516869","NONFED","ST-NASF","ST/C&L","USCOPUCX","Pueblo Fire Department","10145","Pueblo Fire Department","","16869","","UNKNOWN","","","","","","2017","2017/09/14 00:00:00+00","257","1503","Human","Missing data/not specified/undetermined","","2017/09/14 00:00:00+00","257","1503","0.01","A","38.2266","-104.6225","MISSING/NOT SPECIFIED","CO","PUEBLO","08101","Pueblo County"
"-123.818086253","40.307394973","2020018","400149507","SFO-2017CACDFHUU008110","NONFED","ST-NASF","ST/C&L","USCACDF","California Department of Forestry & Fire Protection","CACDF","Headquarters, California Department of Forestry & Fire Protection","","HUU008110","","RIDGE","","","","","","2017","2017/09/14 00:00:00+00","257","1400","Human","Missing data/not specified/undetermined","","2017/09/14 00:00:00+00","257","1540","0.08","A","40.3074","-123.8181","MISSING/NOT SPECIFIED","CA","HUMBOLDT","06023","Humboldt County"
"-103.208490273","40.060593413","2020019","400149508","SFO-201712105914171","NONFED","ST-NASF","ST/C&L","USCOAKRX","Akron Volunteer Fire Department","12105","Akron Volunteer Fire Department","","914171","","UNKNOWN","","","","","","2017","2017/09/14 00:00:00+00","257","1452","Human","Missing data/not specified/undetermined","","2017/09/14 00:00:00+00","257","1610","12","C","40.0606","-103.2085","MISSING/NOT SPECIFIED","CO","WASHINGTON","08121","Washington County"
"-103.208590261","40.157393399","2020020","400149509","SFO-201712105914172","NONFED","ST-NASF","ST/C&L","USCOAKRX","Akron Volunteer Fire Department","12105","Akron Volunteer Fire Department","","914172","","UNKNOWN","","","","","","2017","2017/09/14 00:00:00+00","257","1540","Human","Missing data/not specified/undetermined","","2017/09/14 00:00:00+00","257","1650","25","C","40.1574","-103.2086","MISSING/NOT SPECIFIED","CO","WASHINGTON","08121","Washington County"
"-77.446597273","43.212191407","2020021","400149510","SFO-2017NY2842NY2842-2017-758","NONFED","ST-NASF","ST/C&L","USNYNYX","Fire Department of New York","NY2842","Fire Department of New York","","NY2842-2017-758","","N/A","","","","","","2017","2017/08/18 00:00:00+00","230","1121","Human","Debris and open burning","","2017/08/18 00:00:00+00","230","1147","0.1","A","43.2122","-77.4466","PRIVATE","NY","Monroe","36055","Monroe County"
"-79.022114287","35.550509984","2020022","400149511","SFO-2017NCNCSNCST-019-FY2018-0017","NONFED","ST-NASF","ST/C&L","USNCNCS","North Carolina Forest Service","NCNCS","North Carolina State Division of Forest Resouces","","NCST-019-FY2018-0017","","DUCK IMPOUNDMENT","","","","","","2017","2017/08/19 00:00:00+00","231","1451","Human","Debris and open burning","","2017/08/19 00:00:00+00","231","1600","5.59","B","35.550517","-79.022117","MISSING/NOT SPECIFIED","NC","Chatham","37037","Chatham County"
"-79.70081612","34.841108161","2020023","400149512","SFO-2017NCNCSNCST-077-FY2018-0027","NONFED","ST-NASF","ST/C&L","USNCNCS","North Carolina Forest Service","NCNCS","North Carolina State Division of Forest Resouces","","NCST-077-FY2018-0027","","730 LOUIS BREEDEN","","","","","","2017","2017/08/19 00:00:00+00","231","1944","Human","Debris and open burning","","2017/08/19 00:00:00+00","231","2010","0.18","A","34.841115","-79.700819","MISSING/NOT SPECIFIED","NC","Richmond","37153","Richmond County"
"-103.218890303","39.777593454","2020024","400149513","SFO-20171212017026","NONFED","ST-NASF","ST/C&L","USCOSWCX","Southwest Washington County Fire Protection District","12120","Southwest Washington County Fire Protection District","","17026","","UNKNOWN","","","","","","2017","2017/09/14 00:00:00+00","257","1513","Human","Missing data/not specified/undetermined","","2017/09/14 00:00:00+00","257","1655","20","C","39.7776","-103.2189","MISSING/NOT SPECIFIED","CO","WASHINGTON","08121","Washington County"
"-104.59829014","38.304593757","2020025","400149514","SFO-20171014516883","NONFED","ST-NASF","ST/C&L","USCOPUCX","Pueblo Fire Department","10145","Pueblo Fire Department","","16883","","UNKNOWN","","","","","","2017","2017/09/14 00:00:00+00","257","1830","Human","Missing data/not specified/undetermined","","2017/09/14 00:00:00+00","257","1830","0.01","A","38.3046","-104.5983","MISSING/NOT SPECIFIED","CO","PUEBLO","08101","Pueblo County"
"-104.615790063","38.98889366","2020026","400149515","SFO-201741421728","NONFED","ST-NASF","ST/C&L","USCOFALX","Falcon Fire Protection District","4142","Falcon Fire Protection District","","1728","","UNKNOWN","","","","","","2017","2017/09/14 00:00:00+00","257","1848","Human","Missing data/not specified/undetermined","","2017/09/14 00:00:00+00","257","1848","0.01","A","38.9889","-104.6158","MISSING/NOT SPECIFIED","CO","EL PASO","08041","El Paso County"
"-104.873890017","38.858793696","2020027","400149516","SFO-201741181748873","NONFED","ST-NASF","ST/C&L","USCOCOLX","Colorado Springs Fire Department","4118","Colorado Springs Fire Department","","1748873","","UNKNOWN","","","","","","2017","2017/09/14 00:00:00+00","257","1917","Human","Missing data/not specified/undetermined","","2017/09/14 00:00:00+00","257","1917","0.01","A","38.8588","-104.8739","MISSING/NOT SPECIFIED","CO","EL PASO","08041","El Paso County"
"-104.878590017","38.855693697","2020028","400149518","SFO-201741181748712","NONFED","ST-NASF","ST/C&L","USCOCOLX","Colorado Springs Fire Department","4118","Colorado Springs Fire Department","","1748712","","UNKNOWN","","","","","","2017","2017/09/14 00:00:00+00","257","0203","Human","Missing data/not specified/undetermined","","2017/09/14 00:00:00+00","257","0203","0.01","A","38.8557","-104.8786","MISSING/NOT SPECIFIED","CO","EL PASO","08041","El Paso County"
"-121.503819457","41.286777706","2020029","400149519","SFO-2017CACDFLMU005560","NONFED","ST-NASF","ST/C&L","USCACDF","California Department of Forestry & Fire Protection","CACDF","Headquarters, California Department of Forestry & Fire Protection","","LMU005560","","3-20 BOUNDARY","","","","","","2017","2017/09/12 00:00:00+00","255","1735","Human","Missing data/not specified/undetermined","","2017/09/14 00:00:00+00","257","2219","20","C","41.286783","-121.503833","MISSING/NOT SPECIFIED","CA","SISKIYOU","06093","Siskiyou County"
"-104.774689946","39.697993572","2020030","400149520","SFO-201750540038","NONFED","ST-NASF","ST/C&L","USCOAURX","Aurora Fire Department","505","Aurora Fire Department","","40038","","UNKNOWN","","","","","","2017","2017/09/14 00:00:00+00","257","0548","Human","Missing data/not specified/undetermined","","2017/09/14 00:00:00+00","257","0548","0.01","A","39.698","-104.7747","MISSING/NOT SPECIFIED","CO","ARAPAHOE","08005","Arapahoe County"
"-105.535789704","40.254493549","2020031","400149521","SFO-201713031700109","NONFED","ST-NASF","ST/C&L","USCOALPX","Allenspark Fire Protection District","1303","Allenspark Fire Protection District","","1700109","","UNKNOWN","","","","","","2017","2017/09/14 00:00:00+00","257","0616","Human","Missing data/not specified/undetermined","","2017/09/14 00:00:00+00","257","0635","0.01","A","40.2545","-105.5358","MISSING/NOT SPECIFIED","CO","BOULDER","08013","Boulder County"
"-105.131989759","40.570693478","2020032","400149522","SFO-2017696016003","NONFED","ST-NASF","ST/C&L","USCOPFAX","Poudre Fire Authority","6960","Poudre Fire Authority","","16003","","UNKNOWN","","","","","","2017","2017/09/14 00:00:00+00","257","0827","Human","Missing data/not specified/undetermined","","2017/09/14 00:00:00+00","257","0827","0.01","A","40.5707","-105.132","MISSING/NOT SPECIFIED","CO","LARIMER","08069","Larimer County"
"-106.048489671","39.54959368","2020033","400149523","SFO-2017117502077","NONFED","ST-NASF","ST/C&L","USCORWBX","Red White & Blue Fire Protection District","11750","Red, White & Blue Fire Protection District","","2077","","UNKNOWN","","","","","","2017","2017/09/14 00:00:00+00","257","0909","Human","Missing data/not specified/undetermined","","2017/09/14 00:00:00+00","257","0909","0.01","A","39.5496","-106.0485","MISSING/NOT SPECIFIED","CO","SUMMIT","08117","Summit County"
"-106.290589649","39.266193736","2020034","400149524","SFO-20176515615","NONFED","ST-NASF","ST/C&L","USCOLACX","Leadville / Lake County Fire Rescue","6515","Leadville/Lake County Fire Rescue","","615","","UNKNOWN","","","","","","2017","2017/09/14 00:00:00+00","257","0942","Human","Missing data/not specified/undetermined","","2017/09/14 00:00:00+00","257","0942","0.01","A","39.2662","-106.2906","MISSING/NOT SPECIFIED","CO","LAKE","08065","Lake County"
"-111.499988442","40.009994018","2020035","400149525","SFO-2017UTFFSL8083","NONFED","ST-NASF","ST/C&L","USUTUTS","Utah Division Forestry Fire State Lands","UTFFSL","Utah Division of Forestry, Fire & State Lands","","8083","","THISTLE","","","","","","2017","2017/09/14 00:00:00+00","257","","Human","Missing data/not specified/undetermined","","2017/09/14 00:00:00+00","257","","1","B","40.01","-111.5","PRIVATE","UT","Utah","49049","Utah County"
"-121.058386916","38.4279469","2020036","400149526","SFO-2017CACDFAEU027341","NONFED","ST-NASF","ST/C&L","USCACDF","California Department of Forestry & Fire Protection","CACDF","Headquarters, California Department of Forestry & Fire Protection","","AEU027341","","MEISS","","","","","","2017","2017/09/15 00:00:00+00","258","0150","Human","Missing data/not specified/undetermined","","2017/09/15 00:00:00+00","258","0338","1","B","38.427952","-121.0584","MISSING/NOT SPECIFIED","CA","SACRAMENTO","06067","Sacramento County"
"-119.736997276","37.124433922","2020037","400149527","SFO-2017CACDFMMU018998","NONFED","ST-NASF","ST/C&L","USCACDF","California Department of Forestry & Fire Protection","CACDF","Headquarters, California Department of Forestry & Fire Protection","","MMU018998","","RANGE","","","","","","2017","2017/09/15 00:00:00+00","258","0514","Human","Missing data/not specified/undetermined","","2017/09/15 00:00:00+00","258","0605","0.1","A","37.124439","-119.73701","MISSING/NOT SPECIFIED","CA","MADERA","06039","Madera County"
"-117.338321995","33.697966134","2020038","400149528","SFO-2017CACDFRRU114285","NONFED","ST-NASF","ST/C&L","USCACDF","California Department of Forestry & Fire Protection","CACDF","Headquarters, California Department of Forestry & Fire Protection","","RRU114285","","CAMBERN AV / RED GUM DR","","","","","","2017","2017/09/15 00:00:00+00","258","0716","Human","Missing data/not specified/undetermined","","2017/09/15 00:00:00+00","258","0737","0.01","A","33.697971","-117.338334","MISSING/NOT SPECIFIED","CA","RIVERSIDE","06065","Riverside County"
"-122.759585421","45.919884521","2020039","400149529","SFO-2017WADNR488","NONFED","ST-NASF","ST/C&L","USWAWAS","Washington State Department of Natural Resources Headquarters","WADNR","Washington Department of Natural Resources","","488","","EXIT 22 SOUTH BOUND","","","","","","2017","2017/09/11 00:00:00+00","254","1322","Human","Missing data/not specified/undetermined","","2017/09/15 00:00:00+00","258","1305","3","B","45.91989","-122.7596","MUNICIPAL/LOCAL","WA","15","53015","Cowlitz County"
"-116.625378767","46.952438578","2020040","400149530","SFO-2017IDDL4102017006","NONFED","ST-NASF","ST/C&L","USIDIDS","Idaho Department of Lands","IDDL","Idaho Department of Lands","","4102017006","","STRYCHNINE","2017_7223505_STRYCHNINE","","ID4695611662720170902","STRYCHNINE","","2017","2017/09/02 00:00:00+00","245","1530","Human","Missing data/not specified/undetermined","","2017/09/15 00:00:00+00","258","1400","1010","F","46.95244476","-116.62539251","PRIVATE","ID","Latah","16057","Latah County"
"-122.09888559","45.61226447","2020041","400149531","SFO-2017WADNR477","NONFED","ST-NASF","ST/C&L","USWAWAS","Washington State Department of Natural Resources Headquarters","WADNR","Washington Department of Natural Resources","","477","","ARCHER MOUNTAIN","2017_7203602_ARCHER MOUNTAIN","","","","","2017","2017/09/05 00:00:00+00","248","0313","Human","Missing data/not specified/undetermined","","2017/09/15 00:00:00+00","258","1411","260","D","45.61227","-122.0989","UNDEFINED FEDERAL","WA","59","53059","Skamania County"
"-104.956089952","39.274193643","2020042","400149532","SFO-20173535633","NONFED","ST-NASF","ST/C&L","USCOLARX","Larkspur Fire Protection District","3535","Larkspur Fire Protection District","","633","","UNKNOWN","","","","","","2017","2017/09/15 00:00:00+00","258","1425","Human","Missing data/not specified/undetermined","","2017/09/15 00:00:00+00","258","1455","0.1","A","39.2742","-104.9561","MISSING/NOT SPECIFIED","CO","DOUGLAS","08035","Douglas County"
"-120.977330832","39.199950828","2020043","400149533","SFO-2017CACDFNEU024313","NONFED","ST-NASF","ST/C&L","USCACDF","California Department of Forestry & Fire Protection","CACDF","Headquarters, California Department of Forestry & Fire Protection","","NEU024313","","YOU BET","","","","","","2017","2017/09/15 00:00:00+00","258","1422","Human","Missing data/not specified/undetermined","","2017/09/15 00:00:00+00","258","1455","0.1","A","39.199956","-120.977344","MISSING/NOT SPECIFIED","CA","NEVADA","06057","Nevada County"
"-114.281186692","47.063293571","2020044","400149534","SFO-2017MTSWS000076","NONFED","ST-NASF","ST/C&L","USMTSWS","Southwestern Land Office","MTSWS","Southwestern Land Office","","000076","","20369 SMOKEY ROAD","","","","","","2017","2017/09/15 00:00:00+00","258","1457","Human","Missing data/not specified/undetermined","","2017/09/15 00:00:00+00","258","1553","0.1","A","47.0633","-114.2812","PRIVATE","MT","Missoula","30063","Missoula County"
"-104.794790043","38.7919937","2020045","400149535","SFO-201741181749026","NONFED","ST-NASF","ST/C&L","USCOCOLX","Colorado Springs Fire Department","4118","Colorado Springs Fire Department","","1749026","","UNKNOWN","","","","","","2017","2017/09/15 00:00:00+00","258","1604","Human","Missing data/not specified/undetermined","","2017/09/15 00:00:00+00","258","1604","0.01","A","38.792","-104.7948","MISSING/NOT SPECIFIED","CO","EL PASO","08041","El Paso County"
"-105.098889867","39.737693589","2020046","400149536","SFO-2017590924613","NONFED","ST-NASF","ST/C&L","USCOWEMX","West Metro Fire Rescue","5909","West Metro Fire Rescue","","24613","","UNKNOWN","","","","","","2017","2017/09/15 00:00:00+00","258","1648","Human","Missing data/not specified/undetermined","","2017/09/15 00:00:00+00","258","1648","0.01","A","39.7377","-105.0989","MISSING/NOT SPECIFIED","CO","JEFFERSON","08059","Jefferson County"
"-104.854489853","40.330093491","2020047","400149537","SFO-2017123421772","NONFED","ST-NASF","ST/C&L","USCOWEX","Weld County","12342","Front Range Fire Rescue Authority","","1772","","UNKNOWN","","","","","","2017","2017/09/15 00:00:00+00","258","1648","Human","Missing data/not specified/undetermined","","2017/09/15 00:00:00+00","258","1648","0.01","A","40.3301","-104.8545","MISSING/NOT SPECIFIED","CO","WELD","08123","Weld County"
"-121.495897679","39.740405825","2020048","400149538","SFO-2017CACDFBTU014634","NONFED","ST-NASF","ST/C&L","USCACDF","California Department of Forestry & Fire Protection","CACDF","Headquarters, California Department of Forestry & Fire Protection","","BTU014634","","ANDY","","","","","","2017","2017/09/15 00:00:00+00","258","1556","Human","Missing data/not specified/undetermined","","2017/09/15 00:00:00+00","258","1701","0.1","A","39.740411","-121.495911","MISSING/NOT SPECIFIED","CA","BUTTE","06007","Butte County"
"-104.81009003","38.878293689","2020049","400149539","SFO-201741181749045","NONFED","ST-NASF","ST/C&L","USCOCOLX","Colorado Springs Fire Department","4118","Colorado Springs Fire Department","","1749045","","UNKNOWN","","","","","","2017","2017/09/15 00:00:00+00","258","1756","Human","Missing data/not specified/undetermined","","2017/09/15 00:00:00+00","258","1756","0.01","A","38.8783","-104.8101","MISSING/NOT SPECIFIED","CO","EL PASO","08041","El Paso County"
"-105.539589911","38.4359938","2020050","400149540","SFO-201743602017173","NONFED","ST-NASF","ST/C&L","USCODEMX","Deer Mountain Fire Protection District","4360","Deer Mountain Fire Protection District","","2017173","","UNKNOWN","","","","","","2017","2017/09/15 00:00:00+00","258","1840","Human","Missing data/not specified/undetermined","","2017/09/15 00:00:00+00","258","1840","0.01","A","38.436","-105.5396","MISSING/NOT SPECIFIED","CO","FREMONT","08043","Fremont County"
"-104.839190024","38.873493692","2020051","400149541","SFO-201741181749068","NONFED","ST-NASF","ST/C&L","USCOCOLX","Colorado Springs Fire Department","4118","Colorado Springs Fire Department","","1749068","","UNKNOWN","","","","","","2017","2017/09/15 00:00:00+00","258","1958","Human","Missing data/not specified/undetermined","","2017/09/15 00:00:00+00","258","1958","0.01","A","38.8735","-104.8392","MISSING/NOT SPECIFIED","CO","EL PASO","08041","El Paso County"
"-122.786545637","44.852074585","2020052","400149542","SFO-2017ORODF1758204818","NONFED","ST-NASF","ST/C&L","USORORS","Oregon Department of Forestry Salem Headquarters","ORODF","Oregon Department of Forestry","","1758204818","","TRIUMPH RD. FIRE","","","","","","2017","2017/09/15 00:00:00+00","258","1409","Human","Missing data/not specified/undetermined","","2017/09/15 00:00:00+00","258","2009","8","B","44.85208","-122.78656","PRIVATE","OR","Marion","41047","Marion County"
"-105.270689794","40.018093563","2020053","400149543","SFO-2017131510642","NONFED","ST-NASF","ST/C&L","USCOBLCX","Boulder Fire Rescue Department","1315","Boulder Fire-Rescue","","10642","","UNKNOWN","","","","","","2017","2017/09/15 00:00:00+00","258","2030","Human","Missing data/not specified/undetermined","","2017/09/15 00:00:00+00","258","2030","0.01","A","40.0181","-105.2707","MISSING/NOT SPECIFIED","CO","BOULDER","08013","Boulder County"
"-104.79858995","39.619393584","2020054","400149544","SFO-20175353932","NONFED","ST-NASF","ST/C&L","USCOCUNX","Cunningham Fire Protection District","535","Cunningham Fire Protection District","","3932","","UNKNOWN","","","","","","2017","2017/09/15 00:00:00+00","258","2032","Human","Missing data/not specified/undetermined","","2017/09/15 00:00:00+00","258","2032","0.01","A","39.6194","-104.7986","MISSING/NOT SPECIFIED","CO","ARAPAHOE","08005","Arapahoe County"
"-80.290845923","35.232467097","2020055","400149545","SFO-2017NCNCSNCST-084-FY2018-0019","NONFED","ST-NASF","ST/C&L","USNCNCS","North Carolina Forest Service","NCNCS","North Carolina State Division of Forest Resouces","","NCST-084-FY2018-0019","","BARBEES GROVE CUTOVER","","","","","","2017","2017/08/20 00:00:00+00","232","1600","Human","Debris and open burning","","2017/08/20 00:00:00+00","232","1713","6","B","35.232474","-80.290849","MISSING/NOT SPECIFIED","NC","Stanly","37167","Stanly County"
"-78.839417352","35.364162018","2020056","400149546","SFO-2017NCNCSNCST-043-FY2018-0013","NONFED","ST-NASF","ST/C&L","USNCNCS","North Carolina Forest Service","NCNCS","North Carolina State Division of Forest Resouces","","NCST-043-FY2018-0013","","AMERICAN LEGION","","","","","","2017","2017/08/20 00:00:00+00","232","1742","Human","Debris and open burning","","2017/08/20 00:00:00+00","232","1800","0.03","A","35.364169","-78.83942","MISSING/NOT SPECIFIED","NC","Harnett","37085","Harnett County"
"-104.855689852","40.331493491","2020057","400149547","SFO-2017123421778","NONFED","ST-NASF","ST/C&L","USCOWEX","Weld County","12342","Front Range Fire Rescue Authority","","1778","","UNKNOWN","","","","","","2017","2017/09/15 00:00:00+00","258","2155","Human","Missing data/not specified/undetermined","","2017/09/15 00:00:00+00","258","2155","0.01","A","40.3315","-104.8557","MISSING/NOT SPECIFIED","CO","WELD","08123","Weld County"
"-106.039389685","39.453893693","2020058","400149548","SFO-2017117502084","NONFED","ST-NASF","ST/C&L","USCORWBX","Red White & Blue Fire Protection District","11750","Red, White & Blue Fire Protection District","","2084","","UNKNOWN","","","","","","2017","2017/09/15 00:00:00+00","258","0758","Human","Missing data/not specified/undetermined","","2017/09/15 00:00:00+00","258","0758","0.01","A","39.4539","-106.0394","MISSING/NOT SPECIFIED","CO","SUMMIT","08117","Summit County"
"-107.797689534","37.225494115","2020059","400149549","SFO-20176770173916","NONFED","ST-NASF","ST/C&L","USCODFRX","Durango Fire Rescue Authority","6770","Durango Fire Rescue Authority","","173916","","UNKNOWN","","","","","","2017","2017/09/15 00:00:00+00","258","0848","Human","Missing data/not specified/undetermined","","2017/09/15 00:00:00+00","258","0848","0.01","A","37.2255","-107.7977","MISSING/NOT SPECIFIED","CO","LA PLATA","08067","La Plata County"
"-112.049988131","41.489993895","2020060","400149550","SFO-2017UTFFSL7966","NONFED","ST-NASF","ST/C&L","USUTUTS","Utah Division Forestry Fire State Lands","UTFFSL","Utah Division of Forestry, Fire & State Lands","","7966","","COMANCHE","","","","","","2017","2017/09/09 00:00:00+00","252","","Human","Missing data/not specified/undetermined","","2017/09/15 00:00:00+00","258","","0.25","A","41.49","-112.05","PRIVATE","UT","Box Elder","49003","Box Elder County"
"-112.78998808","40.78999403","2020061","400149551","SFO-2017UTFFSL7870","NONFED","ST-NASF","ST/C&L","USUTUTS","Utah Division Forestry Fire State Lands","UTFFSL","Utah Division of Forestry, Fire & State Lands","","7870","","WELL","","","","","","2017","2017/09/03 00:00:00+00","246","","Human","Missing data/not specified/undetermined","","2017/09/15 00:00:00+00","258","","7.8","B","40.79","-112.79","STATE","UT","Tooele","49045","Tooele County"
"-121.036819814","39.265611828","2020062","400149552","SFO-2017CACDFNEU024368","NONFED","ST-NASF","ST/C&L","USCACDF","California Department of Forestry & Fire Protection","CACDF","Headquarters, California Department of Forestry & Fire Protection","","NEU024368","","BROAD","","","","","","2017","2017/09/16 00:00:00+00","259","0551","Human","Missing data/not specified/undetermined","","2017/09/16 00:00:00+00","259","0743","0.2","A","39.265617","-121.036833","MISSING/NOT SPECIFIED","CA","NEVADA","06057","Nevada County"
"-117.381585901","47.887983831","2020063","400149554","SFO-2017WADNR773","NONFED","ST-NASF","ST/C&L","USWAWAS","Washington State Department of Natural Resources Headquarters","WADNR","Washington Department of Natural Resources","","773","","BASS SPOT","","","","","","2017","2017/09/11 00:00:00+00","254","1740","Human","Missing data/not specified/undetermined","","2017/09/16 00:00:00+00","259","1100","0.01","A","47.88799","-117.3816","PRIVATE","WA","63","53063","Spokane County"
"-104.500190056","39.296393609","2020064","400149555","SFO-20173935310","NONFED","ST-NASF","ST/C&L","USCOKIOX","Kiowa Fire Protection District","3935","Kiowa Fire Protection District","","310","","UNKNOWN","","","","","","2017","2017/09/15 00:00:00+00","258","1301","Human","Missing data/not specified/undetermined","","2017/09/16 00:00:00+00","259","1200","0.01","A","39.2964","-104.5002","MISSING/NOT SPECIFIED","CO","ELBERT","08039","Elbert County"
"-117.730285822","47.946563864","2020065","400149556","SFO-2017WADNR771","NONFED","ST-NASF","ST/C&L","USWAWAS","Washington State Department of Natural Resources Headquarters","WADNR","Washington Department of Natural Resources","","771","","RAIL CANYON SPOT","","","","","","2017","2017/09/11 00:00:00+00","254","1230","Human","Missing data/not specified/undetermined","","2017/09/16 00:00:00+00","259","1201","0.02","A","47.94657","-117.7303","PRIVATE","WA","65","53065","Stevens County"
"-118.956885364","48.894703938","2020066","400149557","SFO-2017WADNR767","NONFED","ST-NASF","ST/C&L","USWAWAS","Washington State Department of Natural Resources Headquarters","WADNR","Washington Department of Natural Resources","","767","","BEAVER MOUNTAIN","","","","","","2017","2017/09/08 00:00:00+00","251","1530","Human","Missing data/not specified/undetermined","","2017/09/16 00:00:00+00","259","1306","0.1","A","48.89471","-118.9569","STATE","WA","47","53047","Okanogan County"
"-117.825385779","48.056133867","2020067","400149558","SFO-2017WADNR768","NONFED","ST-NASF","ST/C&L","USWAWAS","Washington State Department of Natural Resources Headquarters","WADNR","Washington Department of Natural Resources","","768","","LUTHER","","","","","","2017","2017/09/09 00:00:00+00","252","1430","Human","Missing data/not specified/undetermined","","2017/09/16 00:00:00+00","259","1314","0.25","A","48.05614","-117.8254","PRIVATE","WA","65","53065","Stevens County"
"-107.370089247","40.598793638","2020068","400149559","SFO-20178110314","NONFED","ST-NASF","ST/C&L","USCOCRGX","Craig Rural Fire Protection District","8110","Craig Rural Fire Protection District","","314","","UNKNOWN","","","","","","2017","2017/09/16 00:00:00+00","259","1503","Human","Missing data/not specified/undetermined","","2017/09/16 00:00:00+00","259","1503","25","C","40.5988","-107.3701","MISSING/NOT SPECIFIED","CO","MOFFAT","08081","Moffat County"
"-77.421661794","35.124731021","2020069","400149560","SFO-2017NCNCSNCST-052-FY2018-0004","NONFED","ST-NASF","ST/C&L","USNCNCS","North Carolina Forest Service","NCNCS","North Carolina State Division of Forest Resouces","","NCST-052-FY2018-0004","","ECLIPSE","","","","","","2017","2017/08/21 00:00:00+00","233","1232","Human","Debris and open burning","","2017/08/21 00:00:00+00","233","1256","0.11","A","35.124738","-77.421664","MISSING/NOT SPECIFIED","NC","Jones","37103","Jones County"
"-104.746489959","39.644693577","2020070","400149561","SFO-20175353945","NONFED","ST-NASF","ST/C&L","USCOCUNX","Cunningham Fire Protection District","535","Cunningham Fire Protection District","","3945","","UNKNOWN","","","","","","2017","2017/09/16 00:00:00+00","259","1519","Human","Missing data/not specified/undetermined","","2017/09/16 00:00:00+00","259","1519","0.01","A","39.6447","-104.7465","MISSING/NOT SPECIFIED","CO","ARAPAHOE","08005","Arapahoe County"
"-117.298208982","33.946575103","2020071","400149562","SFO-2017CACDFRRU114872","NONFED","ST-NASF","ST/C&L","USCACDF","California Department of Forestry & Fire Protection","CACDF","Headquarters, California Department of Forestry & Fire Protection","","RRU114872","","HY 60  W/ BOX SPRINGS RD","","","","","","2017","2017/09/16 00:00:00+00","259","1539","Human","Missing data/not specified/undetermined","","2017/09/16 00:00:00+00","259","1548","0.1","A","33.94658","-117.298221","MISSING/NOT SPECIFIED","CA","RIVERSIDE","06065","Riverside County"
"-122.918785044","47.479294454","2020072","400149563","SFO-2017WADNR348","NONFED","ST-NASF","ST/C&L","USWAWAS","Washington State Department of Natural Resources Headquarters","WADNR","Washington Department of Natural Resources","","348","","OAK PATCH","","","","","","2017","2017/08/08 00:00:00+00","220","1920","Human","Missing data/not specified/undetermined","","2017/09/16 00:00:00+00","259","1600","0.1","A","47.4793","-122.9188","STATE","WA","43","53043","Lincoln County"
"-104.618990143","38.22359377","2020073","400149564","SFO-20171014517004","NONFED","ST-NASF","ST/C&L","USCOPUCX","Pueblo Fire Department","10145","Pueblo Fire Department","","17004","","UNKNOWN","","","","","","2017","2017/09/16 00:00:00+00","259","1632","Human","Missing data/not specified/undetermined","","2017/09/16 00:00:00+00","259","1632","0.01","A","38.2236","-104.619","MISSING/NOT SPECIFIED","CO","PUEBLO","08101","Pueblo County"
"-104.761490034","38.944793676","2020074","400149565","SFO-201741181749224","NONFED","ST-NASF","ST/C&L","USCOCOLX","Colorado Springs Fire Department","4118","Colorado Springs Fire Department","","1749224","","UNKNOWN","","","","","","2017","2017/09/16 00:00:00+00","259","1728","Human","Missing data/not specified/undetermined","","2017/09/16 00:00:00+00","259","1728","0.01","A","38.9448","-104.7615","MISSING/NOT SPECIFIED","CO","EL PASO","08041","El Paso County"
"-104.970489908","39.635093594","2020075","400149566","SFO-201752014365","NONFED","ST-NASF","ST/C&L","USCOSOMX","South Metro Fire Rescue","520","South Metro Fire Rescue","","14365","","UNKNOWN","","","","","","2017","2017/09/16 00:00:00+00","259","1925","Human","Missing data/not specified/undetermined","","2017/09/16 00:00:00+00","259","1925","0.01","A","39.6351","-104.9705","MISSING/NOT SPECIFIED","CO","ARAPAHOE","08005","Arapahoe County"
"-119.862487276","36.93029495","2020076","400149567","SFO-2017CACDFMMU019097","NONFED","ST-NASF","ST/C&L","USCACDF","California Department of Forestry & Fire Protection","CACDF","Headquarters, California Department of Forestry & Fire Protection","","MMU019097","","BONADELLE","","","","","","2017","2017/09/16 00:00:00+00","259","1932","Human","Missing data/not specified/undetermined","","2017/09/16 00:00:00+00","259","1951","0.25","A","36.9303","-119.8625","MISSING/NOT SPECIFIED","CA","MADERA","06039","Madera County"
"-72.40023403","41.361285562","2020077","400149568","SFO-2017CT_CTS154-2017-0006","NONFED","ST-NASF","ST/C&L","USCTCTS","Connecticut Division of Forestry","CTCTS","Connecticut Division of Forestry","","154-2017-0006","","2 DENNISON RD","","","","","","2017","2017/09/16 00:00:00+00","259","2014","Human","Missing data/not specified/undetermined","","2017/09/16 00:00:00+00","259","2020","0.1","A","41.361294","-72.400235","PRIVATE","CT","Middlesex","09007","Middlesex County"
"-73.118403792","41.449712569","2020078","400149569","SFO-2017CT_CTS108-2017-0012","NONFED","ST-NASF","ST/C&L","USCTCTS","Connecticut Division of Forestry","CTCTS","Connecticut Division of Forestry","","108-2017-0012","","GREENBRIAR RD","","","","","","2017","2017/09/16 00:00:00+00","259","2008","Human","Missing data/not specified/undetermined","","2017/09/16 00:00:00+00","259","2035","0.1","A","41.449721","-73.118405","PRIVATE","CT","NEW HAVEN","09009","New Haven County"
"-105.084689863","39.79449358","2020079","400149570","SFO-201759032783","NONFED","ST-NASF","ST/C&L","USCOARVX","Arvada Fire Protection District","5903","Arvada Fire Protection District","","2783","","UNKNOWN","","","","","","2017","2017/09/16 00:00:00+00","259","2107","Human","Missing data/not specified/undetermined","","2017/09/16 00:00:00+00","259","2107","0.01","A","39.7945","-105.0847","MISSING/NOT SPECIFIED","CO","JEFFERSON","08059","Jefferson County"
"-119.976553263","36.880066962","2020080","400149571","SFO-2017CACDFMMU019103","NONFED","ST-NASF","ST/C&L","USCACDF","California Department of Forestry & Fire Protection","CACDF","Headquarters, California Department of Forestry & Fire Protection","","MMU019103","","MADERA","","","","","","2017","2017/09/16 00:00:00+00","259","2110","Human","Missing data/not specified/undetermined","","2017/09/16 00:00:00+00","259","2132","0.01","A","36.880072","-119.976566","MISSING/NOT SPECIFIED","CA","MADERA","06039","Madera County"
"-104.699889972","39.624893577","2020081","400149572","SFO-201750540525","NONFED","ST-NASF","ST/C&L","USCOAURX","Aurora Fire Department","505","Aurora Fire Department","","40525","","UNKNOWN","","","","","","2017","2017/09/16 00:00:00+00","259","2252","Human","Missing data/not specified/undetermined","","2017/09/16 00:00:00+00","259","2252","0.01","A","39.6249","-104.6999","MISSING/NOT SPECIFIED","CO","ARAPAHOE","08005","Arapahoe County"
"-73.742798537","42.286391432","2020082","400149574","SFO-2017NY1128NY1128-2017-29","NONFED","ST-NASF","ST/C&L","USNYNYX","Fire Department of New York","NY1128","Fire Department of New York","","NY1128-2017-29","","N/A","","","","","","2017","2017/08/22 00:00:00+00","234","0937","Human","Debris and open burning","","2017/08/22 00:00:00+00","234","1013","0.1","A","42.2864","-73.7428","MISSING/NOT SPECIFIED","NY","Columbia","36021","Columbia County"
"-119.52558534","48.58389402","2020083","400149575","SFO-2017WADNR729","NONFED","ST-NASF","ST/C&L","USWAWAS","Washington State Department of Natural Resources Headquarters","WADNR","Washington Department of Natural Resources","","729","","CRUMBACKER SHOULDER","","","","","","2017","2017/08/22 00:00:00+00","234","1925","Human","Missing data/not specified/undetermined","","2017/09/17 00:00:00+00","260","1010","0.1","A","48.5839","-119.5256","PRIVATE","WA","47","53047","Okanogan County"
"-105.447489823","39.416593657","2020084","400149576","SFO-20179345171065","NONFED","ST-NASF","ST/C&L","USCOPLAX","Platte Canyon Fire Protection District","9345","Platte Canyon Fire Protection District","","171065","","UNKNOWN","","","","","","2017","2017/09/17 00:00:00+00","260","1017","Human","Missing data/not specified/undetermined","","2017/09/17 00:00:00+00","260","1017","0.01","A","39.4166","-105.4475","MISSING/NOT SPECIFIED","CO","PARK","08093","Park County"
"-104.770990044","38.831693693","2020085","400149577","SFO-201741181749340","NONFED","ST-NASF","ST/C&L","USCOCOLX","Colorado Springs Fire Department","4118","Colorado Springs Fire Department","","1749340","","UNKNOWN","","","","","","2017","2017/09/17 00:00:00+00","260","1021","Human","Missing data/not specified/undetermined","","2017/09/17 00:00:00+00","260","1021","0.01","A","38.8317","-104.771","MISSING/NOT SPECIFIED","CO","EL PASO","08041","El Paso County"
"-105.195789881","39.419993639","2020086","400149578","SFO-20175978155","NONFED","ST-NASF","ST/C&L","USCONOFX","North Fork Fire Protection District","5978","North Fork Fire Protection District","","155","","UNKNOWN","","","","","","2017","2017/09/17 00:00:00+00","260","1120","Human","Missing data/not specified/undetermined","","2017/09/17 00:00:00+00","260","1120","0.01","A","39.42","-105.1958","MISSING/NOT SPECIFIED","CO","JEFFERSON","08059","Jefferson County"
"-106.062489712","39.165093734","2020087","400149579","SFO-20179305401","NONFED","ST-NASF","ST/C&L","USCONWEX","Northwest Fire Protection District","9305","Northwest Fire Protection District","","401","","UNKNOWN","","","","","","2017","2017/09/17 00:00:00+00","260","1230","Human","Missing data/not specified/undetermined","","2017/09/17 00:00:00+00","260","1303","0.05","A","39.1651","-106.0625","PRIVATE","CO","PARK","08093","Park County"
"-79.299752234","34.971052119","2020088","400149580","SFO-2017NCNCSNCST-047-FY2018-0004","NONFED","ST-NASF","ST/C&L","USNCNCS","North Carolina Forest Service","NCNCS","North Carolina State Division of Forest Resouces","","NCST-047-FY2018-0004","","JOHN RUSSEL RD","","","","","","2017","2017/08/22 00:00:00+00","234","1540","Human","Debris and open burning","","2017/08/22 00:00:00+00","234","1615","0.13","A","34.971059","-79.299755","MISSING/NOT SPECIFIED","NC","Hoke","37093","Hoke County"
"-77.841956666","35.126385035","2020089","400149581","SFO-2017NCNCSNCST-031-FY2018-0010","NONFED","ST-NASF","ST/C&L","USNCNCS","North Carolina Forest Service","NCNCS","North Carolina State Division of Forest Resouces","","NCST-031-FY2018-0010","","SHEEP PASTURE RD.","","","","","","2017","2017/08/22 00:00:00+00","234","1542","Human","Debris and open burning","","2017/08/22 00:00:00+00","234","1620","0.1","A","35.126392","-77.841959","MISSING/NOT SPECIFIED","NC","Duplin","37061","Duplin County"
"-70.018950787","41.70704042","2020090","400149582","SFO-2017MADCRMA0117080","NONFED","ST-NASF","ST/C&L","USMAMAS","Massachusetts Bureau of Forest Fire Control","MADCR","Massachusetts Department of Conservation and Recreation","","MA0117080","","","","","","","","2017","2017/09/17 00:00:00+00","260","1345","Human","Missing data/not specified/undetermined","","2017/09/17 00:00:00+00","260","1349","0.25","A","41.707049","-70.018951","MISSING/NOT SPECIFIED","MA","Barnstable","25001","Barnstable County"
"-121.623685443","46.64650436","2020091","400149583","SFO-2017WADNR495","NONFED","ST-NASF","ST/C&L","USWAWAS","Washington State Department of Natural Resources Headquarters","WADNR","Washington Department of Natural Resources","","495","","MP 135","","","","","","2017","2017/09/14 00:00:00+00","257","1255","Human","Missing data/not specified/undetermined","","2017/09/17 00:00:00+00","260","1400","0.1","A","46.64651","-121.6237","STATE","WA","41","53041","Lewis County"
"-116.808367284","48.416259484","2020092","400149584","SFO-2017IDDL1102017014","NONFED","ST-NASF","ST/C&L","USIDIDS","Idaho Department of Lands","IDDL","Idaho Department of Lands","","1102017014","","FUNKY BIRCH","","","","","","2017","2017/09/15 00:00:00+00","258","1000","Human","Missing data/not specified/undetermined","","2017/09/17 00:00:00+00","260","1404","0.1","A","48.41626575","-116.8083814","STATE","ID","Bonner","16017","Bonner County"
"-105.060189772","40.597093469","2020093","400149585","SFO-2017696016206","NONFED","ST-NASF","ST/C&L","USCOPFAX","Poudre Fire Authority","6960","Poudre Fire Authority","","16206","","UNKNOWN","","","","","","2017","2017/09/17 00:00:00+00","260","1413","Human","Missing data/not specified/undetermined","","2017/09/17 00:00:00+00","260","1413","0.01","A","40.5971","-105.0602","MISSING/NOT SPECIFIED","CO","LARIMER","08069","Larimer County"
"-121.35572883","38.748451895","2020094","400149586","SFO-2017CACDFNEU024475","NONFED","ST-NASF","ST/C&L","USCACDF","California Department of Forestry & Fire Protection","CACDF","Headquarters, California Department of Forestry & Fire Protection","","NEU024475","","CROWDER","","","","","","2017","2017/09/17 00:00:00+00","260","1406","Human","Missing data/not specified/undetermined","","2017/09/17 00:00:00+00","260","1415","0.1","A","38.748457","-121.355742","MISSING/NOT SPECIFIED","CA","PLACER","06061","Placer County"
"-120.60807111","37.365005961","2020095","400149587","SFO-2017CACDFMMU019146","NONFED","ST-NASF","ST/C&L","USCACDF","California Department of Forestry & Fire Protection","CACDF","Headquarters, California Department of Forestry & Fire Protection","","MMU019146","","PINOT NOIR PL  ATWATER_CI","","","","","","2017","2017/09/17 00:00:00+00","260","1456","Human","Missing data/not specified/undetermined","","2017/09/17 00:00:00+00","260","1506","0.1","A","37.365011","-120.608084","MISSING/NOT SPECIFIED","CA","MERCED","06047","Merced County"
"-120.340964207","36.859223989","2020096","400149588","SFO-2017CACDFMMU019142","NONFED","ST-NASF","ST/C&L","USCACDF","California Department of Forestry & Fire Protection","CACDF","Headquarters, California Department of Forestry & Fire Protection","","MMU019142","","SEVEN AND A HALF","","","","","","2017","2017/09/17 00:00:00+00","260","1446","Human","Missing data/not specified/undetermined","","2017/09/17 00:00:00+00","260","1508","0.8","B","36.859229","-120.340977","MISSING/NOT SPECIFIED","CA","MADERA","06039","Madera County"
"-122.814785391","46.018174521","2020097","400149589","SFO-2017WADNR500","NONFED","ST-NASF","ST/C&L","USWAWAS","Washington State Department of Natural Resources Headquarters","WADNR","Washington Department of Natural Resources","","500","","VIVIAN RD","","","","","","2017","2017/09/14 00:00:00+00","257","1730","Human","Missing data/not specified/undetermined","","2017/09/17 00:00:00+00","260","1600","0.1","A","46.01818","-122.8148","PRIVATE","WA","15","53015","Cowlitz County"
"-72.731312912","41.53464454","2020098","400149590","SFO-2017CT_CTS082-2017-0005","NONFED","ST-NASF","ST/C&L","USCTCTS","Connecticut Division of Forestry","CTCTS","Connecticut Division of Forestry","","082-2017-0005","","600 MERIDEN RD.","","","","","","2017","2017/09/17 00:00:00+00","260","1439","Human","Missing data/not specified/undetermined","","2017/09/17 00:00:00+00","260","1613","0.5","B","41.534653","-72.731314","PRIVATE","CT","Middlesex","09007","Middlesex County"
"-95.218826208","32.80799419","2020099","400149591","SFO-2017TXTXS5532","NONFED","ST-NASF","ST/C&L","USTXTXS","Texas A & M Forest Service","TXTXS","Texas Forest Service","","5532","","6152","","","","","","2017","2017/09/17 00:00:00+00","260","1424","Human","Missing data/not specified/undetermined","","2017/09/17 00:00:00+00","260","1630","5","B","32.808","-95.21883333","MISSING/NOT SPECIFIED","TX","Wood","48499","Wood County"
"-105.142289749","40.627193471","2020100","400149592","SFO-2017696016215","NONFED","ST-NASF","ST/C&L","USCOPFAX","Poudre Fire Authority","6960","Poudre Fire Authority","","16215","","UNKNOWN","","","","","","2017","2017/09/17 00:00:00+00","260","1747","Human","Missing data/not specified/undetermined","","2017/09/17 00:00:00+00","260","1747","0.01","A","40.6272","-105.1423","MISSING/NOT SPECIFIED","CO","LARIMER","08069","Larimer County"
"-105.081089872","39.726793589","2020101","400149594","SFO-2017590924810","NONFED","ST-NASF","ST/C&L","USCOWEMX","West Metro Fire Rescue","5909","West Metro Fire Rescue","","24810","","UNKNOWN","","","","","","2017","2017/09/17 00:00:00+00","260","2035","Human","Missing data/not specified/undetermined","","2017/09/17 00:00:00+00","260","2035","0.01","A","39.7268","-105.0811","MISSING/NOT SPECIFIED","CO","JEFFERSON","08059","Jefferson County"
"-104.752889872","40.363893479","2020102","400149595","SFO-2017123421792","NONFED","ST-NASF","ST/C&L","USCOWEX","Weld County","12342","Front Range Fire Rescue Authority","","1792","","UNKNOWN","","","","","","2017","2017/09/17 00:00:00+00","260","2348","Human","Missing data/not specified/undetermined","","2017/09/17 00:00:00+00","260","2348","0.01","A","40.3639","-104.7529","MISSING/NOT SPECIFIED","CO","WELD","08123","Weld County"
"-104.61629014","38.258593765","2020103","400149596","SFO-20171014517035","NONFED","ST-NASF","ST/C&L","USCOPUCX","Pueblo Fire Department","10145","Pueblo Fire Department","","17035","","UNKNOWN","","","","","","2017","2017/09/17 00:00:00+00","260","0748","Human","Missing data/not specified/undetermined","","2017/09/17 00:00:00+00","260","0748","0.01","A","38.2586","-104.6163","MISSING/NOT SPECIFIED","CO","PUEBLO","08101","Pueblo County"
"-105.195789881","39.419993639","2020104","400149597","SFO-20175978154","NONFED","ST-NASF","ST/C&L","USCONOFX","North Fork Fire Protection District","5978","North Fork Fire Protection District","","154","","UNKNOWN","","","","","","2017","2017/09/17 00:00:00+00","260","0956","Human","Missing data/not specified/undetermined","","2017/09/17 00:00:00+00","260","0956","0.01","A","39.42","-105.1958","MISSING/NOT SPECIFIED","CO","JEFFERSON","08059","Jefferson County"
"-111.579988415","40.099994014","2020105","400149598","SFO-2017UTFFSL8110","NONFED","ST-NASF","ST/C&L","USUTUTS","Utah Division Forestry Fire State Lands","UTFFSL","Utah Division of Forestry, Fire & State Lands","","8110","","MAPLETON ASSIST","","","","","","2017","2017/09/17 00:00:00+00","260","","Human","Missing data/not specified/undetermined","","2017/09/17 00:00:00+00","260","","8.4","B","40.1","-111.58","PRIVATE","UT","Utah","49049","Utah County"
"-120.637427647","40.932365659","2020106","400149599","SFO-2017CACDFLMU005696","NONFED","ST-NASF","ST/C&L","USCACDF","California Department of Forestry & Fire Protection","CACDF","Headquarters, California Department of Forestry & Fire Protection","","LMU005696","","COYOTE","","","","","","2017","2017/09/17 00:00:00+00","260","2321","Human","Missing data/not specified/undetermined","","2017/09/18 00:00:00+00","261","0009","0.61","B","40.932371","-120.637441","MISSING/NOT SPECIFIED","CA","LASSEN","06035","Lassen County"
"-121.072732836","39.050650848","2020107","400149600","SFO-2017CACDFNEU024509","NONFED","ST-NASF","ST/C&L","USCACDF","California Department of Forestry & Fire Protection","CACDF","Headquarters, California Department of Forestry & Fire Protection","","NEU024509","","BEAR","","","","","","2017","2017/09/17 00:00:00+00","260","2352","Human","Missing data/not specified/undetermined","","2017/09/18 00:00:00+00","261","0015","0.69","B","39.050656","-121.072746","MISSING/NOT SPECIFIED","CA","NEVADA","06057","Nevada County"
"-121.326369757","39.356416843","2020108","400149601","SFO-2017CACDFNEU024522","NONFED","ST-NASF","ST/C&L","USCACDF","California Department of Forestry & Fire Protection","CACDF","Headquarters, California Department of Forestry & Fire Protection","","NEU024522","","MARYSVILLE","","","","","","2017","2017/09/18 00:00:00+00","261","0735","Human","Missing data/not specified/undetermined","","2017/09/18 00:00:00+00","261","0759","0.01","A","39.356422","-121.326383","MISSING/NOT SPECIFIED","CA","YUBA","06115","Yuba County"
"-121.415149741","39.371358849","2020109","400149602","SFO-2017CACDFBTU014773","NONFED","ST-NASF","ST/C&L","USCACDF","California Department of Forestry & Fire Protection","CACDF","Headquarters, California Department of Forestry & Fire Protection","","BTU014773","","GRIMY","","","","","","2017","2017/09/18 00:00:00+00","261","0753","Human","Missing data/not specified/undetermined","","2017/09/18 00:00:00+00","261","0825","0.02","A","39.371364","-121.415163","MISSING/NOT SPECIFIED","CA","BUTTE","06007","Butte County"
"-120.354903271","36.216105051","2020110","400149603","SFO-2017CACDFFKU013825","NONFED","ST-NASF","ST/C&L","USCACDF","California Department of Forestry & Fire Protection","CACDF","Headquarters, California Department of Forestry & Fire Protection","","FKU013825","","SENECA","","","","","","2017","2017/09/18 00:00:00+00","261","0818","Human","Missing data/not specified/undetermined","","2017/09/18 00:00:00+00","261","0855","1","B","36.21611","-120.354916","MISSING/NOT SPECIFIED","CA","FRESNO","06019","Fresno County"
"-104.86278999","39.132993657","2020111","400149604","SFO-20173535649","NONFED","ST-NASF","ST/C&L","USCOLARX","Larkspur Fire Protection District","3535","Larkspur Fire Protection District","","649","","UNKNOWN","","","","","","2017","2017/09/18 00:00:00+00","261","1112","Human","Missing data/not specified/undetermined","","2017/09/18 00:00:00+00","261","1135","0.1","A","39.133","-104.8628","MISSING/NOT SPECIFIED","CO","DOUGLAS","08035","Douglas County"
"-104.618990143","38.22379377","2020112","400149605","SFO-20171014517095","NONFED","ST-NASF","ST/C&L","USCOPUCX","Pueblo Fire Department","10145","Pueblo Fire Department","","17095","","UNKNOWN","","","","","","2017","2017/09/18 00:00:00+00","261","1235","Human","Missing data/not specified/undetermined","","2017/09/18 00:00:00+00","261","1235","0.01","A","38.2238","-104.619","MISSING/NOT SPECIFIED","CO","PUEBLO","08101","Pueblo County"
"-121.87278521","47.48350434","2020113","400149607","SFO-2017WADNR555","NONFED","ST-NASF","ST/C&L","USWAWAS","Washington State Department of Natural Resources Headquarters","WADNR","Washington Department of Natural Resources","","555","","RAGING RIVER","","","","","","2017","2017/09/09 00:00:00+00","252","0742","Human","Missing data/not specified/undetermined","","2017/09/18 00:00:00+00","261","1328","0.01","A","47.48351","-121.8728","STATE","WA","33","53033","King County"
"-104.690890084","38.630193716","2020114","400149608","SFO-201741483673","NONFED","ST-NASF","ST/C&L","USCOFONX","Fountain Fire Department","4148","Fountain Fire Department #1","","3673","","UNKNOWN","","","","","","2017","2017/09/18 00:00:00+00","261","1412","Human","Missing data/not specified/undetermined","","2017/09/18 00:00:00+00","261","1435","0.25","A","38.6302","-104.6909","MISSING/NOT SPECIFIED","CO","EL PASO","08041","El Paso County"
"-121.733785213","47.56633432","2020115","400149609","SFO-2017WADNR563","NONFED","ST-NASF","ST/C&L","USWAWAS","Washington State Department of Natural Resources Headquarters","WADNR","Washington Department of Natural Resources","","563","","MCLEOD","","","","","","2017","2017/09/13 00:00:00+00","256","1630","Human","Missing data/not specified/undetermined","","2017/09/18 00:00:00+00","261","1438","0.01","A","47.56634","-121.7338","PRIVATE","WA","33","53033","King County"
"-123.235685071","47.153354505","2020116","400149610","SFO-2017WADNR510","NONFED","ST-NASF","ST/C&L","USWAWAS","Washington State Department of Natural Resources Headquarters","WADNR","Washington Department of Natural Resources","","510","","WEST CLOQUALLUM ROAD","","","","","","2017","2017/09/01 00:00:00+00","244","1937","Human","Missing data/not specified/undetermined","","2017/09/18 00:00:00+00","261","1606","0.01","A","47.15336","-123.2357","PRIVATE","WA","43","53043","Lincoln County"
"-105.517489695","40.369393533","2020117","400149611","SFO-20176925554","NONFED","ST-NASF","ST/C&L","USCOESPX","Estes Valley Fire Protection District","6925","Estes Park Volunteer Fire Department","","554","","UNKNOWN","","","","","","2017","2017/09/18 00:00:00+00","261","1631","Human","Missing data/not specified/undetermined","","2017/09/18 00:00:00+00","261","1631","0.01","A","40.3694","-105.5175","MISSING/NOT SPECIFIED","CO","LARIMER","08069","Larimer County"
"-72.582602974","41.316513577","2020118","400149612","SFO-2017CT_CTS070-2017-0003","NONFED","ST-NASF","ST/C&L","USCTCTS","Connecticut Division of Forestry","CTCTS","Connecticut Division of Forestry","","070-2017-0003","","216 RIVER RD.","","","","","","2017","2017/09/18 00:00:00+00","261","1658","Human","Missing data/not specified/undetermined","","2017/09/18 00:00:00+00","261","1727","0.1","A","41.316522","-72.582604","PRIVATE","CT","Middlesex","09007","Middlesex County"
"-104.814490041","38.770893705","2020119","400149613","SFO-201741181749604","NONFED","ST-NASF","ST/C&L","USCOCOLX","Colorado Springs Fire Department","4118","Colorado Springs Fire Department","","1749604","","UNKNOWN","","","","","","2017","2017/09/18 00:00:00+00","261","1739","Human","Missing data/not specified/undetermined","","2017/09/18 00:00:00+00","261","1739","0.01","A","38.7709","-104.8145","MISSING/NOT SPECIFIED","CO","EL PASO","08041","El Paso County"
"-120.015496229","37.14261894","2020120","400149614","SFO-2017CACDFMMU019222","NONFED","ST-NASF","ST/C&L","USCACDF","California Department of Forestry & Fire Protection","CACDF","Headquarters, California Department of Forestry & Fire Protection","","MMU019222","","EASTMAN","2017_7331913_EASTMAN","","","","","2017","2017/09/18 00:00:00+00","261","1604","Human","Missing data/not specified/undetermined","","2017/09/18 00:00:00+00","261","1841","483","E","37.142624","-120.015509","MISSING/NOT SPECIFIED","CA","MADERA","06039","Madera County"
"-105.242189978","38.434293781","2020121","400149615","SFO-201743058000892","NONFED","ST-NASF","ST/C&L","USCOCCIX","Canon City Area Fire Protection District","4305","Canon City Area Fire Protection District","","8000892","","UNKNOWN","","","","","","2017","2017/09/18 00:00:00+00","261","1836","Human","Missing data/not specified/undetermined","","2017/09/18 00:00:00+00","261","1855","0.01","A","38.4343","-105.2422","MISSING/NOT SPECIFIED","CO","FREMONT","08043","Fremont County"
"-122.538837714","38.222005028","2020122","400149616","SFO-2017CACDFLNU009251","NONFED","ST-NASF","ST/C&L","USCACDF","California Department of Forestry & Fire Protection","CACDF","Headquarters, California Department of Forestry & Fire Protection","","LNU009251","","GULCH","","","","","","2017","2017/09/18 00:00:00+00","261","1759","Human","Missing data/not specified/undetermined","","2017/09/18 00:00:00+00","261","1908","9","B","38.22201","-122.538851","STATE","CA","SONOMA","06097","Sonoma County"
"-80.375220839","36.282632878","2020123","400149617","SFO-2017NCNCSNCST-085-FY2018-0012","NONFED","ST-NASF","ST/C&L","USNCNCS","North Carolina Forest Service","NCNCS","North Carolina State Division of Forest Resouces","","NCST-085-FY2018-0012","","PROVENCE","","","","","","2017","2017/08/23 00:00:00+00","235","1119","Human","Debris and open burning","","2017/08/23 00:00:00+00","235","1127","0.02","A","36.28264","-80.375224","MISSING/NOT SPECIFIED","NC","Stokes","37169","Stokes County"
"-105.124189761","40.570793478","2020124","400149618","SFO-2017696016290","NONFED","ST-NASF","ST/C&L","USCOPFAX","Poudre Fire Authority","6960","Poudre Fire Authority","","16290","","UNKNOWN","","","","","","2017","2017/09/18 00:00:00+00","261","1920","Human","Missing data/not specified/undetermined","","2017/09/18 00:00:00+00","261","1920","0.01","A","40.5708","-105.1242","MISSING/NOT SPECIFIED","CO","LARIMER","08069","Larimer County"
"-122.194572511","40.185794847","2020125","400149619","SFO-2017CACDFTGU009045","NONFED","ST-NASF","ST/C&L","USCACDF","California Department of Forestry & Fire Protection","CACDF","Headquarters, California Department of Forestry & Fire Protection","","TGU009045","","ANTELOPE 2","","","","","","2017","2017/09/18 00:00:00+00","261","2013","Human","Missing data/not specified/undetermined","","2017/09/18 00:00:00+00","261","2030","1","B","40.1858","-122.194586","MISSING/NOT SPECIFIED","CA","TEHAMA","06103","Tehama County"
"-104.743390049","38.84009369","2020126","400149620","SFO-201741181749636","NONFED","ST-NASF","ST/C&L","USCOCOLX","Colorado Springs Fire Department","4118","Colorado Springs Fire Department","","1749636","","UNKNOWN","","","","","","2017","2017/09/18 00:00:00+00","261","2047","Human","Missing data/not specified/undetermined","","2017/09/18 00:00:00+00","261","2047","0.01","A","38.8401","-104.7434","MISSING/NOT SPECIFIED","CO","EL PASO","08041","El Paso County"
"-105.061989778","40.545593476","2020127","400149621","SFO-2017696016296","NONFED","ST-NASF","ST/C&L","USCOPFAX","Poudre Fire Authority","6960","Poudre Fire Authority","","16296","","UNKNOWN","","","","","","2017","2017/09/18 00:00:00+00","261","2054","Human","Missing data/not specified/undetermined","","2017/09/18 00:00:00+00","261","2054","0.01","A","40.5456","-105.062","MISSING/NOT SPECIFIED","CO","LARIMER","08069","Larimer County"
"-104.781690043","38.815493696","2020128","400149622","SFO-201741181749656","NONFED","ST-NASF","ST/C&L","USCOCOLX","Colorado Springs Fire Department","4118","Colorado Springs Fire Department","","1749656","","UNKNOWN","","","","","","2017","2017/09/18 00:00:00+00","261","2246","Human","Missing data/not specified/undetermined","","2017/09/18 00:00:00+00","261","2246","0.01","A","38.8155","-104.7817","MISSING/NOT SPECIFIED","CO","EL PASO","08041","El Paso County"
"-105.28728979","40.019893563","2020129","400149623","SFO-2017131510810","NONFED","ST-NASF","ST/C&L","USCOBLCX","Boulder Fire Rescue Department","1315","Boulder Fire-Rescue","","10810","","UNKNOWN","","","","","","2017","2017/09/18 00:00:00+00","261","2342","Human","Missing data/not specified/undetermined","","2017/09/18 00:00:00+00","261","2342","0.01","A","40.0199","-105.2873","MISSING/NOT SPECIFIED","CO","BOULDER","08013","Boulder County"
"-84.57119564","35.581376188","2020130","400149624","SFO-2017TNTNS17-C0142","NONFED","ST-NASF","ST/C&L","USTNTNS","Tennessee Division of Forestry","TNTNS","Tennessee Division of Forestry","","17-C0142","","COUNTY ROAD 275","","","","","","2017","2017/08/24 00:00:00+00","236","0000","Human","Debris and open burning","","2017/08/24 00:00:00+00","236","1630","0.3","B","35.581383","-84.5712","PRIVATE","TN","MCMINN","47107","McMinn County"
"-103.451690434","38.038093723","2020131","400149625","SFO-2017892019784","NONFED","ST-NASF","ST/C&L","USCOLAJX","La Junta Rural Fire Protection District","8920","La Junta Rural Fire Protection District","","19784","","UNKNOWN","","","","","","2017","2017/09/18 00:00:00+00","261","0716","Human","Missing data/not specified/undetermined","","2017/09/18 00:00:00+00","261","0716","0.01","A","38.0381","-103.4517","MISSING/NOT SPECIFIED","CO","OTERO","08089","Otero County"
"-112.349988216","40.429994035","2020132","400149628","SFO-2017UTFFSL8113","NONFED","ST-NASF","ST/C&L","USUTUTS","Utah Division Forestry Fire State Lands","UTFFSL","Utah Division of Forestry, Fire & State Lands","","8113","","COPPER","","","","","","2017","2017/09/17 00:00:00+00","260","","Human","Missing data/not specified/undetermined","","2017/09/18 00:00:00+00","261","","0.1","A","40.43","-112.35","PRIVATE","UT","Tooele","49045","Tooele County"
"-109.479988812","40.409993819","2020133","400149629","SFO-2017UTFFSL8154","NONFED","ST-NASF","ST/C&L","USUTUTS","Utah Division Forestry Fire State Lands","UTFFSL","Utah Division of Forestry, Fire & State Lands","","8154","","WELLS","","","","","","2017","2017/09/18 00:00:00+00","261","","Human","Missing data/not specified/undetermined","","2017/09/18 00:00:00+00","261","","0.1","A","40.41","-109.48","PRIVATE","UT","Uintah","49047","Uintah County"
"-109.62168745","48.169993009","2020134","400149630","SFO-2017MTRBA000061","NONFED","ST-NASF","BIA","USMTRBA","Rocky Boy's Agency","MTRBA","Rocky Boy's Agency","","000061","","EAST FORK","2017_7362311_EAST FORK","","MT4817010962220170827","EAST FORK","","2017","2017/08/27 00:00:00+00","239","1613","Human","Missing data/not specified/undetermined","","2017/09/19 00:00:00+00","262","","18915.04","G","48.17","-109.6217","MISSING/NOT SPECIFIED","MT","Hill","30041","Hill County"
"-80.102301909","36.502367822","2020135","400149631","SFO-2017NCNCSNCST-085-FY2018-0013","NONFED","ST-NASF","ST/C&L","USNCNCS","North Carolina Forest Service","NCNCS","North Carolina State Division of Forest Resouces","","NCST-085-FY2018-0013","","AMOS TOBACCO BALE","","","","","","2017","2017/08/25 00:00:00+00","237","1403","Human","Debris and open burning","","2017/08/25 00:00:00+00","237","1413","0.84","B","36.502375","-80.102305","MISSING/NOT SPECIFIED","NC","Stokes","37169","Stokes County"
"-119.624576326","36.830183943","2020136","400149632","SFO-2017CACDFFKU013873","NONFED","ST-NASF","ST/C&L","USCACDF","California Department of Forestry & Fire Protection","CACDF","Headquarters, California Department of Forestry & Fire Protection","","FKU013873","","SIERRA","","","","","","2017","2017/09/19 00:00:00+00","262","0913","Human","Missing data/not specified/undetermined","","2017/09/19 00:00:00+00","262","0952","0.25","A","36.830189","-119.624589","MISSING/NOT SPECIFIED","CA","FRESNO","06019","Fresno County"
"-116.112564226","33.484342092","2020137","400149633","SFO-2017CACDFRRU116003","NONFED","ST-NASF","ST/C&L","USCACDF","California Department of Forestry & Fire Protection","CACDF","Headquarters, California Department of Forestry & Fire Protection","","RRU116003","","PIERCE","","","","","","2017","2017/09/19 00:00:00+00","262","0905","Human","Missing data/not specified/undetermined","","2017/09/19 00:00:00+00","262","1035","1","B","33.484347","-116.112576","MISSING/NOT SPECIFIED","CA","RIVERSIDE","06065","Riverside County"
"-120.647385375","47.644374198","2020138","400149634","SFO-2017WADNR34","NONFED","ST-NASF","ST/C&L","USWAWAS","Washington State Department of Natural Resources Headquarters","WADNR","Washington Department of Natural Resources","","34","","SPROMBERG","","","","","","2017","2017/05/23 00:00:00+00","143","1300","Human","Missing data/not specified/undetermined","","2017/09/19 00:00:00+00","262","1100","32","C","47.64438","-120.6474","PRIVATE","WA","7","53007","Chelan County"
"-120.532585425","47.518604192","2020139","400149635","SFO-2017WADNR373","NONFED","ST-NASF","ST/C&L","USWAWAS","Washington State Department of Natural Resources Headquarters","WADNR","Washington Department of Natural Resources","","373","","SANDSTONE","","","","","","2017","2017/07/31 00:00:00+00","212","1155","Human","Missing data/not specified/undetermined","","2017/09/19 00:00:00+00","262","1100","0.1","A","47.51861","-120.5326","PRIVATE","WA","7","53007","Chelan County"
"-104.687389928","40.02699352","2020140","400149636","SFO-201712339679","NONFED","ST-NASF","ST/C&L","USCOHUDX","Hudson Fire Protection District","12339","Hudson Fire Protection District","","679","","UNKNOWN","","","","","","2017","2017/09/19 00:00:00+00","262","1112","Human","Missing data/not specified/undetermined","","2017/09/19 00:00:00+00","262","1125","1","B","40.027","-104.6874","MISSING/NOT SPECIFIED","CO","WELD","08123","Weld County"
"-85.51719538","35.350210274","2020141","400149637","SFO-2017TNTNS17-C0185","NONFED","ST-NASF","ST/C&L","USTNTNS","Tennessee Division of Forestry","TNTNS","Tennessee Division of Forestry","","17-C0185","","DAUS MTN RD #15","","","","","","2017","2017/08/26 00:00:00+00","238","","Human","Debris and open burning","","2017/08/26 00:00:00+00","238","","0.5","B","35.350217","-85.5172","PRIVATE","TN","SEQUATCHIE","47153","Sequatchie County"
"-79.676253125","34.88632715","2020142","400149638","SFO-2017NCNCSNCST-077-FY2018-0032","NONFED","ST-NASF","ST/C&L","USNCNCS","North Carolina Forest Service","NCNCS","North Carolina State Division of Forest Resouces","","NCST-077-FY2018-0032","","FIFTH STREET PILE","","","","","","2017","2017/08/26 00:00:00+00","238","1246","Human","Debris and open burning","","2017/08/26 00:00:00+00","238","1314","0.07","A","34.886334","-79.676256","MISSING/NOT SPECIFIED","NC","Richmond","37153","Richmond County"
"-104.827789898","40.000393534","2020143","400149639","SFO-201712339680","NONFED","ST-NASF","ST/C&L","USCOHUDX","Hudson Fire Protection District","12339","Hudson Fire Protection District","","680","","UNKNOWN","","","","","","2017","2017/09/19 00:00:00+00","262","1112","Human","Missing data/not specified/undetermined","","2017/09/19 00:00:00+00","262","1125","0.5","B","40.0004","-104.8278","MISSING/NOT SPECIFIED","CO","WELD","08123","Weld County"
"-106.998189446","39.648793734","2020144","400149640","SFO-201737301700486","NONFED","ST-NASF","ST/C&L","USCOGYPX","Gypsum Fire Protection District","3730","Gypsum Fire Protection District","","1700486","","UNKNOWN","","","","","","2017","2017/09/19 00:00:00+00","262","1157","Human","Missing data/not specified/undetermined","","2017/09/19 00:00:00+00","262","1157","0.01","A","39.6488","-106.9982","MISSING/NOT SPECIFIED","CO","EAGLE","08037","Eagle County"
"-104.588490146","38.266493762","2020145","400149641","SFO-20171014517140","NONFED","ST-NASF","ST/C&L","USCOPUCX","Pueblo Fire Department","10145","Pueblo Fire Department","","17140","","UNKNOWN","","","","","","2017","2017/09/19 00:00:00+00","262","1210","Human","Missing data/not specified/undetermined","","2017/09/19 00:00:00+00","262","1210","0.01","A","38.2665","-104.5885","MISSING/NOT SPECIFIED","CO","PUEBLO","08101","Pueblo County"
"-104.905489889","39.928593549","2020146","400149642","SFO-20171757527","NONFED","ST-NASF","ST/C&L","USCOTHOX","Thornton Fire Department","175","Thornton Fire Department","","7527","","UNKNOWN","","","","","","2017","2017/09/19 00:00:00+00","262","1309","Human","Missing data/not specified/undetermined","","2017/09/19 00:00:00+00","262","1315","0.01","A","39.9286","-104.9055","MISSING/NOT SPECIFIED","CO","ADAM","08001","Adams County"
"-121.904985207","47.475184344","2020147","400149643","SFO-2017WADNR281","NONFED","ST-NASF","ST/C&L","USWAWAS","Washington State Department of Natural Resources Headquarters","WADNR","Washington Department of Natural Resources","","281","","EAST SIDE","","","","","","2017","2017/07/23 00:00:00+00","204","1700","Human","Missing data/not specified/undetermined","","2017/09/19 00:00:00+00","262","1413","0.1","A","47.47519","-121.905","STATE","WA","33","53033","King County"
"-123.090185136","46.970644499","2020148","400149644","SFO-2017WADNR353","NONFED","ST-NASF","ST/C&L","USWAWAS","Washington State Department of Natural Resources Headquarters","WADNR","Washington Department of Natural Resources","","353","","SILVER 85","","","","","","2017","2017/08/09 00:00:00+00","221","1655","Human","Missing data/not specified/undetermined","","2017/09/19 00:00:00+00","262","1500","0.01","A","46.97065","-123.0902","STATE","WA","67","53067","Thurston County"
"-88.108994761","33.354993791","2020149","400149645","SFO-2017ALAFC12034","NONFED","ST-NASF","ST/C&L","USALALS","Alabama Forestry Commission","ALAFC","Alabama Forestry Commission","","12034","","20170919-3","","","","","","2017","2017/09/19 00:00:00+00","262","1400","Human","Missing data/not specified/undetermined","","2017/09/19 00:00:00+00","262","1508","0.3","B","33.355","-88.109","MISSING/NOT SPECIFIED","AL","Pickens","01107","Pickens County"
"-105.92288964","40.056693603","2020150","400149646","SFO-20174915919001","NONFED","ST-NASF","ST/C&L","USCOGNDX","Grand Fire Protection District #1","4915","Grand Fire Protection District # 1","","919001","","UNKNOWN","","","","","","2017","2017/09/19 00:00:00+00","262","1545","Human","Missing data/not specified/undetermined","","2017/09/19 00:00:00+00","262","1605","0.01","A","40.0567","-105.9229","MISSING/NOT SPECIFIED","CO","GRAND","08049","Grand County"
"-81.628396786","29.485294438","2020151","400149647","SFO-2017FLFLS2017080469","NONFED","ST-NASF","ST/C&L","USFLFLS","Florida Forest Service","FLFLS","Florida Forest Service","","2017080469","","LONGTREE ST.54)","","","","","","2017","2017/09/19 00:00:00+00","262","1607","Human","Missing data/not specified/undetermined","","2017/09/19 00:00:00+00","262","1700","0.3","B","29.4853","-81.6284","PRIVATE","FL","Putnam","12107","Putnam County"
"-104.805890037","38.822493697","2020152","400149648","SFO-201741181749809","NONFED","ST-NASF","ST/C&L","USCOCOLX","Colorado Springs Fire Department","4118","Colorado Springs Fire Department","","1749809","","UNKNOWN","","","","","","2017","2017/09/19 00:00:00+00","262","1708","Human","Missing data/not specified/undetermined","","2017/09/19 00:00:00+00","262","1708","0.01","A","38.8225","-104.8059","MISSING/NOT SPECIFIED","CO","EL PASO","08041","El Paso County"
"-104.692989984","39.530593589","2020153","400149650","SFO-201752014527","NONFED","ST-NASF","ST/C&L","USCOSOMX","South Metro Fire Rescue","520","South Metro Fire Rescue","","14527","","UNKNOWN","","","","","","2017","2017/09/19 00:00:00+00","262","1733","Human","Missing data/not specified/undetermined","","2017/09/19 00:00:00+00","262","1733","0.01","A","39.5306","-104.693","MISSING/NOT SPECIFIED","CO","ARAPAHOE","08005","Arapahoe County"
"-82.53699654","28.982794582","2020154","400149651","SFO-2017FLFLS2017110487","NONFED","ST-NASF","ST/C&L","USFLFLS","Florida Forest Service","FLFLS","Florida Forest Service","","2017110487","","STOCKHOLM (09)","","","","","","2017","2017/09/19 00:00:00+00","262","1530","Human","Missing data/not specified/undetermined","","2017/09/19 00:00:00+00","262","1736","0.5","B","28.9828","-82.537","PRIVATE","FL","Citrus","12017","Citrus County"
"-77.484587703","36.518480723","2020155","400149652","SFO-2017NCNCSNCST-066-FY2018-0008","NONFED","ST-NASF","ST/C&L","USNCNCS","North Carolina Forest Service","NCNCS","North Carolina State Division of Forest Resouces","","NCST-066-FY2018-0008","","BEAN","","","","","","2017","2017/08/26 00:00:00+00","238","1510","Human","Debris and open burning","","2017/08/26 00:00:00+00","238","1550","0.22","A","36.518488","-77.48459","MISSING/NOT SPECIFIED","NC","Northampton","37131","Northampton County"
"-104.525990273","37.137493924","2020156","400149653","SFO-201771252017088","NONFED","ST-NASF","ST/C&L","USCOFISX","Fishers Peak Fire Protection District","7125","Fisher's Peak Fire Protection District","","2017088","","UNKNOWN","","","","","","2017","2017/09/19 00:00:00+00","262","1736","Human","Missing data/not specified/undetermined","","2017/09/19 00:00:00+00","262","1736","0.01","A","37.1375","-104.526","PRIVATE","CO","LAS ANIMAS","08071","Las Animas County"
"-80.105084021","34.414628268","2020157","400149654","SFO-2017SCSCS18FF0049","NONFED","ST-NASF","ST/C&L","USSCSCS","South Carolina Forestry Commission","SCSCS","South Carolina Forestry Commission","","18FF0049","","","","","","","","2017","2017/09/19 00:00:00+00","262","1525","Human","Missing data/not specified/undetermined","","2017/09/19 00:00:00+00","262","1746","18","C","34.414635","-80.105087","PRIVATE","SC","Darlington County","45031","Darlington County"
"-106.057189674","39.510093686","2020158","400149655","SFO-2017117502122","NONFED","ST-NASF","ST/C&L","USCORWBX","Red White & Blue Fire Protection District","11750","Red, White & Blue Fire Protection District","","2122","","UNKNOWN","","","","","","2017","2017/09/19 00:00:00+00","262","1757","Human","Missing data/not specified/undetermined","","2017/09/19 00:00:00+00","262","1757","0.01","A","39.5101","-106.0572","MISSING/NOT SPECIFIED","CO","SUMMIT","08117","Summit County"
"-120.504121066","37.896772906","2020159","400149656","SFO-2017CACDFTCU011308","NONFED","ST-NASF","ST/C&L","USCACDF","California Department of Forestry & Fire Protection","CACDF","Headquarters, California Department of Forestry & Fire Protection","","TCU011308","","TABLE","","","","","","2017","2017/09/19 00:00:00+00","262","0022","Human","Missing data/not specified/undetermined","","2017/09/19 00:00:00+00","262","1800","35","C","37.896778","-120.504134","UNDEFINED FEDERAL","CA","TUOLUMNE","06109","Tuolumne County"
"-104.604390143","38.258093764","2020160","400149657","SFO-20171014517127","NONFED","ST-NASF","ST/C&L","USCOPUCX","Pueblo Fire Department","10145","Pueblo Fire Department","","17127","","UNKNOWN","","","","","","2017","2017/09/19 00:00:00+00","262","0102","Human","Missing data/not specified/undetermined","","2017/09/19 00:00:00+00","262","0220","0.1","A","38.2581","-104.6044","MISSING/NOT SPECIFIED","CO","PUEBLO","08101","Pueblo County"
"-104.83809003","38.822793699","2020161","400149658","SFO-201741181749719","NONFED","ST-NASF","ST/C&L","USCOCOLX","Colorado Springs Fire Department","4118","Colorado Springs Fire Department","","1749719","","UNKNOWN","","","","","","2017","2017/09/19 00:00:00+00","262","0957","Human","Missing data/not specified/undetermined","","2017/09/19 00:00:00+00","262","0957","0.01","A","38.8228","-104.8381","PRIVATE","CO","EL PASO","08041","El Paso County"
"-112.279988041","41.789993882","2020162","400149659","SFO-2017UTFFSL7864","NONFED","ST-NASF","ST/C&L","USUTUTS","Utah Division Forestry Fire State Lands","UTFFSL","Utah Division of Forestry, Fire & State Lands","","7864","","WHITE VALLEY","","","","","","2017","2017/09/03 00:00:00+00","246","","Human","Missing data/not specified/undetermined","","2017/09/19 00:00:00+00","262","","0.25","A","41.79","-112.28","PRIVATE","UT","Box Elder","49003","Box Elder County"
"-112.339988218","40.429994035","2020163","400149661","SFO-2017UTFFSL8112","NONFED","ST-NASF","ST/C&L","USUTUTS","Utah Division Forestry Fire State Lands","UTFFSL","Utah Division of Forestry, Fire & State Lands","","8112","","SOLDIER","","","","","","2017","2017/09/17 00:00:00+00","260","","Human","Missing data/not specified/undetermined","","2017/09/19 00:00:00+00","262","","0.1","A","40.43","-112.34","PRIVATE","UT","Tooele","49045","Tooele County"
"-120.944596988","37.973772931","2020164","400149662","SFO-2017CACDFTCU011344","NONFED","ST-NASF","ST/C&L","USCACDF","California Department of Forestry & Fire Protection","CACDF","Headquarters, California Department of Forestry & Fire Protection","","TCU011344","","WAVERLY","","","","","","2017","2017/09/20 00:00:00+00","263","0025","Human","Missing data/not specified/undetermined","","2017/09/20 00:00:00+00","263","0047","0.2","A","37.973778","-120.94461","MISSING/NOT SPECIFIED","CA","SAN JOAQUIN","06077","San Joaquin County"
"-120.315285275","36.246245045","2020165","400149663","SFO-2017CACDFFKU013900","NONFED","ST-NASF","ST/C&L","USCACDF","California Department of Forestry & Fire Protection","CACDF","Headquarters, California Department of Forestry & Fire Protection","","FKU013900","","MURPHY","","","","","","2017","2017/09/19 00:00:00+00","262","1940","Human","Missing data/not specified/undetermined","","2017/09/20 00:00:00+00","263","0130","237","D","36.24625","-120.315298","MISSING/NOT SPECIFIED","CA","FRESNO","06019","Fresno County"
"-120.601419652","40.936911656","2020166","400149664","SFO-2017CACDFLMU005737","NONFED","ST-NASF","ST/C&L","USCACDF","California Department of Forestry & Fire Protection","CACDF","Headquarters, California Department of Forestry & Fire Protection","","LMU005737","","WESTSIDE","","","","","","2017","2017/09/20 00:00:00+00","263","0020","Human","Missing data/not specified/undetermined","","2017/09/20 00:00:00+00","263","0132","1.12","B","40.936917","-120.601433","MISSING/NOT SPECIFIED","CA","LASSEN","06035","Lassen County"
"-122.322286858","37.259685092","2020167","400149665","SFO-2017CACDFCZU007074","NONFED","ST-NASF","ST/C&L","USCACDF","California Department of Forestry & Fire Protection","CACDF","Headquarters, California Department of Forestry & Fire Protection","","CZU007074","","DEAR","","","","","","2017","2017/09/20 00:00:00+00","263","0205","Human","Missing data/not specified/undetermined","","2017/09/20 00:00:00+00","263","0226","0.01","A","37.25969","-122.3223","MISSING/NOT SPECIFIED","CA","SAN MATEO","06081","San Mateo County"
"-79.97853502","35.165313101","2020168","400149666","SFO-2017NCNCSNCST-062-FY2018-0010","NONFED","ST-NASF","ST/C&L","USNCNCS","North Carolina Forest Service","NCNCS","North Carolina State Division of Forest Resouces","","NCST-062-FY2018-0010","","NELSON STORE ROAD","","","","","","2017","2017/08/26 00:00:00+00","238","1645","Human","Debris and open burning","","2017/08/26 00:00:00+00","238","1730","0.46","B","35.16532","-79.978538","MISSING/NOT SPECIFIED","NC","Montgomery","37123","Montgomery County"
"-120.918812107","36.944518021","2020169","400149667","SFO-2017CACDFMMU019347","NONFED","ST-NASF","ST/C&L","USCACDF","California Department of Forestry & Fire Protection","CACDF","Headquarters, California Department of Forestry & Fire Protection","","MMU019347","","POWER","","","","","","2017","2017/09/20 00:00:00+00","263","0907","Human","Missing data/not specified/undetermined","","2017/09/20 00:00:00+00","263","1059","48","C","36.944523","-120.918825","MISSING/NOT SPECIFIED","CA","MERCED","06047","Merced County"
"-123.907884929","47.318944571","2020170","400149668","SFO-2017WADNR118","NONFED","ST-NASF","ST/C&L","USWAWAS","Washington State Department of Natural Resources Headquarters","WADNR","Washington Department of Natural Resources","","118","","MILEMARKER 116","","","","","","2017","2017/09/03 00:00:00+00","246","1540","Human","Missing data/not specified/undetermined","","2017/09/20 00:00:00+00","263","1136","0.86","B","47.31895","-123.9079","PRIVATE","WA","27","53027","Grays Harbor County"
"-120.832085547","46.766374269","2020171","400149669","SFO-2017WADNR491","NONFED","ST-NASF","ST/C&L","USWAWAS","Washington State Department of Natural Resources Headquarters","WADNR","Washington Department of Natural Resources","","491","","HORSESHOE BEND","","","","","","2017","2017/08/29 00:00:00+00","241","1625","Human","Missing data/not specified/undetermined","","2017/09/20 00:00:00+00","263","1211","120","D","46.76638","-120.8321","STATE","WA","77","53077","Yakima County"
"-119.981086956","39.472644727","2020172","400149670","SFO-2017NVTMFX2017-NVTMFX-030756","NONFED","ST-NASF","ST/C&L","USNVTMFX","Truckee Meadows Fire Protection District","NVTMFX","Local Fire Department","","2017-NVTMFX-030756","","CONE","","","","","","2017","2017/09/18 00:00:00+00","261","1103","Human","Missing data/not specified/undetermined","","2017/09/20 00:00:00+00","263","1315","3.2","B","39.47265","-119.9811","COUNTY","NV","Washoe","32031","Washoe County"
"-119.64798632","36.844644943","2020173","400149672","SFO-2017CACDFFKU013928","NONFED","ST-NASF","ST/C&L","USCACDF","California Department of Forestry & Fire Protection","CACDF","Headquarters, California Department of Forestry & Fire Protection","","FKU013928","","ALLUVIAL","","","","","","2017","2017/09/20 00:00:00+00","263","1130","Human","Missing data/not specified/undetermined","","2017/09/20 00:00:00+00","263","1403","5","B","36.84465","-119.647999","MISSING/NOT SPECIFIED","CA","FRESNO","06019","Fresno County"
"-74.56639822","43.008091328","2020174","400149673","SFO-2017NY1804NY1804-2017-74","NONFED","ST-NASF","ST/C&L","USNYNYX","Fire Department of New York","NY1804","Fire Department of New York","","NY1804-2017-74","","N/A","","","","","","2017","2017/08/27 00:00:00+00","239","1420","Human","Debris and open burning","","2017/08/27 00:00:00+00","239","1556","0.1","A","43.0081","-74.5664","MISSING/NOT SPECIFIED","NY","Fulton","36035","Fulton County"
"-120.885985574","46.603344285","2020175","400149674","SFO-2017WADNR505","NONFED","ST-NASF","ST/C&L","USWAWAS","Washington State Department of Natural Resources Headquarters","WADNR","Washington Department of Natural Resources","","505","","CABIN","","","","","","2017","2017/08/31 00:00:00+00","243","1059","Human","Missing data/not specified/undetermined","","2017/09/20 00:00:00+00","263","1510","2.1","B","46.60335","-120.886","PRIVATE","WA","77","53077","Yakima County"
"-117.250785969","47.70270383","2020176","400149675","SFO-2017WADNR749","NONFED","ST-NASF","ST/C&L","USWAWAS","Washington State Department of Natural Resources Headquarters","WADNR","Washington Department of Natural Resources","","749","","FRUIT HILL","","","","","","2017","2017/08/31 00:00:00+00","243","0400","Human","Missing data/not specified/undetermined","","2017/09/20 00:00:00+00","263","1543","0.5","B","47.70271","-117.2508","PRIVATE","WA","63","53063","Spokane County"
"-104.690390075","38.717593704","2020177","400149676","SFO-201741483712","NONFED","ST-NASF","ST/C&L","USCOFONX","Fountain Fire Department","4148","Fountain Fire Department #1","","3712","","UNKNOWN","","","","","","2017","2017/09/20 00:00:00+00","263","1653","Human","Missing data/not specified/undetermined","","2017/09/20 00:00:00+00","263","1653","0.01","A","38.7176","-104.6904","MISSING/NOT SPECIFIED","CO","EL PASO","08041","El Paso County"
"-97.245704676","46.651850772","2020178","400149678","SFO-201792042018-10","NONFED","ST-NASF","ST/C&L","USNDNDS","North Dakota State Forest Service","9204","Local Fire Department","","2018-10","","RAILROAD AVE SOUTH","","","","","","2017","2017/09/20 00:00:00+00","263","1810","Human","Missing data/not specified/undetermined","","2017/09/20 00:00:00+00","263","1830","1","B","46.6518587","-97.2457138","MISSING/NOT SPECIFIED","ND","Cass","38017","Cass County"
"-77.205264811","36.093659804","2020179","400149679","SFO-2017NCNCSNCST-008-FY2018-0007","NONFED","ST-NASF","ST/C&L","USNCNCS","North Carolina Forest Service","NCNCS","North Carolina State Division of Forest Resouces","","NCST-008-FY2018-0007","","WEEPING MARY","","","","","","2017","2017/08/27 00:00:00+00","239","1640","Human","Debris and open burning","","2017/08/27 00:00:00+00","239","1714","0.5","B","36.093667","-77.205267","MISSING/NOT SPECIFIED","NC","Bertie","37015","Bertie County"
"-78.462638494","34.810665125","2020180","400149680","SFO-2017NCNCSNCST-009-FY2018-0011","NONFED","ST-NASF","ST/C&L","USNCNCS","North Carolina Forest Service","NCNCS","North Carolina State Division of Forest Resouces","","NCST-009-FY2018-0011","","865 GREEN BRIDGE RD","","","","","","2017","2017/08/27 00:00:00+00","239","1550","Human","Debris and open burning","","2017/08/27 00:00:00+00","239","1805","0.13","A","34.810672","-78.462641","MISSING/NOT SPECIFIED","NC","Bladen","37017","Bladen County"
"-107.712589559","37.163294118","2020181","400149681","SFO-20176735752","NONFED","ST-NASF","ST/C&L","USCOLPFX","Los Pinos Fire Protection District","6735","Los Pinos Fire Protection District","","752","","UNKNOWN","","","","","","2017","2017/09/20 00:00:00+00","263","1833","Human","Missing data/not specified/undetermined","","2017/09/20 00:00:00+00","263","1833","0.01","A","37.1633","-107.7126","MISSING/NOT SPECIFIED","CO","LA PLATA","08067","La Plata County"
"-104.611490137","38.301193759","2020182","400149685","SFO-20171014517182","NONFED","ST-NASF","ST/C&L","USCOPUCX","Pueblo Fire Department","10145","Pueblo Fire Department","","17182","","UNKNOWN","","","","","","2017","2017/09/20 00:00:00+00","263","0002","Human","Missing data/not specified/undetermined","","2017/09/20 00:00:00+00","263","0002","0.01","A","38.3012","-104.6115","MISSING/NOT SPECIFIED","CO","PUEBLO","08101","Pueblo County"
"-105.953889629","40.090693601","2020183","400149686","SFO-20174915920002","NONFED","ST-NASF","ST/C&L","USCOGNDX","Grand Fire Protection District #1","4915","Grand Fire Protection District # 1","","920002","","UNKNOWN","","","","","","2017","2017/09/20 00:00:00+00","263","2012","Human","Missing data/not specified/undetermined","","2017/09/20 00:00:00+00","263","2036","0.01","A","40.0907","-105.9539","MISSING/NOT SPECIFIED","CO","GRAND","08049","Grand County"
"-76.066697713","43.280791337","2020184","400149687","SFO-2017NY3659NY3659-2017-82705","NONFED","ST-NASF","ST/C&L","USNYNYX","Fire Department of New York","NY3659","Fire Department of New York","","NY3659-2017-82705","","N/A","","","","","","2017","2017/08/27 00:00:00+00","239","2257","Human","Debris and open burning","","2017/08/27 00:00:00+00","239","2319","0.2","A","43.2808","-76.0667","MISSING/NOT SPECIFIED","NY","Oswego","36075","Oswego County"
"-104.604590141","38.277593762","2020185","400149689","SFO-20171014517184","NONFED","ST-NASF","ST/C&L","USCOPUCX","Pueblo Fire Department","10145","Pueblo Fire Department","","17184","","UNKNOWN","","","","","","2017","2017/09/20 00:00:00+00","263","0137","Human","Missing data/not specified/undetermined","","2017/09/20 00:00:00+00","263","0225","0.1","A","38.2776","-104.6046","MISSING/NOT SPECIFIED","CO","PUEBLO","08101","Pueblo County"
"-105.929989744","39.150693727","2020186","400149690","SFO-20179305402","NONFED","ST-NASF","ST/C&L","USCONWEX","Northwest Fire Protection District","9305","Northwest Fire Protection District","","402","","UNKNOWN","","","","","","2017","2017/09/20 00:00:00+00","263","0452","Human","Missing data/not specified/undetermined","","2017/09/20 00:00:00+00","263","0530","0.25","A","39.1507","-105.93","MISSING/NOT SPECIFIED","CO","PARK","08093","Park County"
"-120.979972934","38.376270899","2020187","400149691","SFO-2017CACDFAEU027948","NONFED","ST-NASF","ST/C&L","USCACDF","California Department of Forestry & Fire Protection","CACDF","Headquarters, California Department of Forestry & Fire Protection","","AEU027948","","104","","","","","","2017","2017/09/21 00:00:00+00","264","0653","Human","Missing data/not specified/undetermined","","2017/09/21 00:00:00+00","264","0812","1","B","38.376276","-120.979986","MISSING/NOT SPECIFIED","CA","AMADOR","06005","Amador County"
"-104.817390025","38.903993686","2020188","400149692","SFO-201741181750115","NONFED","ST-NASF","ST/C&L","USCOCOLX","Colorado Springs Fire Department","4118","Colorado Springs Fire Department","","1750115","","UNKNOWN","","","","","","2017","2017/09/21 00:00:00+00","264","1048","Human","Missing data/not specified/undetermined","","2017/09/21 00:00:00+00","264","1048","0.01","A","38.904","-104.8174","MISSING/NOT SPECIFIED","CO","EL PASO","08041","El Paso County"
"-74.558698074","44.998590971","2020189","400149693","SFO-2017NY1708NY1708-2017-57","NONFED","ST-NASF","ST/C&L","USNYNYX","Fire Department of New York","NY1708","Fire Department of New York","","NY1708-2017-57","","N/A","","","","","","2017","2017/08/27 00:00:00+00","239","0418","Human","Debris and open burning","","2017/08/27 00:00:00+00","239","0518","0.2","A","44.9986","-74.5587","MISSING/NOT SPECIFIED","NY","Franklin","36033","Franklin County"
"-122.766985044","47.577454433","2020190","400149694","SFO-2017WADNR442","NONFED","ST-NASF","ST/C&L","USWAWAS","Washington State Department of Natural Resources Headquarters","WADNR","Washington Department of Natural Resources","","442","","EAST GREEN","","","","","","2017","2017/08/25 00:00:00+00","237","0743","Human","Missing data/not specified/undetermined","","2017/09/21 00:00:00+00","264","1500","1","B","47.57746","-122.767","PRIVATE","WA","43","53043","Lincoln County"
"-86.761495266","30.774594297","2020191","400149695","SFO-2017FLFLS2017010522","NONFED","ST-NASF","ST/C&L","USFLFLS","Florida Forest Service","FLFLS","Florida Forest Service","","2017010522","","MEGAN LN (46)","","","","","","2017","2017/09/21 00:00:00+00","264","1420","Human","Missing data/not specified/undetermined","","2017/09/21 00:00:00+00","264","1521","1","B","30.7746","-86.7615","PRIVATE","FL","Okaloosa","12091","Okaloosa County"
"-120.954053089","37.056761013","2020192","400149696","SFO-2017CACDFMMU019454","NONFED","ST-NASF","ST/C&L","USCACDF","California Department of Forestry & Fire Protection","CACDF","Headquarters, California Department of Forestry & Fire Protection","","MMU019454","","CANAL","","","","","","2017","2017/09/21 00:00:00+00","264","1523","Human","Missing data/not specified/undetermined","","2017/09/21 00:00:00+00","264","1539","1.06","B","37.056766","-120.954066","MISSING/NOT SPECIFIED","CA","MERCED","06047","Merced County"
"-104.918389922","39.617593593","2020193","400149697","SFO-201752014635","NONFED","ST-NASF","ST/C&L","USCOSOMX","South Metro Fire Rescue","520","South Metro Fire Rescue","","14635","","UNKNOWN","","","","","","2017","2017/09/21 00:00:00+00","264","1618","Human","Missing data/not specified/undetermined","","2017/09/21 00:00:00+00","264","1625","0.3","B","39.6176","-104.9184","MISSING/NOT SPECIFIED","CO","ARAPAHOE","08005","Arapahoe County"
"-116.163798205","33.635709077","2020194","400149698","SFO-2017CACDFRRU116969","NONFED","ST-NASF","ST/C&L","USCACDF","California Department of Forestry & Fire Protection","CACDF","Headquarters, California Department of Forestry & Fire Protection","","RRU116969","","AIRPORT","","","","","","2017","2017/09/21 00:00:00+00","264","1451","Human","Missing data/not specified/undetermined","","2017/09/21 00:00:00+00","264","1629","8","B","33.635714","-116.16381","MISSING/NOT SPECIFIED","CA","RIVERSIDE","06065","Riverside County"
"-116.545010112","33.961430059","2020195","400149699","SFO-2017CACDFRRU116995","NONFED","ST-NASF","ST/C&L","USCACDF","California Department of Forestry & Fire Protection","CACDF","Headquarters, California Department of Forestry & Fire Protection","","RRU116995","","N INDIAN CANYON DR / PIER","","","","","","2017","2017/09/21 00:00:00+00","264","1556","Human","Missing data/not specified/undetermined","","2017/09/21 00:00:00+00","264","1629","3","B","33.961435","-116.545022","MISSING/NOT SPECIFIED","CA","RIVERSIDE","06065","Riverside County"
"-73.801598491","42.690191358","2020196","400149700","SFO-2017NY0130NY0130-2017-540","NONFED","ST-NASF","ST/C&L","USNYNYX","Fire Department of New York","NY0130","Fire Department of New York","","NY0130-2017-540","","N/A","","","","","","2017","2017/08/28 00:00:00+00","240","1544","Human","Debris and open burning","","2017/08/28 00:00:00+00","240","1555","0.1","A","42.6902","-73.8016","MISSING/NOT SPECIFIED","NY","Albany","36001","Albany County"
"-104.820089933","39.717893572","2020197","400149701","SFO-201750541258","NONFED","ST-NASF","ST/C&L","USCOAURX","Aurora Fire Department","505","Aurora Fire Department","","41258","","UNKNOWN","","","","","","2017","2017/09/21 00:00:00+00","264","1746","Human","Missing data/not specified/undetermined","","2017/09/21 00:00:00+00","264","1746","0.01","A","39.7179","-104.8201","MISSING/NOT SPECIFIED","CO","ARAPAHOE","08005","Arapahoe County"
"-105.258189797","40.018193562","2020198","400149702","SFO-2017131510927","NONFED","ST-NASF","ST/C&L","USCOBLCX","Boulder Fire Rescue Department","1315","Boulder Fire-Rescue","","10927","","UNKNOWN","","","","","","2017","2017/09/21 00:00:00+00","264","1759","Human","Missing data/not specified/undetermined","","2017/09/21 00:00:00+00","264","1759","0.01","A","40.0182","-105.2582","MISSING/NOT SPECIFIED","CO","BOULDER","08013","Boulder County"
"-103.940690168","39.458593548","2020199","400149703","SFO-201739052017090","NONFED","ST-NASF","ST/C&L","USCOAGAX","Agate Volunteer Fire Department","3905","Agate Volunteer Fire Department","","2017090","","UNKNOWN","","","","","","2017","2017/09/21 00:00:00+00","264","1836","Human","Missing data/not specified/undetermined","","2017/09/21 00:00:00+00","264","1836","0.01","A","39.4586","-103.9407","MISSING/NOT SPECIFIED","CO","ELBERT","08039","Elbert County"
"-104.797590038","38.832993695","2020200","400149704","SFO-201741181750245","NONFED","ST-NASF","ST/C&L","USCOCOLX","Colorado Springs Fire Department","4118","Colorado Springs Fire Department","","1750245","","UNKNOWN","","","","","","2017","2017/09/21 00:00:00+00","264","1942","Human","Missing data/not specified/undetermined","","2017/09/21 00:00:00+00","264","1942","0.01","A","38.833","-104.7976","MISSING/NOT SPECIFIED","CO","EL PASO","08041","El Paso County"
"-72.225699108","40.993691628","2020201","400149705","SFO-2017NY5229NY5229-2017-593","NONFED","ST-NASF","ST/C&L","USNYNYX","Fire Department of New York","NY5229","Fire Department of New York","","NY5229-2017-593","","N/A","","","","","","2017","2017/08/29 00:00:00+00","241","1250","Human","Debris and open burning","","2017/08/29 00:00:00+00","241","1259","0.1","A","40.9937","-72.2257","MUNICIPAL/LOCAL","NY","Suffolk","36103","Suffolk County"
"-79.49408618","34.891035143","2020202","400149706","SFO-2017NCNCSNCST-083-FY2018-0012","NONFED","ST-NASF","ST/C&L","USNCNCS","North Carolina Forest Service","NCNCS","North Carolina State Division of Forest Resouces","","NCST-083-FY2018-0012","","CAMP MONROE","","","","","","2017","2017/08/29 00:00:00+00","241","1305","Human","Debris and open burning","","2017/08/29 00:00:00+00","241","1405","1.85","B","34.891042","-79.494089","MISSING/NOT SPECIFIED","NC","Scotland","37165","Scotland County"
"-108.587689166","39.067393922","2020203","400149707","SFO-20177735211462","NONFED","ST-NASF","ST/C&L","USCOGRJX","Grand Junction Fire Department","7735","Grand Junction Fire Department","","211462","","UNKNOWN","","","","","","2017","2017/09/21 00:00:00+00","264","1948","Human","Missing data/not specified/undetermined","","2017/09/21 00:00:00+00","264","1948","0.01","A","39.0674","-108.5877","MISSING/NOT SPECIFIED","CO","MESA","08077","Mesa County"
"-105.067689866","39.801393578","2020204","400149708","SFO-201759032981","NONFED","ST-NASF","ST/C&L","USCOARVX","Arvada Fire Protection District","5903","Arvada Fire Protection District","","2981","","UNKNOWN","","","","","","2017","2017/09/21 00:00:00+00","264","2012","Human","Missing data/not specified/undetermined","","2017/09/21 00:00:00+00","264","2012","0.01","A","39.8014","-105.0677","MISSING/NOT SPECIFIED","CO","JEFFERSON","08059","Jefferson County"
"-104.874090014","38.885493692","2020205","400149709","SFO-201741181750254","NONFED","ST-NASF","ST/C&L","USCOCOLX","Colorado Springs Fire Department","4118","Colorado Springs Fire Department","","1750254","","UNKNOWN","","","","","","2017","2017/09/21 00:00:00+00","264","2028","Human","Missing data/not specified/undetermined","","2017/09/21 00:00:00+00","264","2028","0.01","A","38.8855","-104.8741","MISSING/NOT SPECIFIED","CO","EL PASO","08041","El Paso County"
"-105.083689871","39.726293589","2020206","400149710","SFO-2017590925241","NONFED","ST-NASF","ST/C&L","USCOWEMX","West Metro Fire Rescue","5909","West Metro Fire Rescue","","25241","","UNKNOWN","","","","","","2017","2017/09/21 00:00:00+00","264","2345","Human","Missing data/not specified/undetermined","","2017/09/21 00:00:00+00","264","2359","0.1","A","39.7263","-105.0837","MISSING/NOT SPECIFIED","CO","JEFFERSON","08059","Jefferson County"
"-73.078234812","41.340917589","2020207","400149711","SFO-2017CT_CTS002-2017-0016","NONFED","ST-NASF","ST/C&L","USCTCTS","Connecticut Division of Forestry","CTCTS","Connecticut Division of Forestry","","002-2017-0016","","MAIN ST","","","","","","2017","2017/09/21 00:00:00+00","264","0635","Human","Missing data/not specified/undetermined","","2017/09/21 00:00:00+00","264","0648","0.1","A","41.340926","-73.078236","PRIVATE","CT","NEW HAVEN","09009","New Haven County"
"-103.902390183","39.406593553","2020208","400149712","SFO-201739052017089","NONFED","ST-NASF","ST/C&L","USCOAGAX","Agate Volunteer Fire Department","3905","Agate Volunteer Fire Department","","2017089","","UNKNOWN","","","","","","2017","2017/09/21 00:00:00+00","264","0813","Human","Missing data/not specified/undetermined","","2017/09/21 00:00:00+00","264","0813","0.01","A","39.4066","-103.9024","MISSING/NOT SPECIFIED","CO","ELBERT","08039","Elbert County"
