"ï»¿X","Y","OBJECTID","FOD_ID","FPA_ID","SOURCE_SYSTEM_TYPE","SOURCE_SYSTEM","NWCG_REPORTING_AGENCY","NWCG_REPORTING_UNIT_ID","NWCG_REPORTING_UNIT_NAME","SOURCE_REPORTING_UNIT","SOURCE_REPORTING_UNIT_NAME","LOCAL_FIRE_REPORT_ID","LOCAL_INCIDENT_ID","FIRE_CODE","FIRE_NAME","ICS_209_PLUS_INCIDENT_JOIN_ID","ICS_209_PLUS_COMPLEX_JOIN_ID","MTBS_ID","MTBS_FIRE_NAME","COMPLEX_NAME","FIRE_YEAR","DISCOVERY_DATE","DISCOVERY_DOY","DISCOVERY_TIME","NWCG_CAUSE_CLASSIFICATION","NWCG_GENERAL_CAUSE","NWCG_CAUSE_AGE_CATEGORY","CONT_DATE","CONT_DOY","CONT_TIME","FIRE_SIZE","FIRE_SIZE_CLASS","LATITUDE","LONGITUDE","OWNER_DESCR","STATE","COUNTY","FIPS_CODE","FIPS_NAME"
"-81.448560603","32.536793729","2000001","400128279","SFO-2017GAGAS-FY2018-Effingham-002","NONFED","ST-NASF","ST/C&L","USGAGAS","Georgia Forestry Commission","GAGAS","Georgia Forestry Commission","","FY2018-Effingham-002","","FY2018-EFFINGHAM-002","","","","","","2017","2017/10/05 00:00:00+00","278","1547","Human","Debris and open burning","","2017/10/05 00:00:00+00","278","1630","1.22","B","32.5368","-81.44856389","PRIVATE","GA","Effingham           ","13103","Effingham County"
"-108.445548167","43.035759328","2000002","400128280","SFO-2017135392018-203","NONFED","ST-NASF","ST/C&L","USWYFRX","Fremont County","13539","Riverton Fire Department","","2018-203","","203","","","","","","2017","2017/10/05 00:00:00+00","278","1552","Human","Debris and open burning","","2017/10/05 00:00:00+00","278","1645","1","B","43.0357659","-108.4455595","MISSING/NOT SPECIFIED","WY","Fremont","56013","Fremont County"
"-83.569440576","31.641505109","2000003","400128281","SFO-2017GAGAS-FY2018-Turner-005","NONFED","ST-NASF","ST/C&L","USGAGAS","Georgia Forestry Commission","GAGAS","Georgia Forestry Commission","","FY2018-Turner-005","","FY2018-TURNER-005","","","","","","2017","2017/10/05 00:00:00+00","278","1545","Human","Debris and open burning","","2017/10/05 00:00:00+00","278","1645","1.1","B","31.64151111","-83.56944444","STATE","GA","Turner              ","13287","Turner County"
"-83.420773975","31.278366296","2000004","400128282","SFO-2017GAGAS-FY2018-Cook-001","NONFED","ST-NASF","ST/C&L","USGAGAS","Georgia Forestry Commission","GAGAS","Georgia Forestry Commission","","FY2018-Cook-001","","FY2018-COOK-001","","","","","","2017","2017/10/05 00:00:00+00","278","1616","Human","Debris and open burning","","2017/10/05 00:00:00+00","278","1736","0.87","B","31.27837222","-83.42077778","PRIVATE","GA","Cook                ","13075","Cook County"
"-80.325481944","34.638100227","2000005","400128283","SFO-2017SCSCS18FF0079","NONFED","ST-NASF","ST/C&L","USSCSCS","South Carolina Forestry Commission","SCSCS","South Carolina Forestry Commission","","18FF0079","","","","","","","","2017","2017/10/05 00:00:00+00","278","1644","Human","Debris and open burning","","2017/10/05 00:00:00+00","278","1757","2","B","34.638107","-80.325485","PRIVATE","SC","Chesterfield County","45025","Chesterfield County"
"-84.338801449","32.194271682","2000006","400128284","SFO-2017GAGAS-FY2018-Schley-003","NONFED","ST-NASF","ST/C&L","USGAGAS","Georgia Forestry Commission","GAGAS","Georgia Forestry Commission","","FY2018-Schley-003","","FY2018-SCHLEY-003","","","","","","2017","2017/10/05 00:00:00+00","278","1801","Human","Debris and open burning","","2017/10/05 00:00:00+00","278","1815","0.13","A","32.19427778","-84.33880556","PRIVATE","GA","Schley              ","13249","Schley County"
"-81.885996566","32.95474365","2000007","400128285","SFO-2017GAGAS-FY2018-Burke-009","NONFED","ST-NASF","ST/C&L","USGAGAS","Georgia Forestry Commission","GAGAS","Georgia Forestry Commission","","FY2018-Burke-009","","FY2018-BURKE-009","","","","","","2017","2017/10/05 00:00:00+00","278","1720","Human","Debris and open burning","","2017/10/05 00:00:00+00","278","1839","0.33","B","32.95475","-81.886","PRIVATE","GA","Burke               ","13033","Burke County"
"-80.066487058","33.903733379","2000008","400128286","SFO-2017SCSCS18FF0081","NONFED","ST-NASF","ST/C&L","USSCSCS","South Carolina Forestry Commission","SCSCS","South Carolina Forestry Commission","","18FF0081","","","","","","","","2017","2017/10/05 00:00:00+00","278","1736","Human","Debris and open burning","","2017/10/05 00:00:00+00","278","1843","3","B","33.90374","-80.06649","PRIVATE","SC","Sumter County","45085","Sumter County"
"-79.92167413","33.281388512","2000009","400128287","SFO-2017SCSCS18WF0052","NONFED","ST-NASF","ST/C&L","USSCSCS","South Carolina Forestry Commission","SCSCS","South Carolina Forestry Commission","","18WF0052","","","","","","","","2017","2017/10/05 00:00:00+00","278","1651","Human","Debris and open burning","","2017/10/05 00:00:00+00","278","1848","2","B","33.281395","-79.921677","PRIVATE","SC","Berkeley County","45015","Berkeley County"
"-86.283995221","34.322993517","2000010","400128288","SFO-2017ALAFC13086","NONFED","ST-NASF","ST/C&L","USALALS","Alabama Forestry Commission","ALAFC","Alabama Forestry Commission","","13086","","20171005-5","","","","","","2017","2017/10/05 00:00:00+00","278","1523","Human","Debris and open burning","","2017/10/05 00:00:00+00","278","1848","20","C","34.323","-86.284","MISSING/NOT SPECIFIED","AL","Marshall","01095","Marshall County"
"-82.745785072","37.242584775","2000011","400128289","SFO-2017KYKYS13320179022","NONFED","ST-NASF","ST/C&L","USKYKYS","Kentucky Division of Forestry","KYKYS","Kentucky Division of Forestry","","13320179022","","ONION BRANCH","","","","","","2017","2017/10/05 00:00:00+00","278","1400","Human","Debris and open burning","","2017/10/05 00:00:00+00","278","2000","10","C","37.242592","-82.745789","PRIVATE","KY","Letcher","21133","Letcher County"
"-81.684391177","40.264437139","2000012","400128290","SFO-2017OHOHS21-79202-MA-92-10/05/2017","NONFED","ST-NASF","ST/C&L","USOHOHS","Ohio Department of Natural Resources","OHOHS","Ohio Department of Natural Resources","","21-79202-MA-92-10/05/2017","","9252","","","","","","2017","2017/10/05 00:00:00+00","278","","Human","Debris and open burning","","2017/10/05 00:00:00+00","278","","0.5","B","40.264445","-81.684395","PRIVATE","OH","COSHOCTON","39031","Coshocton County"
"-82.267954987","40.419076136","2000013","400128291","SFO-2017OHOHS21-42003-P-83-10/05/2017","NONFED","ST-NASF","ST/C&L","USOHOHS","Ohio Department of Natural Resources","OHOHS","Ohio Department of Natural Resources","","21-42003-P-83-10/05/2017","","8887","","","","","","2017","2017/10/05 00:00:00+00","278","","Human","Debris and open burning","","2017/10/05 00:00:00+00","278","","0.01","A","40.419084","-82.267959","PRIVATE","OH","KNOX","39083","Knox County"
"-83.583451613","33.304857522","2000014","400128292","SFO-2017GAGAS-FY2018-Jasper-003","NONFED","ST-NASF","ST/C&L","USGAGAS","Georgia Forestry Commission","GAGAS","Georgia Forestry Commission","","FY2018-Jasper-003","","FY2018-JASPER-003","","","","","","2017","2017/10/06 00:00:00+00","279","0904","Human","Debris and open burning","","2017/10/06 00:00:00+00","279","0945","0.1","A","33.30486389","-83.58345556","STATE","GA","Jasper              ","13159","Jasper County"
"-83.105857296","33.415854701","2000015","400128293","SFO-2017GAGAS-FY2018-Greene-002","NONFED","ST-NASF","ST/C&L","USGAGAS","Georgia Forestry Commission","GAGAS","Georgia Forestry Commission","","FY2018-Greene-002","","FY2018-GREENE-002","","","","","","2017","2017/10/06 00:00:00+00","279","1009","Human","Debris and open burning","","2017/10/06 00:00:00+00","279","1054","3","B","33.41586111","-83.10586111","STATE","GA","Greene              ","13133","Greene County"
"-93.412093454","30.840994512","2000016","400128294","SFO-2017LADAF123327","NONFED","ST-NASF","ST/C&L","USLALAS","Louisiana Office of Forestry","LADAF","Louisiana Department of Agriculture and Forestry","","123327","","","","","","","","2017","2017/10/06 00:00:00+00","279","1230","Human","Debris and open burning","","2017/10/06 00:00:00+00","279","1320","3.2","B","30.841","-93.4121","PRIVATE","LA","Beauregard","22011","Beauregard Parish"
"-85.024253942","33.777293583","2000017","400128295","SFO-2017GAGAS-FY2018-Carroll-002","NONFED","ST-NASF","ST/C&L","USGAGAS","Georgia Forestry Commission","GAGAS","Georgia Forestry Commission","","FY2018-Carroll-002","","FY2018-CARROLL-002","","","","","","2017","2017/10/06 00:00:00+00","279","1226","Human","Debris and open burning","","2017/10/06 00:00:00+00","279","1328","0.16","A","33.7773","-85.02425833","PRIVATE","GA","Carroll             ","13045","Carroll County"
"-87.592994889","33.655993708","2000018","400128296","SFO-2017ALAFC13088","NONFED","ST-NASF","ST/C&L","USALALS","Alabama Forestry Commission","ALAFC","Alabama Forestry Commission","","13088","","20171006-1","","","","","","2017","2017/10/06 00:00:00+00","279","1200","Human","Debris and open burning","","2017/10/06 00:00:00+00","279","1354","0.5","B","33.656","-87.593","MISSING/NOT SPECIFIED","AL","Fayette","01057","Fayette County"
"-82.911357322","34.017382344","2000019","400128297","SFO-2017GAGAS-FY2018-Elbert-003","NONFED","ST-NASF","ST/C&L","USGAGAS","Georgia Forestry Commission","GAGAS","Georgia Forestry Commission","","FY2018-Elbert-003","","FY2018-ELBERT-003","","","","","","2017","2017/10/06 00:00:00+00","279","1223","Human","Debris and open burning","","2017/10/06 00:00:00+00","279","1407","6.17","B","34.01738889","-82.91136111","PRIVATE","GA","Elbert              ","13105","Elbert County"
"-83.922662605","33.689779671","2000020","400128298","SFO-2017GAGAS-FY2018-Rockdale-001","NONFED","ST-NASF","ST/C&L","USGAGAS","Georgia Forestry Commission","GAGAS","Georgia Forestry Commission","","FY2018-Rockdale-001","","FY2018-ROCKDALE-001","","","","","","2017","2017/10/06 00:00:00+00","279","1225","Human","Debris and open burning","","2017/10/06 00:00:00+00","279","1435","16.54","C","33.68978611","-83.92266667","PRIVATE","GA","Rockdale            ","13247","Rockdale County"
"-87.508995027","31.433994178","2000021","400128299","SFO-2017ALAFC13089","NONFED","ST-NASF","ST/C&L","USALALS","Alabama Forestry Commission","ALAFC","Alabama Forestry Commission","","13089","","20171006-2","","","","","","2017","2017/10/06 00:00:00+00","279","1223","Human","Debris and open burning","","2017/10/06 00:00:00+00","279","1443","1","B","31.434","-87.509","MISSING/NOT SPECIFIED","AL","Monroe","01099","Monroe County"
"-86.600995272","31.631994103","2000022","400128300","SFO-2017ALAFC13091","NONFED","ST-NASF","ST/C&L","USALALS","Alabama Forestry Commission","ALAFC","Alabama Forestry Commission","","13091","","20171006-4","","","","","","2017","2017/10/06 00:00:00+00","279","1410","Human","Debris and open burning","","2017/10/06 00:00:00+00","279","1445","1.2","B","31.632","-86.601","MISSING/NOT SPECIFIED","AL","Butler","01013","Butler County"
"-92.38579362","32.855494063","2000023","400128301","SFO-2017LADAF123329","NONFED","ST-NASF","ST/C&L","USLALAS","Louisiana Office of Forestry","LADAF","Louisiana Department of Agriculture and Forestry","","123329","","","","","","","","2017","2017/10/06 00:00:00+00","279","1400","Human","Debris and open burning","","2017/10/06 00:00:00+00","279","1500","29.92","C","32.8555","-92.3858","PRIVATE","LA","West Carroll","22123","West Carroll Parish"
"-82.883785216","31.830382824","2000024","400128302","SFO-2017GAGAS-FY2018-Telfair-006","NONFED","ST-NASF","ST/C&L","USGAGAS","Georgia Forestry Commission","GAGAS","Georgia Forestry Commission","","FY2018-Telfair-006","","FY2018-TELFAIR-006","","","","","","2017","2017/10/06 00:00:00+00","279","1445","Human","Debris and open burning","","2017/10/06 00:00:00+00","279","1533","0.1","A","31.83038889","-82.88378889","PRIVATE","GA","Telfair             ","13271","Telfair County"
"-87.153995034","33.268993772","2000025","400128303","SFO-2017ALAFC13092","NONFED","ST-NASF","ST/C&L","USALALS","Alabama Forestry Commission","ALAFC","Alabama Forestry Commission","","13092","","20171006-5","","","","","","2017","2017/10/06 00:00:00+00","279","1413","Human","Debris and open burning","","2017/10/06 00:00:00+00","279","1622","0.5","B","33.269","-87.154","MISSING/NOT SPECIFIED","AL","Tuscaloosa","01125","Tuscaloosa County"
"-84.40572077","34.164807368","2000026","400128304","SFO-2017GAGAS-FY2018-Cherokee-001","NONFED","ST-NASF","ST/C&L","USGAGAS","Georgia Forestry Commission","GAGAS","Georgia Forestry Commission","","FY2018-Cherokee-001","","FY2018-CHEROKEE-001","","","","","","2017","2017/10/06 00:00:00+00","279","1608","Human","Debris and open burning","","2017/10/06 00:00:00+00","279","1700","0.8","B","34.16481389","-84.405725","MISSING/NOT SPECIFIED","GA","Cherokee            ","13057","Cherokee County"
"-82.130285413","38.031843771","2000027","400128305","SFO-2017WVDOF2017-36518","NONFED","ST-NASF","ST/C&L","USWVWVS","West Virginia Division of Forestry","WVDOF","West Virginia Division of Forestry","","2017-36518","","1074 MCCLELLAN HGHY","","","","","","2017","2017/10/06 00:00:00+00","279","1522","Human","Debris and open burning","","2017/10/06 00:00:00+00","279","1700","0.1","A","38.03185118","-82.13028921","UNDEFINED FEDERAL","WV","Lincoln","54043","Lincoln County"
"-122.442525778","44.398504579","2000028","400128306","SFO-2017ORODF1777210418","NONFED","ST-NASF","ST/C&L","USORORS","Oregon Department of Forestry Salem Headquarters","ORODF","Oregon Department of Forestry","","1777210418","","259 HWY 20","","","","","","2017","2017/10/06 00:00:00+00","279","1510","Human","Debris and open burning","","2017/10/06 00:00:00+00","279","1710","0.01","A","44.39851","-122.44254","PRIVATE","OR","Linn","41043","Linn County"
"-80.825664854","33.457719503","2000029","400128307","SFO-2017SCSCS18WF0053","NONFED","ST-NASF","ST/C&L","USSCSCS","South Carolina Forestry Commission","SCSCS","South Carolina Forestry Commission","","18WF0053","","","","","","","","2017","2017/10/06 00:00:00+00","279","1622","Human","Debris and open burning","","2017/10/06 00:00:00+00","279","1711","0.2","A","33.457726","-80.825668","PRIVATE","SC","Orangeburg County","45075","Orangeburg County"
"-117.370770991","33.679888137","2000030","400128308","SFO-2017CACDFRRU123476","NONFED","ST-NASF","ST/C&L","USCACDF","California Department of Forestry & Fire Protection","CACDF","Headquarters, California Department of Forestry & Fire Protection","","RRU123476","","RIVERSIDE DR / JOY ST","","","","","","2017","2017/10/06 00:00:00+00","279","1825","Human","Debris and open burning","","2017/10/06 00:00:00+00","279","1846","0.01","A","33.679893","-117.370783","MISSING/NOT SPECIFIED","CA","RIVERSIDE","06065","Riverside County"
"-91.178993961","32.562994075","2000031","400128309","SFO-2017LADAF123330","NONFED","ST-NASF","ST/C&L","USLALAS","Louisiana Office of Forestry","LADAF","Louisiana Department of Agriculture and Forestry","","123330","","","","","","","","2017","2017/10/06 00:00:00+00","279","1630","Human","Debris and open burning","","2017/10/06 00:00:00+00","279","1900","29.45","C","32.563","-91.179","PRIVATE","LA","East Carroll","22035","East Carroll Parish"
"-95.071092977","31.735494394","2000032","400128310","SFO-2017TXTXS5577","NONFED","ST-NASF","ST/C&L","USTXTXS","Texas A & M Forest Service","TXTXS","Texas Forest Service","","5577","","7134","","","","","","2017","2017/10/06 00:00:00+00","279","1620","Human","Debris and open burning","","2017/10/06 00:00:00+00","279","1909","6","B","31.7355","-95.0711","MISSING/NOT SPECIFIED","TX","Cherokee","48073","Cherokee County"
"-94.734559661","33.024244128","2000033","400128311","SFO-2017TXTXS5578","NONFED","ST-NASF","ST/C&L","USTXTXS","Texas A & M Forest Service","TXTXS","Texas Forest Service","","5578","","6172","","","","","","2017","2017/10/06 00:00:00+00","279","1735","Human","Debris and open burning","","2017/10/06 00:00:00+00","279","1918","2","B","33.02425","-94.73456667","MISSING/NOT SPECIFIED","TX","Morris","48343","Morris County"
"-93.344493491","30.449994591","2000034","400128312","SFO-2017LADAF123328","NONFED","ST-NASF","ST/C&L","USLALAS","Louisiana Office of Forestry","LADAF","Louisiana Department of Agriculture and Forestry","","123328","","","","","","","","2017","2017/10/06 00:00:00+00","279","1710","Human","Debris and open burning","","2017/10/06 00:00:00+00","279","1920","8","B","30.45","-93.3445","PRIVATE","LA","Beauregard","22011","Beauregard Parish"
"-85.08518449","33.686174165","2000035","400128313","SFO-2017GAGAS-FY2018-Carroll-003","NONFED","ST-NASF","ST/C&L","USGAGAS","Georgia Forestry Commission","GAGAS","Georgia Forestry Commission","","FY2018-Carroll-003","","FY2018-CARROLL-003","","","","","","2017","2017/10/06 00:00:00+00","279","1930","Human","Debris and open burning","","2017/10/06 00:00:00+00","279","2030","5.26","B","33.68618056","-85.08518889","PRIVATE","GA","Carroll             ","13045","Carroll County"
"-84.567201366","32.568982718","2000036","400128314","SFO-2017GAGAS-FY2018-Talbot-006","NONFED","ST-NASF","ST/C&L","USGAGAS","Georgia Forestry Commission","GAGAS","Georgia Forestry Commission","","FY2018-Talbot-006","","FY2018-TALBOT-006","","","","","","2017","2017/10/06 00:00:00+00","279","2240","Human","Debris and open burning","","2017/10/06 00:00:00+00","279","2312","0.5","B","32.56898889","-84.56720556","PRIVATE","GA","Talbot              ","13263","Talbot County"
"-84.507193042","32.588166041","2000037","400128315","SFO-2017GAGAS-FY2018-Talbot-007","NONFED","ST-NASF","ST/C&L","USGAGAS","Georgia Forestry Commission","GAGAS","Georgia Forestry Commission","","FY2018-Talbot-007","","FY2018-TALBOT-007","","","","","","2017","2017/10/06 00:00:00+00","279","2310","Human","Debris and open burning","","2017/10/06 00:00:00+00","279","2333","0.25","A","32.58817222","-84.50719722","PRIVATE","GA","Talbot              ","13263","Talbot County"
"-92.094993745","31.998994226","2000038","400128316","SFO-2017LADAF123326","NONFED","ST-NASF","ST/C&L","USLALAS","Louisiana Office of Forestry","LADAF","Louisiana Department of Agriculture and Forestry","","123326","","","","","","","","2017","2017/10/06 00:00:00+00","279","0030","Human","Debris and open burning","","2017/10/06 00:00:00+00","279","0330","1.9","B","31.999","-92.095","PRIVATE","LA","Caldwell","22021","Caldwell Parish"
"-71.055993425","42.102259376","2000039","400128317","SFO-2017MADCRMA020170095","NONFED","ST-NASF","ST/C&L","USMAMAS","Massachusetts Bureau of Forest Fire Control","MADCR","Massachusetts Department of Conservation and Recreation","","MA020170095","","","","","","","","2017","2017/10/06 00:00:00+00","279","0726","Human","Debris and open burning","","2017/10/06 00:00:00+00","279","","0.25","A","42.102268","-71.055994","MISSING/NOT SPECIFIED","MA","Plymouth","25023","Plymouth County"
"-81.715954594","33.405045545","2000040","400128318","SFO-2017SCSCS18FF0084","NONFED","ST-NASF","ST/C&L","USSCSCS","South Carolina Forestry Commission","SCSCS","South Carolina Forestry Commission","","18FF0084","","","","","","","","2017","2017/10/07 00:00:00+00","280","0109","Human","Debris and open burning","","2017/10/07 00:00:00+00","280","0217","2","B","33.405052","-81.715958","PRIVATE","SC","Aiken County","45003","Aiken County"
"-112.649986863","47.816693344","2000041","400128319","SFO-2017MTSWS006029","NONFED","ST-NASF","ST/C&L","USMTSWS","Southwestern Land Office","MTSWS","Southwestern Land Office","","006029","","KROHN LAKE","","","","","","2017","2017/10/07 00:00:00+00","280","0520","Human","Debris and open burning","","2017/10/07 00:00:00+00","280","0525","2","B","47.8167","-112.65","PRIVATE","MT","Lewis & Clark","30049","Lewis and Clark County"
"-83.400496236","30.454594264","2000042","400128320","SFO-2017FLFLS2017050234","NONFED","ST-NASF","ST/C&L","USFLFLS","Florida Forest Service","FLFLS","Florida Forest Service","","2017050234","","OLD COUNTY CAMP (40)","","","","","","2017","2017/10/06 00:00:00+00","279","2250","Human","Debris and open burning","","2017/10/07 00:00:00+00","280","0942","0.1","A","30.4546","-83.4005","PRIVATE","FL","Madison","12079","Madison County"
"-85.214828862","34.239493493","2000043","400128321","SFO-2017GAGAS-FY2018-Floyd-005","NONFED","ST-NASF","ST/C&L","USGAGAS","Georgia Forestry Commission","GAGAS","Georgia Forestry Commission","","FY2018-Floyd-005","","FY2018-FLOYD-005","","","","","","2017","2017/10/06 00:00:00+00","279","1400","Human","Debris and open burning","","2017/10/07 00:00:00+00","280","1227","0.9","B","34.2395","-85.21483333","PRIVATE","GA","Floyd               ","13115","Floyd County"
"-94.385593073","33.169194085","2000044","400128322","SFO-2017TXTXS5580","NONFED","ST-NASF","ST/C&L","USTXTXS","Texas A & M Forest Service","TXTXS","Texas Forest Service","","5580","","6174","","","","","","2017","2017/10/07 00:00:00+00","280","1130","Human","Debris and open burning","","2017/10/07 00:00:00+00","280","1247","3","B","33.1692","-94.3856","MISSING/NOT SPECIFIED","TX","Cass","48067","Cass County"
"-122.904845424","45.799054543","2000045","400128323","SFO-2017ORODF1753206218","NONFED","ST-NASF","ST/C&L","USORORS","Oregon Department of Forestry Salem Headquarters","ORODF","Oregon Department of Forestry","","1753206218","","VIEWCREST DRIVE #1","","","","","","2017","2017/10/07 00:00:00+00","280","1310","Human","Debris and open burning","","2017/10/07 00:00:00+00","280","1310","0.01","A","45.79906","-122.90486","PRIVATE","OR","Columbia","41009","Columbia County"
"-83.051296332","30.549994231","2000046","400128324","SFO-2017FLFLS2017061095","NONFED","ST-NASF","ST/C&L","USFLFLS","Florida Forest Service","FLFLS","Florida Forest Service","","2017061095","","NW US 41 (24-4)","","","","","","2017","2017/10/07 00:00:00+00","280","1345","Human","Debris and open burning","","2017/10/07 00:00:00+00","280","1354","0.1","A","30.55","-83.0513","PRIVATE","FL","Hamilton","12047","Hamilton County"
"-82.54636727","34.937016244","2000047","400128325","SFO-2017SCSCS18NF0035","NONFED","ST-NASF","ST/C&L","USSCSCS","South Carolina Forestry Commission","SCSCS","South Carolina Forestry Commission","","18NF0035","","","","","","","","2017","2017/10/07 00:00:00+00","280","1353","Human","Debris and open burning","","2017/10/07 00:00:00+00","280","1447","0.3","B","34.937023","-82.546371","MISSING/NOT SPECIFIED","SC","Pickens County","45077","Pickens County"
"-83.462329822","37.791202696","2000048","400128326","SFO-2017KYKYS23720179008","NONFED","ST-NASF","ST/C&L","USKYKYS","Kentucky Division of Forestry","KYKYS","Kentucky Division of Forestry","","23720179008","","CLARK BRANCH RD","","","","","","2017","2017/10/07 00:00:00+00","280","1336","Human","Debris and open burning","","2017/10/07 00:00:00+00","280","1500","0.2","A","37.79121","-83.462334","PRIVATE","KY","Wolfe","21237","Wolfe County"
"-123.095545791","43.79916468","2000049","400128327","SFO-2017ORODF1778106118","NONFED","ST-NASF","ST/C&L","USORORS","Oregon Department of Forestry Salem Headquarters","ORODF","Oregon Department of Forestry","","1778106118","","ADAMS ROAD","","","","","","2017","2017/10/07 00:00:00+00","280","1210","Human","Debris and open burning","","2017/10/07 00:00:00+00","280","1510","0.2","A","43.79917","-123.09556","PRIVATE","OR","Lane","41039","Lane County"
"-82.290260808","38.421830681","2000050","400128328","SFO-2017WVDOF2017-36515","NONFED","ST-NASF","ST/C&L","USWVWVS","West Virginia Division of Forestry","WVDOF","West Virginia Division of Forestry","","2017-36515","","6460 MERRITTS CREEK","","","","","","2017","2017/10/07 00:00:00+00","280","1428","Human","Debris and open burning","","2017/10/07 00:00:00+00","280","1540","0.2","A","38.42183816","-82.29026468","PRIVATE","WV","Cabell","54011","Cabell County"
"-83.108190601","33.897965707","2000051","400128329","SFO-2017GAGAS-FY2018-Oglethorpe-003","NONFED","ST-NASF","ST/C&L","USGAGAS","Georgia Forestry Commission","GAGAS","Georgia Forestry Commission","","FY2018-Oglethorpe-003","","FY2018-OGLETHORPE-003","","","","","","2017","2017/10/07 00:00:00+00","280","1527","Human","Debris and open burning","","2017/10/07 00:00:00+00","280","1711","0.5","B","33.89797222","-83.10819444","PRIVATE","GA","Oglethorpe          ","13221","Oglethorpe County"
"-85.340526075","33.903743569","2000052","400128330","SFO-2017GAGAS-FY2018-Polk-002","NONFED","ST-NASF","ST/C&L","USGAGAS","Georgia Forestry Commission","GAGAS","Georgia Forestry Commission","","FY2018-Polk-002","","FY2018-POLK-002","","","","","","2017","2017/10/07 00:00:00+00","280","1849","Human","Debris and open burning","","2017/10/07 00:00:00+00","280","1952","1.8","B","33.90375","-85.34053056","PRIVATE","GA","Polk                ","13233","Polk County"
"-84.088529277","32.496527157","2000053","400128331","SFO-2017GAGAS-FY2018-Macon-003","NONFED","ST-NASF","ST/C&L","USGAGAS","Georgia Forestry Commission","GAGAS","Georgia Forestry Commission","","FY2018-Macon-003","","FY2018-MACON-003","","","","","","2017","2017/10/07 00:00:00+00","280","1948","Human","Debris and open burning","","2017/10/07 00:00:00+00","280","2151","3.6","B","32.49653333","-84.08853333","PRIVATE","GA","Macon               ","13193","Macon County"
"-120.036577246","36.94739896","2000054","400128332","SFO-2017CACDFMMU020581","NONFED","ST-NASF","ST/C&L","USCACDF","California Department of Forestry & Fire Protection","CACDF","Headquarters, California Department of Forestry & Fire Protection","","MMU020581","","LADA AV  MADERA","","","","","","2017","2017/10/07 00:00:00+00","280","2151","Human","Debris and open burning","","2017/10/07 00:00:00+00","280","2303","0.01","A","36.947404","-120.03659","MISSING/NOT SPECIFIED","CA","MADERA","06039","Madera County"
"-82.07769806","40.227489163","2000055","400128333","SFO-2017OHOHS41-60003-P-118-10/07/2017","NONFED","ST-NASF","ST/C&L","USOHOHS","Ohio Department of Natural Resources","OHOHS","Ohio Department of Natural Resources","","41-60003-P-118-10/07/2017","","9027","","","","","","2017","2017/10/07 00:00:00+00","280","","Human","Debris and open burning","","2017/10/07 00:00:00+00","280","","0.5","B","40.227497","-82.077702","PRIVATE","OH","COSHOCTON","39031","Coshocton County"
"-70.981449451","42.076253378","2000056","400128334","SFO-2017MADCRMA020170097","NONFED","ST-NASF","ST/C&L","USMAMAS","Massachusetts Bureau of Forest Fire Control","MADCR","Massachusetts Department of Conservation and Recreation","","MA020170097","","","","","","","","2017","2017/10/07 00:00:00+00","280","1724","Human","Debris and open burning","","2017/10/07 00:00:00+00","280","","0.25","A","42.076262","-70.98145","MISSING/NOT SPECIFIED","MA","Plymouth","25023","Plymouth County"
"-120.843046023","44.451104419","2000057","400128335","SFO-2017ORODF1795102618","NONFED","ST-NASF","ST/C&L","USORORS","Oregon Department of Forestry Salem Headquarters","ORODF","Oregon Department of Forestry","","1795102618","","TURNER CREEK","","","","","","2017","2017/10/01 00:00:00+00","274","1410","Human","Debris and open burning","","2017/10/08 00:00:00+00","281","0010","0.26","B","44.45111","-120.84306","PRIVATE","OR","Crook","41013","Crook County"
"-89.524715655","42.275825188","2000058","400128336","SFO-2017ILDNR891580004","NONFED","ST-NASF","ST/C&L","USILILS","Illinois Division of Forestry Resources","ILDNR","Illinois Department of Natural Resources","","891580004","","17-0000111","","","","","","2017","2017/10/08 00:00:00+00","281","1356","Human","Debris and open burning","","2017/10/08 00:00:00+00","281","1401","0.5","B","42.275833","-89.524722","STATE","IL","89","17177","Stephenson County"
"-94.166793155","32.753210827","2000059","400128337","SFO-2017TXTXS5583","NONFED","ST-NASF","ST/C&L","USTXTXS","Texas A & M Forest Service","TXTXS","Texas Forest Service","","5583","","6176","","","","","","2017","2017/10/08 00:00:00+00","281","1350","Human","Debris and open burning","","2017/10/08 00:00:00+00","281","1509","4","B","32.75321667","-94.1668","MISSING/NOT SPECIFIED","TX","Marion","48315","Marion County"
"-80.782406831","34.188641341","2000060","400128338","SFO-2017SCSCS18FF0085","NONFED","ST-NASF","ST/C&L","USSCSCS","South Carolina Forestry Commission","SCSCS","South Carolina Forestry Commission","","18FF0085","","","","","","","","2017","2017/10/08 00:00:00+00","281","1332","Human","Debris and open burning","","2017/10/08 00:00:00+00","281","1528","1","B","34.188648","-80.78241","PRIVATE","SC","Kershaw County","45055","Kershaw County"
"-116.712240085","33.931235072","2000061","400128339","SFO-2017CACDFRRU124364","NONFED","ST-NASF","ST/C&L","USCACDF","California Department of Forestry & Fire Protection","CACDF","Headquarters, California Department of Forestry & Fire Protection","","RRU124364","","GARBER DR  WHIT","","","","","","2017","2017/10/08 00:00:00+00","281","1813","Human","Debris and open burning","","2017/10/08 00:00:00+00","281","1832","1","B","33.93124","-116.712252","MISSING/NOT SPECIFIED","CA","RIVERSIDE","06065","Riverside County"
"-84.294065351","32.01529672","2000062","400128340","SFO-2017GAGAS-FY2018-Sumter-004","NONFED","ST-NASF","ST/C&L","USGAGAS","Georgia Forestry Commission","GAGAS","Georgia Forestry Commission","","FY2018-Sumter-004","","FY2018-SUMTER-004","","","","","","2017","2017/10/08 00:00:00+00","281","1810","Human","Debris and open burning","","2017/10/08 00:00:00+00","281","1842","0.01","A","32.01530278","-84.29406944","PRIVATE","GA","Sumter              ","13261","Sumter County"
"-69.164079729","47.444876364","2000063","400128342","SFO-2017MEMES43107026","NONFED","ST-NASF","ST/C&L","USMEMES","Maine Forest Service","MEMES","Maine Forest Service","","43107026","","LEVESQUE FIRE","","","","","","2017","2017/10/07 00:00:00+00","280","0000","Human","Debris and open burning","","2017/10/09 00:00:00+00","282","0000","5","B","47.444886","-69.16408","PRIVATE","ME","Aroostook","23003","Aroostook County"
"-68.758857048","44.565002848","2000064","400128343","SFO-2017MEMES41207117","NONFED","ST-NASF","ST/C&L","USMEMES","Maine Forest Service","MEMES","Maine Forest Service","","41207117","","GLORY FIRE","","","","","","2017","2017/10/09 00:00:00+00","282","","Human","Debris and open burning","","2017/10/09 00:00:00+00","282","","0.1","A","44.565012","-68.758857","PRIVATE","ME","Hancock","23009","Hancock County"
"-121.523046054","43.694994535","2000065","400128344","SFO-2017ORODF1795508618","NONFED","ST-NASF","ST/C&L","USORORS","Oregon Department of Forestry Salem Headquarters","ORODF","Oregon Department of Forestry","","1795508618","","ELDERBERRY 1270","","","","","","2017","2017/10/09 00:00:00+00","282","1410","Human","Debris and open burning","","2017/10/09 00:00:00+00","282","1610","0.05","A","43.695","-121.52306","PRIVATE","OR","Deschutes","41017","Deschutes County"
"-120.788429078","37.394532971","2000066","400128345","SFO-2017CACDFMMU020704","NONFED","ST-NASF","ST/C&L","USCACDF","California Department of Forestry & Fire Protection","CACDF","Headquarters, California Department of Forestry & Fire Protection","","MMU020704","","OAK ST  DELHI","","","","","","2017","2017/10/09 00:00:00+00","282","1618","Human","Debris and open burning","","2017/10/09 00:00:00+00","282","1657","0.1","A","37.394538","-120.788442","MISSING/NOT SPECIFIED","CA","MERCED","06047","Merced County"
"-92.223693704","32.125194205","2000067","400128346","SFO-2017LADAF123332","NONFED","ST-NASF","ST/C&L","USLALAS","Louisiana Office of Forestry","LADAF","Louisiana Department of Agriculture and Forestry","","123332","","","","","","","","2017","2017/10/09 00:00:00+00","282","1500","Human","Debris and open burning","","2017/10/09 00:00:00+00","282","1700","0.5","B","32.1252","-92.2237","PRIVATE","LA","Caldwell","22021","Caldwell Parish"
"-123.202205397","45.711034579","2000068","400128347","SFO-2017ORODF1753108118","NONFED","ST-NASF","ST/C&L","USORORS","Oregon Department of Forestry Salem Headquarters","ORODF","Oregon Department of Forestry","","1753108118","","HWY 47 MILE POST 75 INVE","","","","","","2017","2017/10/09 00:00:00+00","282","1410","Human","Debris and open burning","","2017/10/09 00:00:00+00","282","1710","0.01","A","45.71104","-123.20222","PRIVATE","OR","Washington","41067","Washington County"
"-94.129259856","32.37467756","2000069","400128348","SFO-2017TXTXS5586","NONFED","ST-NASF","ST/C&L","USTXTXS","Texas A & M Forest Service","TXTXS","Texas Forest Service","","5586","","6178","","","","","","2017","2017/10/09 00:00:00+00","282","1559","Human","Debris and open burning","","2017/10/09 00:00:00+00","282","1720","1","B","32.37468333","-94.12926667","MISSING/NOT SPECIFIED","TX","Panola","48365","Panola County"
"-117.229967018","33.641436134","2000070","400128349","SFO-2017CACDFRRU124794","NONFED","ST-NASF","ST/C&L","USCACDF","California Department of Forestry & Fire Protection","CACDF","Headquarters, California Department of Forestry & Fire Protection","","RRU124794","","CLUB","","","","","","2017","2017/10/09 00:00:00+00","282","1722","Human","Debris and open burning","","2017/10/09 00:00:00+00","282","1750","0.01","A","33.641441","-117.229979","MISSING/NOT SPECIFIED","CA","RIVERSIDE","06065","Riverside County"
"-113.089988387","37.799994391","2000071","400128350","SFO-2017UTFFSL8264","NONFED","ST-NASF","ST/C&L","USUTUTS","Utah Division Forestry Fire State Lands","UTFFSL","Utah Division of Forestry, Fire & State Lands","","8264","","6484","","","","","","2017","2017/10/06 00:00:00+00","279","","Human","Debris and open burning","","2017/10/09 00:00:00+00","282","","0.1","A","37.8","-113.09","PRIVATE","UT","Iron","49021","Iron County"
"-111.239988421","40.579993933","2000072","400128351","SFO-2017UTFFSL8261","NONFED","ST-NASF","ST/C&L","USUTUTS","Utah Division Forestry Fire State Lands","UTFFSL","Utah Division of Forestry, Fire & State Lands","","8261","","BRIDGE HOLLOW","","","","","","2017","2017/10/09 00:00:00+00","282","","Human","Debris and open burning","","2017/10/09 00:00:00+00","282","","0.01","A","40.58","-111.24","PRIVATE","UT","Summit","49043","Summit County"
"-99.13949199","31.058494685","2000073","400128352","SFO-2017TXTXS5585","NONFED","ST-NASF","ST/C&L","USTXTXS","Texas A & M Forest Service","TXTXS","Texas Forest Service","","5585","","WOLF RANCH","","","","","","2017","2017/10/09 00:00:00+00","282","1600","Human","Debris and open burning","","2017/10/10 00:00:00+00","283","1125","102","D","31.0585","-99.1395","MISSING/NOT SPECIFIED","TX","McCulloch","48307","McCulloch County"
"-80.725087465","38.519636745","2000074","400128353","SFO-2017WVDOF2017-36650","NONFED","ST-NASF","ST/C&L","USWVWVS","West Virginia Division of Forestry","WVDOF","West Virginia Division of Forestry","","2017-36650","","TURNPIKE ROAD","","","","","","2017","2017/10/10 00:00:00+00","283","1304","Human","Debris and open burning","","2017/10/10 00:00:00+00","283","1400","0.1","A","38.51964431","-80.72509087","PRIVATE","WV","Nicholas","54067","Nicholas County"
"-93.396993436","31.292394419","2000075","400128354","SFO-2017LADAF123331","NONFED","ST-NASF","ST/C&L","USLALAS","Louisiana Office of Forestry","LADAF","Louisiana Department of Agriculture and Forestry","","123331","","","","","","","","2017","2017/10/10 00:00:00+00","283","1305","Human","Debris and open burning","","2017/10/10 00:00:00+00","283","1415","0.46","B","31.2924","-93.397","PRIVATE","LA","Vernon","22115","Vernon Parish"
"-117.481785877","47.91211384","2000076","400128355","SFO-2017WADNR815","NONFED","ST-NASF","ST/C&L","USWAWAS","Washington State Department of Natural Resources Headquarters","WADNR","Washington Department of Natural Resources","","815","","LONG SHORT","","","","","","2017","2017/10/09 00:00:00+00","282","1240","Human","Debris and open burning","","2017/10/10 00:00:00+00","283","1621","0.01","A","47.91212","-117.4818","PRIVATE","WA","63","53063","Spokane County"
"-84.218215409","31.194799681","2000077","400128356","SFO-2017GAGAS-FY2018-Mitchell-003","NONFED","ST-NASF","ST/C&L","USGAGAS","Georgia Forestry Commission","GAGAS","Georgia Forestry Commission","","FY2018-Mitchell-003","","FY2018-MITCHELL-003","","","","","","2017","2017/10/10 00:00:00+00","283","1556","Human","Debris and open burning","","2017/10/10 00:00:00+00","283","1626","0.78","B","31.19480556","-84.21821944","PRIVATE","GA","Mitchell            ","13205","Mitchell County"
"-94.271576467","32.581377525","2000078","400128357","SFO-2017TXTXS5587","NONFED","ST-NASF","ST/C&L","USTXTXS","Texas A & M Forest Service","TXTXS","Texas Forest Service","","5587","","6179","","","","","","2017","2017/10/10 00:00:00+00","283","1524","Human","Debris and open burning","","2017/10/10 00:00:00+00","283","1651","12","C","32.58138333","-94.27158333","MISSING/NOT SPECIFIED","TX","Harrison","48203","Harrison County"
"-120.487833139","37.269858961","2000079","400128358","SFO-2017CACDFMMU020805","NONFED","ST-NASF","ST/C&L","USCACDF","California Department of Forestry & Fire Protection","CACDF","Headquarters, California Department of Forestry & Fire Protection","","MMU020805","","HWY 59  S MERCED","","","","","","2017","2017/10/10 00:00:00+00","283","1930","Human","Debris and open burning","","2017/10/10 00:00:00+00","283","2054","0.01","A","37.269864","-120.487846","MISSING/NOT SPECIFIED","CA","MERCED","06047","Merced County"
"-70.708740547","41.952740393","2000080","400128359","SFO-2017MADCRMA020170316","NONFED","ST-NASF","ST/C&L","USMAMAS","Massachusetts Bureau of Forest Fire Control","MADCR","Massachusetts Department of Conservation and Recreation","","MA020170316","","","","","","","","2017","2017/10/10 00:00:00+00","283","1345","Human","Debris and open burning","","2017/10/10 00:00:00+00","283","","0.25","A","41.952749","-70.708741","MISSING/NOT SPECIFIED","MA","Plymouth","25023","Plymouth County"
"-88.600163626","44.89661171","2000081","400128360","SFO-2017Wi-WIS44280782017","NONFED","ST-NASF","ST/C&L","USWIWIS","Wisconsin Department of Natural Resources","WiWIS","Wisconsin Department of Natural Resources","","44280782017","","DUTCH OVEN FIRE","","","","","","2017","2017/10/11 00:00:00+00","284","1100","Human","Debris and open burning","","2017/10/11 00:00:00+00","284","1128","0.1","A","44.89662","-88.60017","PRIVATE","WI","Menominee","55078","Menominee County"
"-93.026093499","31.969894267","2000082","400128361","SFO-2017LADAF123336","NONFED","ST-NASF","ST/C&L","USLALAS","Louisiana Office of Forestry","LADAF","Louisiana Department of Agriculture and Forestry","","123336","","","","","","","","2017","2017/10/11 00:00:00+00","284","1530","Human","Debris and open burning","","2017/10/11 00:00:00+00","284","1630","0.17","A","31.9699","-93.0261","PRIVATE","LA","Natchitoches","22069","Natchitoches Parish"
"-84.100165426","31.593271808","2000083","400128362","SFO-2017GAGAS-FY2018-Dougherty-004","NONFED","ST-NASF","ST/C&L","USGAGAS","Georgia Forestry Commission","GAGAS","Georgia Forestry Commission","","FY2018-Dougherty-004","","FY2018-DOUGHERTY-004","","","","","","2017","2017/10/11 00:00:00+00","284","1628","Human","Debris and open burning","","2017/10/11 00:00:00+00","284","1636","2.37","B","31.59327778","-84.10016944","MISSING/NOT SPECIFIED","GA","Dougherty           ","13095","Dougherty County"
"-98.537116571","48.054827503","2000084","400128363","SFO-2017360792018-51","NONFED","ST-NASF","ST/C&L","USNDNDS","North Dakota State Forest Service","36079","Local Fire Department","","2018-51","","HILGERS","","","","","","2017","2017/10/11 00:00:00+00","284","1652","Human","Debris and open burning","","2017/10/11 00:00:00+00","284","1839","5","B","48.0548355","-98.5371263","PRIVATE","ND","Ramsey","38071","Ramsey County"
"-98.767883187","48.165794909","2000085","400128364","SFO-2017360792018-50","NONFED","ST-NASF","ST/C&L","USNDNDS","North Dakota State Forest Service","36079","Local Fire Department","","2018-50","","BECKER","","","","","","2017","2017/10/11 00:00:00+00","284","","Human","Debris and open burning","","2017/10/11 00:00:00+00","284","","40","C","48.1658029","-98.767893","PRIVATE","ND","Ramsey","38071","Ramsey County"
"-121.866926189","42.604994643","2000086","400128365","SFO-2017ORODF1798114318","NONFED","ST-NASF","ST/C&L","USORORS","Oregon Department of Forestry Salem Headquarters","ORODF","Oregon Department of Forestry","","1798114318","","RAINBOW PARK 686","","","","","","2017","2017/10/12 00:00:00+00","285","1010","Human","Debris and open burning","","2017/10/12 00:00:00+00","285","1210","0.1","A","42.605","-121.86694","PRIVATE","OR","Klamath","41035","Klamath County"
"-90.161194323","30.862594393","2000087","400128366","SFO-2017LADAF123334","NONFED","ST-NASF","ST/C&L","USLALAS","Louisiana Office of Forestry","LADAF","Louisiana Department of Agriculture and Forestry","","123334","","","","","","","","2017","2017/10/12 00:00:00+00","285","1140","Human","Debris and open burning","","2017/10/12 00:00:00+00","285","1220","0.25","A","30.8626","-90.1612","PRIVATE","LA","Washington","22117","Washington Parish"
"-95.523059531","31.712611086","2000088","400128367","SFO-2017TXTXS5590","NONFED","ST-NASF","ST/C&L","USTXTXS","Texas A & M Forest Service","TXTXS","Texas Forest Service","","5590","","7136","","","","","","2017","2017/10/12 00:00:00+00","285","1135","Human","Debris and open burning","","2017/10/12 00:00:00+00","285","1231","1","B","31.71261667","-95.52306667","MISSING/NOT SPECIFIED","TX","Anderson","48001","Anderson County"
"-82.747846301","33.210007513","2000089","400128368","SFO-2017GAGAS-FY2018-Washington-002","NONFED","ST-NASF","ST/C&L","USGAGAS","Georgia Forestry Commission","GAGAS","Georgia Forestry Commission","","FY2018-Washington-002","","FY2018-WASHINGTON-002","","","","","","2017","2017/10/12 00:00:00+00","285","1207","Human","Debris and open burning","","2017/10/12 00:00:00+00","285","1352","0.1","A","33.21001389","-82.74785","PRIVATE","GA","Washington          ","13303","Washington County"
"-121.395360709","39.636742826","2000090","400128369","SFO-2017CACDFBTU016136","NONFED","ST-NASF","ST/C&L","USCACDF","California Department of Forestry & Fire Protection","CACDF","Headquarters, California Department of Forestry & Fire Protection","","BTU016136","","BALD ROCK RD  BERRY_CRK","","","","","","2017","2017/10/12 00:00:00+00","285","1356","Human","Debris and open burning","","2017/10/12 00:00:00+00","285","1400","1","B","39.636748","-121.395374","MISSING/NOT SPECIFIED","CA","BUTTE","06007","Butte County"
"-94.141076555","31.597861055","2000091","400128370","SFO-2017TXTXS5591","NONFED","ST-NASF","ST/C&L","USTXTXS","Texas A & M Forest Service","TXTXS","Texas Forest Service","","5591","","7137","","","","","","2017","2017/10/12 00:00:00+00","285","1335","Human","Debris and open burning","","2017/10/12 00:00:00+00","285","1436","2","B","31.59786667","-94.14108333","MISSING/NOT SPECIFIED","TX","San Augustine","48405","San Augustine County"
"-108.14498947","37.112794152","2000092","400128371","SFO-20176745170196","NONFED","ST-NASF","ST/C&L","USCOFTLX","Fort Lewis-Mesa Fire Protection District","6745","Fort Lewis-Mesa Fire Protection District","","170196","","UNKNOWN","","","","","","2017","2017/10/12 00:00:00+00","285","1306","Human","Debris and open burning","","2017/10/12 00:00:00+00","285","1530","1","B","37.1128","-108.145","MISSING/NOT SPECIFIED","CO","LA PLATA","08067","La Plata County"
"-70.888027473","42.229140346","2000093","400128372","SFO-2017MADCRMA020170185","NONFED","ST-NASF","ST/C&L","USMAMAS","Massachusetts Bureau of Forest Fire Control","MADCR","Massachusetts Department of Conservation and Recreation","","MA020170185","","","","","","","","2017","2017/10/12 00:00:00+00","285","2130","Human","Debris and open burning","","2017/10/12 00:00:00+00","285","","0.25","A","42.229149","-70.888028","MISSING/NOT SPECIFIED","MA","Plymouth","25023","Plymouth County"
"-121.392485033","48.526044231","2000094","400128373","SFO-2017WADNR400","NONFED","ST-NASF","ST/C&L","USWAWAS","Washington State Department of Natural Resources Headquarters","WADNR","Washington Department of Natural Resources","","400","","CASCADIA","","","","","","2017","2017/09/17 00:00:00+00","260","1452","Human","Debris and open burning","","2017/10/13 00:00:00+00","286","1328","4.15","B","48.52605","-121.3925","PRIVATE","WA","57","53057","Skagit County"
"-83.156610103","32.56435211","2000095","400128374","SFO-2017GAGAS-FY2018-Laurens-022","NONFED","ST-NASF","ST/C&L","USGAGAS","Georgia Forestry Commission","GAGAS","Georgia Forestry Commission","","FY2018-Laurens-022","","FY2018-LAURENS-022","","","","","","2017","2017/10/13 00:00:00+00","286","1354","Human","Debris and open burning","","2017/10/13 00:00:00+00","286","1418","0.14","A","32.56435833","-83.15661389","PRIVATE","GA","Laurens             ","13175","Laurens County"
"-92.370793636","32.644194105","2000096","400128375","SFO-2017LADAF123351","NONFED","ST-NASF","ST/C&L","USLALAS","Louisiana Office of Forestry","LADAF","Louisiana Department of Agriculture and Forestry","","123351","","","","","","","","2017","2017/10/13 00:00:00+00","286","1430","Human","Debris and open burning","","2017/10/13 00:00:00+00","286","1600","1.46","B","32.6442","-92.3708","PRIVATE","LA","Union","22111","Union Parish"
"-93.369293434","31.48049438","2000097","400128376","SFO-2017LADAF123348","NONFED","ST-NASF","ST/C&L","USLALAS","Louisiana Office of Forestry","LADAF","Louisiana Department of Agriculture and Forestry","","123348","","","","","","","","2017","2017/10/13 00:00:00+00","286","1530","Human","Debris and open burning","","2017/10/13 00:00:00+00","286","1615","0.94","B","31.4805","-93.3693","PRIVATE","LA","Sabine","22085","Sabine Parish"
"-94.387276456","32.247744266","2000098","400128377","SFO-2017TXTXS5592","NONFED","ST-NASF","ST/C&L","USTXTXS","Texas A & M Forest Service","TXTXS","Texas Forest Service","","5592","","6180","","","","","","2017","2017/10/13 00:00:00+00","286","1341","Human","Debris and open burning","","2017/10/13 00:00:00+00","286","1730","5","B","32.24775","-94.38728333","MISSING/NOT SPECIFIED","TX","Panola","48365","Panola County"
"-70.720492542","41.978888389","2000099","400128378","SFO-2017MADCRMA020170203","NONFED","ST-NASF","ST/C&L","USMAMAS","Massachusetts Bureau of Forest Fire Control","MADCR","Massachusetts Department of Conservation and Recreation","","MA020170203","","","","","","","","2017","2017/10/13 00:00:00+00","286","0546","Human","Debris and open burning","","2017/10/13 00:00:00+00","286","","0.25","A","41.978897","-70.720493","MISSING/NOT SPECIFIED","MA","Plymouth","25023","Plymouth County"
"-105.010589784","40.595793466","2000100","400128379","SFO-2017696017816","NONFED","ST-NASF","ST/C&L","USCOPFAX","Poudre Fire Authority","6960","Poudre Fire Authority","","17816","","UNKNOWN","","","","","","2017","2017/10/14 00:00:00+00","287","1254","Human","Debris and open burning","","2017/10/14 00:00:00+00","287","1254","0.01","A","40.5958","-105.0106","MISSING/NOT SPECIFIED","CO","LARIMER","08069","Larimer County"
"-95.395109543","32.107494334","2000101","400128380","SFO-2017TXTXS5594","NONFED","ST-NASF","ST/C&L","USTXTXS","Texas A & M Forest Service","TXTXS","Texas Forest Service","","5594","","7138","","","","","","2017","2017/10/14 00:00:00+00","287","1112","Human","Debris and open burning","","2017/10/14 00:00:00+00","287","1309","0.5","B","32.1075","-95.39511667","MISSING/NOT SPECIFIED","TX","Cherokee","48073","Cherokee County"
"-117.895085692","48.361833855","2000102","400128381","SFO-2017WADNR820","NONFED","ST-NASF","ST/C&L","USWAWAS","Washington State Department of Natural Resources Headquarters","WADNR","Washington Department of Natural Resources","","820","","SNOWY SWISS","","","","","","2017","2017/10/13 00:00:00+00","286","0930","Human","Debris and open burning","","2017/10/14 00:00:00+00","287","1350","0.1","A","48.36184","-117.8951","PRIVATE","WA","65","53065","Stevens County"
"-123.433035985","42.402944799","2000103","400128382","SFO-2017ORODF1771267518","NONFED","ST-NASF","ST/C&L","USORORS","Oregon Department of Forestry Salem Headquarters","ORODF","Oregon Department of Forestry","","1771267518","","WOODLAND PARK 2850","","","","","","2017","2017/10/11 00:00:00+00","284","1110","Human","Debris and open burning","","2017/10/14 00:00:00+00","287","1710","0.01","A","42.40295","-123.43305","PRIVATE","OR","Josephine","41033","Josephine County"
"-95.073476306","31.735261064","2000104","400128383","SFO-2017TXTXS5598","NONFED","ST-NASF","ST/C&L","USTXTXS","Texas A & M Forest Service","TXTXS","Texas Forest Service","","5598","","7140","","","","","","2017","2017/10/14 00:00:00+00","287","1615","Human","Debris and open burning","","2017/10/14 00:00:00+00","287","1823","1","B","31.73526667","-95.07348333","MISSING/NOT SPECIFIED","TX","Cherokee","48073","Cherokee County"
"-82.184467025","37.765862626","2000105","400128384","SFO-2017WVDOF2017-36529","NONFED","ST-NASF","ST/C&L","USWVWVS","West Virginia Division of Forestry","WVDOF","West Virginia Division of Forestry","","2017-36529","","DUNCAN FORK","","","","","","2017","2017/10/07 00:00:00+00","280","1752","Human","Debris and open burning","","2017/10/14 00:00:00+00","287","2130","7.6","B","37.76586998","-82.18447082","PRIVATE","WV","Mingo","54059","Mingo County"
"-90.577394217","30.701694442","2000106","400128385","SFO-2017LADAF123344","NONFED","ST-NASF","ST/C&L","USLALAS","Louisiana Office of Forestry","LADAF","Louisiana Department of Agriculture and Forestry","","123344","","","","","","","","2017","2017/10/14 00:00:00+00","287","2030","Human","Debris and open burning","","2017/10/14 00:00:00+00","287","2300","1.16","B","30.7017","-90.5774","PRIVATE","LA","St Helena","22091","St. Helena Parish"
"-83.260826745","32.523307682","2000107","400128386","SFO-2017GAGAS-FY2018-Bleckley-002","NONFED","ST-NASF","ST/C&L","USGAGAS","Georgia Forestry Commission","GAGAS","Georgia Forestry Commission","","FY2018-Bleckley-002","","FY2018-BLECKLEY-002","","","","","","2017","2017/10/14 00:00:00+00","287","2143","Human","Debris and open burning","","2017/10/14 00:00:00+00","287","2318","1.72","B","32.52331389","-83.26083056","PRIVATE","GA","Bleckley            ","13023","Bleckley County"
"-84.705445759","32.71766324","2000108","400128387","SFO-2017GAGAS-FY2018-Harris-002","NONFED","ST-NASF","ST/C&L","USGAGAS","Georgia Forestry Commission","GAGAS","Georgia Forestry Commission","","FY2018-Harris-002","","FY2018-HARRIS-002","","","","","","2017","2017/10/15 00:00:00+00","288","1145","Human","Debris and open burning","","2017/10/15 00:00:00+00","288","1204","0.01","A","32.71766944","-84.70545","PRIVATE","GA","Harris              ","13145","Harris County"
"-86.213995436","30.399194364","2000109","400128388","SFO-2017FLFLS2017020441","NONFED","ST-NASF","ST/C&L","USFLFLS","Florida Forest Service","FLFLS","Florida Forest Service","","2017020441","","NELLIE DR (66)","","","","","","2017","2017/10/15 00:00:00+00","288","1340","Human","Debris and open burning","","2017/10/15 00:00:00+00","288","1431","0.1","A","30.3992","-86.214","PRIVATE","FL","Walton","12131","Walton County"
"-120.063773234","37.026056954","2000110","400128389","SFO-2017CACDFMMU021121","NONFED","ST-NASF","ST/C&L","USCACDF","California Department of Forestry & Fire Protection","CACDF","Headquarters, California Department of Forestry & Fire Protection","","MMU021121","","PANORAMIC DR  MADERA_ACRE","","","","","","2017","2017/10/15 00:00:00+00","288","1448","Human","Debris and open burning","","2017/10/15 00:00:00+00","288","1515","0.1","A","37.026062","-120.063786","MISSING/NOT SPECIFIED","CA","MADERA","06039","Madera County"
"-93.005993562","30.825294501","2000111","400128390","SFO-2017LADAF123343","NONFED","ST-NASF","ST/C&L","USLALAS","Louisiana Office of Forestry","LADAF","Louisiana Department of Agriculture and Forestry","","123343","","","","","","","","2017","2017/10/15 00:00:00+00","288","1430","Human","Debris and open burning","","2017/10/15 00:00:00+00","288","1555","0.5","B","30.8253","-93.006","PRIVATE","LA","Beauregard","22011","Beauregard Parish"
"-120.314585225","36.734323999","2000112","400128391","SFO-2017CACDFFKU015277","NONFED","ST-NASF","ST/C&L","USCACDF","California Department of Forestry & Fire Protection","CACDF","Headquarters, California Department of Forestry & Fire Protection","","FKU015277","","SUGAR","","","","","","2017","2017/10/15 00:00:00+00","288","1553","Human","Debris and open burning","","2017/10/15 00:00:00+00","288","1609","1","B","36.734329","-120.314598","MISSING/NOT SPECIFIED","CA","FRESNO","06019","Fresno County"
"-119.64344632","36.849677942","2000113","400128392","SFO-2017CACDFFKU015281","NONFED","ST-NASF","ST/C&L","USCACDF","California Department of Forestry & Fire Protection","CACDF","Headquarters, California Department of Forestry & Fire Protection","","FKU015281","","SANDERS","","","","","","2017","2017/10/15 00:00:00+00","288","1624","Human","Debris and open burning","","2017/10/15 00:00:00+00","288","1648","0.01","A","36.849683","-119.643459","MISSING/NOT SPECIFIED","CA","FRESNO","06019","Fresno County"
"-74.672598046","44.877190997","2000114","400128393","SFO-2017NY-NYSNYS-2017-0071","NONFED","ST-NASF","ST/C&L","USNYNYS","New York Forest Rangers","NYNYS","New York Forest Rangers","","NYS-2017-0071","","SMITH ROAD FIRE  ","","","","","","2017","2017/10/15 00:00:00+00","288","1300","Human","Debris and open burning","","2017/10/15 00:00:00+00","288","2000","0.3","B","44.8772","-74.6726","STATE","NY","St Lawrence","36089","St. Lawrence County"
"-76.21279766","43.35579133","2000115","400128394","SFO-2017NY3805NY3805-2017-1700595","NONFED","ST-NASF","ST/C&L","USNYNYX","Fire Department of New York","NY3805","Fire Department of New York","","NY3805-2017-1700595","","N/A","","","","","","2017","2017/10/15 00:00:00+00","288","1846","Human","Debris and open burning","","2017/10/15 00:00:00+00","288","2016","0.3","B","43.3558","-76.2128","MISSING/NOT SPECIFIED","NY","Oswego","36075","Oswego County"
"-71.001941445","42.063716381","2000116","400128395","SFO-2017MADCRMA020170099","NONFED","ST-NASF","ST/C&L","USMAMAS","Massachusetts Bureau of Forest Fire Control","MADCR","Massachusetts Department of Conservation and Recreation","","MA020170099","","","","","","","","2017","2017/10/15 00:00:00+00","288","1613","Human","Debris and open burning","","2017/10/15 00:00:00+00","288","","0.25","A","42.063725","-71.001942","MISSING/NOT SPECIFIED","MA","Plymouth","25023","Plymouth County"
"-69.316186893","43.991299969","2000117","400128396","SFO-2017MEMES42307095","NONFED","ST-NASF","ST/C&L","USMEMES","Maine Forest Service","MEMES","Maine Forest Service","","42307095","","OCEANWARD DR.","","","","","","2017","2017/10/16 00:00:00+00","289","","Human","Debris and open burning","","2017/10/16 00:00:00+00","289","","0.1","A","43.991309","-69.316187","PRIVATE","ME","Knox","23013","Knox County"
"-82.924496328","31.523932895","2000118","400128397","SFO-2017GAGAS-FY2018-Coffee-014","NONFED","ST-NASF","ST/C&L","USGAGAS","Georgia Forestry Commission","GAGAS","Georgia Forestry Commission","","FY2018-Coffee-014","","FY2018-COFFEE-014","","","","","","2017","2017/10/16 00:00:00+00","289","0648","Human","Debris and open burning","","2017/10/16 00:00:00+00","289","0745","0.2","A","31.52393889","-82.9245","PRIVATE","GA","Coffee              ","13069","Coffee County"
"-124.218595882","42.333324876","2000119","400128398","SFO-2017ORODF1772110818","NONFED","ST-NASF","ST/C&L","USORORS","Oregon Department of Forestry Salem Headquarters","ORODF","Oregon Department of Forestry","","1772110818","","COAL CREEK","","","","","","2017","2017/10/15 00:00:00+00","288","1410","Human","Debris and open burning","","2017/10/16 00:00:00+00","289","1010","0.05","A","42.33333","-124.21861","MISSING/NOT SPECIFIED","OR","Coos","41011","Coos County"
"-120.556785425","47.498434196","2000120","400128399","SFO-2017WADNR536","NONFED","ST-NASF","ST/C&L","USWAWAS","Washington State Department of Natural Resources Headquarters","WADNR","Washington Department of Natural Resources","","536","","BRENDER SLASH","","","","","","2017","2017/09/12 00:00:00+00","255","1345","Human","Debris and open burning","","2017/10/16 00:00:00+00","289","1030","0.1","A","47.49844","-120.5568","PRIVATE","WA","7","53007","Chelan County"
"-93.445685086","48.282415405","2000121","400128400","SFO-2017MNMNS2017-261-010","NONFED","ST-NASF","ST/C&L","USMNMNS","Minnesota Department of Natural Resources","MNMNS","Minnesota Department of Natural Resources","","2017-261-010","","","","","","","","2017","2017/10/16 00:00:00+00","289","1015","Human","Debris and open burning","","2017/10/16 00:00:00+00","289","1116","0.1","A","48.28242384","-93.4456934","PRIVATE","MN","Koochiching","27071","Koochiching County"
"-119.610014338","36.735563951","2000122","400128401","SFO-2017CACDFFKU015332","NONFED","ST-NASF","ST/C&L","USCACDF","California Department of Forestry & Fire Protection","CACDF","Headquarters, California Department of Forestry & Fire Protection","","FKU015332","","HWY 180  E/N MCCALL AV","","","","","","2017","2017/10/16 00:00:00+00","289","1341","Human","Debris and open burning","","2017/10/16 00:00:00+00","289","1350","0.02","A","36.735569","-119.610027","MISSING/NOT SPECIFIED","CA","FRESNO","06019","Fresno County"
"-117.428522956","33.990316105","2000123","400128402","SFO-2017CACDFRRU127727","NONFED","ST-NASF","ST/C&L","USCACDF","California Department of Forestry & Fire Protection","CACDF","Headquarters, California Department of Forestry & Fire Protection","","RRU127727","","GOLDEN WEST AV  JRPV","","","","","","2017","2017/10/16 00:00:00+00","289","1344","Human","Debris and open burning","","2017/10/16 00:00:00+00","289","1353","0.01","A","33.990321","-117.428535","MISSING/NOT SPECIFIED","CA","RIVERSIDE","06065","Riverside County"
"-124.223595707","43.344994815","2000124","400128403","SFO-2017ORODF1772110918","NONFED","ST-NASF","ST/C&L","USORORS","Oregon Department of Forestry Salem Headquarters","ORODF","Oregon Department of Forestry","","1772110918","","RED DYKE","","","","","","2017","2017/10/16 00:00:00+00","289","1310","Human","Debris and open burning","","2017/10/16 00:00:00+00","289","1410","0.02","A","43.345","-124.22361","PRIVATE","OR","Coos","41011","Coos County"
"-123.361095681","44.170554683","2000125","400128404","SFO-2017ORODF1778106218","NONFED","ST-NASF","ST/C&L","USORORS","Oregon Department of Forestry Salem Headquarters","ORODF","Oregon Department of Forestry","","1778106218","","GOLDSON","","","","","","2017","2017/10/16 00:00:00+00","289","1310","Human","Debris and open burning","","2017/10/16 00:00:00+00","289","1410","0.5","B","44.17056","-123.36111","PRIVATE","OR","Lane","41039","Lane County"
"-94.934742943","32.942477482","2000126","400128405","SFO-2017TXTXS5606","NONFED","ST-NASF","ST/C&L","USTXTXS","Texas A & M Forest Service","TXTXS","Texas Forest Service","","5606","","6184","","","","","","2017","2017/10/16 00:00:00+00","289","1410","Human","Debris and open burning","","2017/10/16 00:00:00+00","289","1500","0.5","B","32.94248333","-94.93475","MISSING/NOT SPECIFIED","TX","Camp","48063","Camp County"
"-95.290992913","31.85319438","2000127","400128406","SFO-2017TXTXS5603","NONFED","ST-NASF","ST/C&L","USTXTXS","Texas A & M Forest Service","TXTXS","Texas Forest Service","","5603","","7143","","","","","","2017","2017/10/16 00:00:00+00","289","1300","Human","Debris and open burning","","2017/10/16 00:00:00+00","289","1500","1","B","31.8532","-95.291","MISSING/NOT SPECIFIED","TX","Cherokee","48073","Cherokee County"
"-83.111637979","30.697160869","2000128","400128407","SFO-2017GAGAS-FY2018-Echols-004","NONFED","ST-NASF","ST/C&L","USGAGAS","Georgia Forestry Commission","GAGAS","Georgia Forestry Commission","","FY2018-Echols-004","","FY2018-ECHOLS-004","","","","","","2017","2017/10/16 00:00:00+00","289","1540","Human","Debris and open burning","","2017/10/16 00:00:00+00","289","1559","0.1","A","30.69716667","-83.11164167","PRIVATE","GA","Echols              ","13101","Echols County"
"-77.249197448","41.746141668","2000129","400128408","SFO-2017PAPAS16(17)2-005","NONFED","ST-NASF","ST/C&L","USPAPAS","Pennsylvania Division of Forest Fire Protection","PAPAS","Pennsylvania Division of Forest Fire Protection","","16(17)2-005","","12296 ROUTE 6","","","","","","2017","2017/10/16 00:00:00+00","289","1639","Human","Debris and open burning","","2017/10/16 00:00:00+00","289","1651","0.25","A","41.74615","-77.2492","MISSING/NOT SPECIFIED","PA","TIOGA","42117","Tioga County"
"-94.726209788","30.722527914","2000130","400128409","SFO-2017TXTXS5607","NONFED","ST-NASF","ST/C&L","USTXTXS","Texas A & M Forest Service","TXTXS","Texas Forest Service","","5607","","8082","","","","","","2017","2017/10/16 00:00:00+00","289","1606","Human","Debris and open burning","","2017/10/16 00:00:00+00","289","1656","1","B","30.72253333","-94.72621667","MISSING/NOT SPECIFIED","TX","Polk","48373","Polk County"
"-92.590493682","30.611794531","2000131","400128410","SFO-2017LADAF123363","NONFED","ST-NASF","ST/C&L","USLALAS","Louisiana Office of Forestry","LADAF","Louisiana Department of Agriculture and Forestry","","123363","","","","","","","","2017","2017/10/16 00:00:00+00","289","1605","Human","Debris and open burning","","2017/10/16 00:00:00+00","289","1725","3.6","B","30.6118","-92.5905","PRIVATE","LA","Evangeline","22039","Evangeline Parish"
"-94.477726503","30.89516121","2000132","400128411","SFO-2017TXTXS5608","NONFED","ST-NASF","ST/C&L","USTXTXS","Texas A & M Forest Service","TXTXS","Texas Forest Service","","5608","","8083","","","","","","2017","2017/10/16 00:00:00+00","289","1607","Human","Debris and open burning","","2017/10/16 00:00:00+00","289","1752","5","B","30.89516667","-94.47773333","MISSING/NOT SPECIFIED","TX","Tyler","48457","Tyler County"
"-92.519493584","32.867394066","2000133","400128412","SFO-2017LADAF123395","NONFED","ST-NASF","ST/C&L","USLALAS","Louisiana Office of Forestry","LADAF","Louisiana Department of Agriculture and Forestry","","123395","","","","","","","","2017","2017/10/16 00:00:00+00","289","1800","Human","Debris and open burning","","2017/10/16 00:00:00+00","289","2005","1.21","B","32.8674","-92.5195","PRIVATE","LA","Union","22111","Union Parish"
"-94.817092998","32.534060897","2000134","400128413","SFO-2017TXTXS5611","NONFED","ST-NASF","ST/C&L","USTXTXS","Texas A & M Forest Service","TXTXS","Texas Forest Service","","5611","","6186","","","","","","2017","2017/10/16 00:00:00+00","289","2028","Human","Debris and open burning","","2017/10/16 00:00:00+00","289","2242","1","B","32.53406667","-94.8171","MISSING/NOT SPECIFIED","TX","Gregg","48183","Gregg County"
"-92.569093616","32.045994234","2000135","400128414","SFO-2017LADAF123345","NONFED","ST-NASF","ST/C&L","USLALAS","Louisiana Office of Forestry","LADAF","Louisiana Department of Agriculture and Forestry","","123345","","","","","","","","2017","2017/10/16 00:00:00+00","289","1958","Human","Debris and open burning","","2017/10/16 00:00:00+00","289","2250","2.49","B","32.046","-92.5691","PRIVATE","LA","Winn","22127","Winn Parish"
"-70.984275452","42.041404385","2000136","400128415","SFO-2017MADCRMA020170128","NONFED","ST-NASF","ST/C&L","USMAMAS","Massachusetts Bureau of Forest Fire Control","MADCR","Massachusetts Department of Conservation and Recreation","","MA020170128","","","","","","","","2017","2017/10/16 00:00:00+00","289","1512","Human","Debris and open burning","","2017/10/16 00:00:00+00","289","","0.25","A","42.041413","-70.984276","MISSING/NOT SPECIFIED","MA","Plymouth","25023","Plymouth County"
"-79.652228049","36.424786821","2000137","400128416","SFO-2017NCNCSNCST-079-FY2017-0047","NONFED","ST-NASF","ST/C&L","USNCNCS","North Carolina Forest Service","NCNCS","North Carolina State Division of Forest Resouces","","NCST-079-FY2017-0047","","NOT ME","","","","","","2017","2017/02/25 00:00:00+00","56","1331","Human","Debris and open burning","","2017/02/25 00:00:00+00","56","1401","1.61","B","36.424794","-79.652231","MISSING/NOT SPECIFIED","NC","Rockingham","37157","Rockingham County"
"-111.169988409","40.779993904","2000138","400128417","SFO-2017UTFFSL8323","NONFED","ST-NASF","ST/C&L","USUTUTS","Utah Division Forestry Fire State Lands","UTFFSL","Utah Division of Forestry, Fire & State Lands","","8323","","PINE MOUNTAIN","","","","","","2017","2017/10/15 00:00:00+00","288","","Human","Debris and open burning","","2017/10/16 00:00:00+00","289","","0.01","A","40.78","-111.17","PRIVATE","UT","Summit","49043","Summit County"
"-69.27531986","44.787800823","2000139","400128418","SFO-2017MEMES41307051","NONFED","ST-NASF","ST/C&L","USMEMES","Maine Forest Service","MEMES","Maine Forest Service","","41307051","","CREAMER","","","","","","2017","2017/10/17 00:00:00+00","290","","Human","Debris and open burning","","2017/10/17 00:00:00+00","290","","3","B","44.78781","-69.27532","PRIVATE","ME","Penobscot","23019","Penobscot County"
"-123.579085146","46.599604571","2000140","400128419","SFO-2017WADNR520","NONFED","ST-NASF","ST/C&L","USWAWAS","Washington State Department of Natural Resources Headquarters","WADNR","Washington Department of Natural Resources","","520","","P&E","","","","","","2017","2017/10/16 00:00:00+00","289","1611","Human","Debris and open burning","","2017/10/17 00:00:00+00","290","0800","5","B","46.59961","-123.5791","STATE","WA","41","53041","Lewis County"
"-120.738790384","47.542439213","2000141","400128420","SFO-2017WADNR559","NONFED","ST-NASF","ST/C&L","USWAWAS","Washington State Department of Natural Resources Headquarters","WADNR","Washington Department of Natural Resources","","559","","ICICLE CREEK","","","","","","2017","2017/10/13 00:00:00+00","286","1330","Human","Debris and open burning","","2017/10/17 00:00:00+00","290","1030","0.1","A","47.542445","-120.738805","PRIVATE","WA","7","53007","Chelan County"
"-101.807704709","47.964375596","2000142","400128421","SFO-2017513092018-16","NONFED","ST-NASF","ST/C&L","USNDNDS","North Dakota State Forest Service","51309","Local Fire Department","","2018-16","","ZABLOTNEY","","","","","","2017","2017/10/17 00:00:00+00","290","1042","Human","Debris and open burning","","2017/10/17 00:00:00+00","290","1057","1","B","47.9643833","-101.8077153","PRIVATE","ND","Ward","38101","Ward County"
"-94.728776394","31.765577705","2000143","400128422","SFO-2017TXTXS5610","NONFED","ST-NASF","ST/C&L","USTXTXS","Texas A & M Forest Service","TXTXS","Texas Forest Service","","5610","","7144","","","","","","2017","2017/10/16 00:00:00+00","289","1750","Human","Debris and open burning","","2017/10/17 00:00:00+00","290","1156","4.5","B","31.76558333","-94.72878333","MISSING/NOT SPECIFIED","TX","Nacogdoches","48347","Nacogdoches County"
"-81.869396748","28.577494661","2000144","400128423","SFO-2017FLFLS2017110513","NONFED","ST-NASF","ST/C&L","USFLFLS","Florida Forest Service","FLFLS","Florida Forest Service","","2017110513","","VILLA CITY (35)","","","","","","2017","2017/10/16 00:00:00+00","289","1100","Human","Debris and open burning","","2017/10/17 00:00:00+00","290","1224","2","B","28.5775","-81.8694","PRIVATE","FL","Lake","12069","Lake County"
"-82.201413132","33.181938051","2000145","400128424","SFO-2017GAGAS-FY2018-Burke-011","NONFED","ST-NASF","ST/C&L","USGAGAS","Georgia Forestry Commission","GAGAS","Georgia Forestry Commission","","FY2018-Burke-011","","FY2018-BURKE-011","","","","","","2017","2017/10/17 00:00:00+00","290","1219","Human","Debris and open burning","","2017/10/17 00:00:00+00","290","1227","1.01","B","33.18194444","-82.20141667","PRIVATE","GA","Burke               ","13033","Burke County"
"-84.587909767","30.880077534","2000146","400128425","SFO-2017GAGAS-FY2018-Decatur-004","NONFED","ST-NASF","ST/C&L","USGAGAS","Georgia Forestry Commission","GAGAS","Georgia Forestry Commission","","FY2018-Decatur-004","","FY2018-DECATUR-004","","","","","","2017","2017/10/17 00:00:00+00","290","1017","Human","Debris and open burning","","2017/10/17 00:00:00+00","290","1239","0.48","B","30.88008333","-84.58791389","STATE","GA","Decatur             ","13087","Decatur County"
"-84.563093081","31.406116305","2000147","400128426","SFO-2017GAGAS-FY2018-Baker-002","NONFED","ST-NASF","ST/C&L","USGAGAS","Georgia Forestry Commission","GAGAS","Georgia Forestry Commission","","FY2018-Baker-002","","FY2018-BAKER-002","","","","","","2017","2017/10/17 00:00:00+00","290","1134","Human","Debris and open burning","","2017/10/17 00:00:00+00","290","1246","0.23","A","31.40612222","-84.56309722","PRIVATE","GA","Baker               ","13007","Baker County"
"-81.879718783","33.051549188","2000148","400128427","SFO-2017GAGAS-FY2018-Burke-010","NONFED","ST-NASF","ST/C&L","USGAGAS","Georgia Forestry Commission","GAGAS","Georgia Forestry Commission","","FY2018-Burke-010","","FY2018-BURKE-010","","","","","","2017","2017/10/17 00:00:00+00","290","1155","Human","Debris and open burning","","2017/10/17 00:00:00+00","290","1307","11.8","C","33.05155556","-81.87972222","PRIVATE","GA","Burke               ","13033","Burke County"
"-112.066987308","46.300093418","2000149","400128428","SFO-2017MTCES000341","NONFED","ST-NASF","ST/C&L","USMTCES","Central Land Office","MTCES","Central Land Office","","000341","","QUAKEY","","","","","","2017","2017/10/17 00:00:00+00","290","1147","Human","Debris and open burning","","2017/10/17 00:00:00+00","290","1347","0.25","A","46.3001","-112.067","PRIVATE","MT","Jefferson","30043","Jefferson County"
"-82.553608301","34.310548378","2000150","400128429","SFO-2017SCSCS18NF0041","NONFED","ST-NASF","ST/C&L","USSCSCS","South Carolina Forestry Commission","SCSCS","South Carolina Forestry Commission","","18NF0041","","","","","","","","2017","2017/10/17 00:00:00+00","290","1258","Human","Debris and open burning","","2017/10/17 00:00:00+00","290","1359","13","C","34.310555","-82.553612","PRIVATE","SC","Abbeville County","45001","Abbeville County"
"-117.352385874","48.026583819","2000151","400128430","SFO-2017WADNR821","NONFED","ST-NASF","ST/C&L","USWAWAS","Washington State Department of Natural Resources Headquarters","WADNR","Washington Department of Natural Resources","","821","","GIRAFFE PILE","","","","","","2017","2017/10/14 00:00:00+00","287","1100","Human","Debris and open burning","","2017/10/17 00:00:00+00","290","1400","0.01","A","48.02659","-117.3524","PRIVATE","WA","63","53063","Spokane County"
"-80.849521841","33.585023475","2000152","400128431","SFO-2017SCSCS18WF0055","NONFED","ST-NASF","ST/C&L","USSCSCS","South Carolina Forestry Commission","SCSCS","South Carolina Forestry Commission","","18WF0055","","","","","","","","2017","2017/10/17 00:00:00+00","290","1322","Human","Debris and open burning","","2017/10/17 00:00:00+00","290","1401","0.3","B","33.58503","-80.849525","PRIVATE","SC","Orangeburg County","45075","Orangeburg County"
"-84.767773585","31.347216324","2000153","400128432","SFO-2017GAGAS-FY2018-Early-004","NONFED","ST-NASF","ST/C&L","USGAGAS","Georgia Forestry Commission","GAGAS","Georgia Forestry Commission","","FY2018-Early-004","","FY2018-EARLY-004","","","","","","2017","2017/10/17 00:00:00+00","290","1351","Human","Debris and open burning","","2017/10/17 00:00:00+00","290","1500","3.12","B","31.34722222","-84.76777778","PRIVATE","GA","Early               ","13099","Early County"
"-80.971531808","33.503709498","2000154","400128433","SFO-2017SCSCS18WF0056","NONFED","ST-NASF","ST/C&L","USSCSCS","South Carolina Forestry Commission","SCSCS","South Carolina Forestry Commission","","18WF0056","","","","","","","","2017","2017/10/17 00:00:00+00","290","1420","Human","Debris and open burning","","2017/10/17 00:00:00+00","290","1514","0.5","B","33.503716","-80.971535","PRIVATE","SC","Orangeburg County","45075","Orangeburg County"
"-84.069968179","32.351993858","2000155","400128434","SFO-2017GAGAS-FY2018-Macon-004","NONFED","ST-NASF","ST/C&L","USGAGAS","Georgia Forestry Commission","GAGAS","Georgia Forestry Commission","","FY2018-Macon-004","","FY2018-MACON-004","","","","","","2017","2017/10/17 00:00:00+00","290","1527","Human","Debris and open burning","","2017/10/17 00:00:00+00","290","1543","0.17","A","32.352","-84.06997222","PRIVATE","GA","Macon               ","13193","Macon County"
"-71.511039268","42.244763363","2000156","400128435","SFO-2017MADCRMA1400170064 ","NONFED","ST-NASF","ST/C&L","USMAMAS","Massachusetts Bureau of Forest Fire Control","MADCR","Massachusetts Department of Conservation and Recreation","","MA1400170064 ","","HOPKINTON","","","","","","2017","2017/10/17 00:00:00+00","290","1526","Human","Debris and open burning","","2017/10/17 00:00:00+00","290","1555","0.25","A","42.244772","-71.51104","PRIVATE","MA","Middlesex","25017","Middlesex County"
"-95.416459548","31.904944374","2000157","400128436","SFO-2017TXTXS5612","NONFED","ST-NASF","ST/C&L","USTXTXS","Texas A & M Forest Service","TXTXS","Texas Forest Service","","5612","","7146","","","","","","2017","2017/10/17 00:00:00+00","290","1413","Human","Debris and open burning","","2017/10/17 00:00:00+00","290","1605","1","B","31.90495","-95.41646667","MISSING/NOT SPECIFIED","TX","Cherokee","48073","Cherokee County"
"-124.387205726","43.103324845","2000158","400128437","SFO-2017ORODF1772311218","NONFED","ST-NASF","ST/C&L","USORORS","Oregon Department of Forestry Salem Headquarters","ORODF","Oregon Department of Forestry","","1772311218","","BILL CREEK LANE","","","","","","2017","2017/10/17 00:00:00+00","290","1310","Human","Debris and open burning","","2017/10/17 00:00:00+00","290","1610","0.71","B","43.10333","-124.38722","PRIVATE","OR","Coos","41011","Coos County"
"-114.935686468","47.481993604","2000159","400128438","SFO-2017MTNWS704013","NONFED","ST-NASF","ST/C&L","USMTNWS","Northwestern Land Office","MTNWS","Northwestern Land Office","","704013","","SAND HILL","","","","","","2017","2017/10/17 00:00:00+00","290","1531","Human","Debris and open burning","","2017/10/17 00:00:00+00","290","1627","0.1","A","47.482","-114.9357","PRIVATE","MT","Sanders","30089","Sanders County"
"-95.351809561","31.984044356","2000160","400128439","SFO-2017TXTXS5613","NONFED","ST-NASF","ST/C&L","USTXTXS","Texas A & M Forest Service","TXTXS","Texas Forest Service","","5613","","7145","","","","","","2017","2017/10/17 00:00:00+00","290","1420","Human","Debris and open burning","","2017/10/17 00:00:00+00","290","1650","20.5","C","31.98405","-95.35181667","MISSING/NOT SPECIFIED","TX","Cherokee","48073","Cherokee County"
"-82.89639356","31.441485693","2000161","400128440","SFO-2017GAGAS-FY2018-Coffee-015","NONFED","ST-NASF","ST/C&L","USGAGAS","Georgia Forestry Commission","GAGAS","Georgia Forestry Commission","","FY2018-Coffee-015","","FY2018-COFFEE-015","","","","","","2017","2017/10/17 00:00:00+00","290","1642","Human","Debris and open burning","","2017/10/17 00:00:00+00","290","1716","1","B","31.44149167","-82.89639722","PRIVATE","GA","Coffee              ","13069","Coffee County"
"-96.002076124","30.641761317","2000162","400128441","SFO-2017TXTXS5614","NONFED","ST-NASF","ST/C&L","USTXTXS","Texas A & M Forest Service","TXTXS","Texas Forest Service","","5614","","4042","","","","","","2017","2017/10/17 00:00:00+00","290","1625","Human","Debris and open burning","","2017/10/17 00:00:00+00","290","1752","9","B","30.64176667","-96.00208333","MISSING/NOT SPECIFIED","TX","Grimes","48185","Grimes County"
"-114.830286355","48.071693549","2000163","400128442","SFO-2017MTNWS000878","NONFED","ST-NASF","ST/C&L","USMTNWS","Northwestern Land Office","MTNWS","Northwestern Land Office","","000878","","SOUTH LOST PRAIRIE","","","","","","2017","2017/10/17 00:00:00+00","290","1420","Human","Debris and open burning","","2017/10/17 00:00:00+00","290","2000","50","C","48.0717","-114.8303","PRIVATE","MT","Flathead","30029","Flathead County"
"-93.477493466","30.227994642","2000164","400128443","SFO-2017LADAF123352","NONFED","ST-NASF","ST/C&L","USLALAS","Louisiana Office of Forestry","LADAF","Louisiana Department of Agriculture and Forestry","","123352","","","","","","","","2017","2017/10/17 00:00:00+00","290","1930","Human","Debris and open burning","","2017/10/17 00:00:00+00","290","2305","6.5","B","30.228","-93.4775","PRIVATE","LA","Calcasieu","22019","Calcasieu Parish"
"-98.669755194","47.18233212","2000165","400128444","SFO-2017470672018-02","NONFED","ST-NASF","ST/C&L","USNDNDS","North Dakota State Forest Service","47067","Local Fire Department","","2018-02","","201702","","","","","","2017","2017/10/17 00:00:00+00","290","","Human","Debris and open burning","","2017/10/17 00:00:00+00","290","","1","B","47.18234","-98.6697648","PRIVATE","ND","Stutsman","38093","Stutsman County"
"-70.984275452","42.041404385","2000166","400128445","SFO-2017MADCRMA020170129","NONFED","ST-NASF","ST/C&L","USMAMAS","Massachusetts Bureau of Forest Fire Control","MADCR","Massachusetts Department of Conservation and Recreation","","MA020170129","","","","","","","","2017","2017/10/17 00:00:00+00","290","0746","Human","Debris and open burning","","2017/10/17 00:00:00+00","290","","0.25","A","42.041413","-70.984276","MISSING/NOT SPECIFIED","MA","Plymouth","25023","Plymouth County"
"-69.28593987","44.560120865","2000167","400128446","SFO-2017MEMES42307097","NONFED","ST-NASF","ST/C&L","USMEMES","Maine Forest Service","MEMES","Maine Forest Service","","42307097","","NEAR MISS FIRE","","","","","","2017","2017/10/18 00:00:00+00","291","","Human","Debris and open burning","","2017/10/18 00:00:00+00","291","","0.2","A","44.56013","-69.28594","PRIVATE","ME","Waldo","23027","Waldo County"
"-114.438986396","48.233493495","2000168","400128447","SFO-2017MTNWS000898","NONFED","ST-NASF","ST/C&L","USMTNWS","Northwestern Land Office","MTNWS","Northwestern Land Office","","000898","","BLUE GRASS RIDGE 2","","","","","","2017","2017/10/18 00:00:00+00","291","1003","Human","Debris and open burning","","2017/10/18 00:00:00+00","291","1200","0.01","A","48.2335","-114.439","PRIVATE","MT","Flathead","30029","Flathead County"
"-95.583549745","48.54274757","2000169","400128448","SFO-2017MNMNS2017-121-072","NONFED","ST-NASF","ST/C&L","USMNMNS","Minnesota Department of Natural Resources","MNMNS","Minnesota Department of Natural Resources","","2017-121-072","","","","","","","","2017","2017/10/18 00:00:00+00","291","0933","Human","Debris and open burning","","2017/10/18 00:00:00+00","291","1227","2","B","48.54275587","-95.58355873","PRIVATE","MN","Roseau","27135","Roseau County"
"-97.239442507","30.105828128","2000170","400128449","SFO-2017TXTXS5609","NONFED","ST-NASF","ST/C&L","USTXTXS","Texas A & M Forest Service","TXTXS","Texas Forest Service","","5609","","GOTIER TRACE","","","","","","2017","2017/10/16 00:00:00+00","289","1659","Human","Debris and open burning","","2017/10/18 00:00:00+00","291","1326","17.2","C","30.10583333","-97.23945","MISSING/NOT SPECIFIED","TX","Bastrop","48021","Bastrop County"
"-116.472309703","48.148832706","2000171","400128450","SFO-2017IDDL2302017021","NONFED","ST-NASF","ST/C&L","USIDIDS","Idaho Department of Lands","IDDL","Idaho Department of Lands","","2302017021","","PONDEROSA","","","","","","2017","2017/10/13 00:00:00+00","286","1200","Human","Debris and open burning","","2017/10/18 00:00:00+00","291","1330","0.3","B","48.14883899","-116.47232369","PRIVATE","ID","Bonner","16017","Bonner County"
"-78.606797048","41.362391797","2000172","400128451","SFO-2017PAPAS13(17)2-001","NONFED","ST-NASF","ST/C&L","USPAPAS","Pennsylvania Division of Forest Fire Protection","PAPAS","Pennsylvania Division of Forest Fire Protection","","13(17)2-001","","BEIMEL","","","","","","2017","2017/10/18 00:00:00+00","291","1312","Human","Debris and open burning","","2017/10/18 00:00:00+00","291","1330","0.1","A","41.3624","-78.6068","MISSING/NOT SPECIFIED","PA","ELK","42047","Elk County"
"-98.893593469","48.07553103","2000173","400128452","SFO-2017360792018-57","NONFED","ST-NASF","ST/C&L","USNDNDS","North Dakota State Forest Service","36079","Local Fire Department","","2018-57","","QUIET","","","","","","2017","2017/10/18 00:00:00+00","291","1312","Human","Debris and open burning","","2017/10/18 00:00:00+00","291","1402","1","B","48.075539","-98.8936033","MUNICIPAL/LOCAL","ND","Ramsey","38071","Ramsey County"
"-82.180407668","31.200938495","2000174","400128453","SFO-2017GAGAS-FY2018-Brantley-005","NONFED","ST-NASF","ST/C&L","USGAGAS","Georgia Forestry Commission","GAGAS","Georgia Forestry Commission","","FY2018-Brantley-005","","FY2018-BRANTLEY-005","","","","","","2017","2017/10/18 00:00:00+00","291","1313","Human","Debris and open burning","","2017/10/18 00:00:00+00","291","1406","0.1","A","31.20094444","-82.18041111","PRIVATE","GA","Brantley            ","13025","Brantley County"
"-95.244826254","31.885377701","2000175","400128454","SFO-2017TXTXS5616","NONFED","ST-NASF","ST/C&L","USTXTXS","Texas A & M Forest Service","TXTXS","Texas Forest Service","","5616","","7147","","","","","","2017","2017/10/18 00:00:00+00","291","1342","Human","Debris and open burning","","2017/10/18 00:00:00+00","291","1444","0.5","B","31.88538333","-95.24483333","MISSING/NOT SPECIFIED","TX","Cherokee","48073","Cherokee County"
"-82.567901944","32.567815979","2000176","400128455","SFO-2017GAGAS-FY2018-Emanuel-009","NONFED","ST-NASF","ST/C&L","USGAGAS","Georgia Forestry Commission","GAGAS","Georgia Forestry Commission","","FY2018-Emanuel-009","","FY2018-EMANUEL-009","","","","","","2017","2017/10/18 00:00:00+00","291","1403","Human","Debris and open burning","","2017/10/18 00:00:00+00","291","1447","0.32","B","32.56782222","-82.56790556","PRIVATE","GA","Emanuel             ","13107","Emanuel County"
"-118.285185727","47.917813926","2000177","400128456","SFO-2017WADNR840","NONFED","ST-NASF","ST/C&L","USWAWAS","Washington State Department of Natural Resources Headquarters","WADNR","Washington Department of Natural Resources","","840","","MILES","","","","","","2017","2017/10/17 00:00:00+00","290","1430","Human","Debris and open burning","","2017/10/18 00:00:00+00","291","1508","1","B","47.91782","-118.2852","PRIVATE","WA","43","53043","Lincoln County"
"-94.963643052","30.803727906","2000178","400128457","SFO-2017TXTXS5617","NONFED","ST-NASF","ST/C&L","USTXTXS","Texas A & M Forest Service","TXTXS","Texas Forest Service","","5617","","","","","","","","2017","2017/10/18 00:00:00+00","291","1341","Human","Debris and open burning","","2017/10/18 00:00:00+00","291","1517","3.5","B","30.80373333","-94.96365","MISSING/NOT SPECIFIED","TX","Polk","48373","Polk County"
"-113.925886851","46.653893569","2000179","400128458","SFO-2017MTSWS000079","NONFED","ST-NASF","ST/C&L","USMTSWS","Southwestern Land Office","MTSWS","Southwestern Land Office","","000079","","ELK SPRINGS","","","","","","2017","2017/10/17 00:00:00+00","290","1725","Human","Debris and open burning","","2017/10/18 00:00:00+00","291","1518","1.8","B","46.6539","-113.9259","PRIVATE","MT","Ravalli","30081","Ravalli County"
"-92.714993609","31.441394363","2000180","400128459","SFO-2017LADAF123355","NONFED","ST-NASF","ST/C&L","USLALAS","Louisiana Office of Forestry","LADAF","Louisiana Department of Agriculture and Forestry","","123355","","","","","","","","2017","2017/10/18 00:00:00+00","291","1410","Human","Debris and open burning","","2017/10/18 00:00:00+00","291","1520","32.4","C","31.4414","-92.715","PRIVATE","LA","Rapides-6 (3)","22079","Rapides Parish"
"-71.522929269","42.154596381","2000181","400128460","SFO-2017MADCRMA1400170065 ","NONFED","ST-NASF","ST/C&L","USMAMAS","Massachusetts Bureau of Forest Fire Control","MADCR","Massachusetts Department of Conservation and Recreation","","MA1400170065 ","","MILFORD","","","","","","2017","2017/10/18 00:00:00+00","291","1515","Human","Debris and open burning","","2017/10/18 00:00:00+00","291","1549","0.25","A","42.154605","-71.52293","PRIVATE","MA","Middlesex","25017","Middlesex County"
"-94.737943006","32.741394183","2000182","400128461","SFO-2017TXTXS5618","NONFED","ST-NASF","ST/C&L","USTXTXS","Texas A & M Forest Service","TXTXS","Texas Forest Service","","5618","","6188","","","","","","2017","2017/10/18 00:00:00+00","291","1410","Human","Debris and open burning","","2017/10/18 00:00:00+00","291","1550","2","B","32.7414","-94.73795","MISSING/NOT SPECIFIED","TX","Upshur","48459","Upshur County"
"-93.513270083","46.650725748","2000183","400128462","SFO-2017MNMNS2017-232-015","NONFED","ST-NASF","ST/C&L","USMNMNS","Minnesota Department of Natural Resources","MNMNS","Minnesota Department of Natural Resources","","2017-232-015","","","","","","","","2017","2017/10/18 00:00:00+00","291","1520","Human","Debris and open burning","","2017/10/18 00:00:00+00","291","1610","0.5","B","46.65073396","-93.51327815","PRIVATE","MN","Aitkin","27001","Aitkin County"
"-80.80508886","33.464726501","2000184","400128463","SFO-2017SCSCS18WF0058","NONFED","ST-NASF","ST/C&L","USSCSCS","South Carolina Forestry Commission","SCSCS","South Carolina Forestry Commission","","18WF0058","","","","","","","","2017","2017/10/18 00:00:00+00","291","1527","Human","Debris and open burning","","2017/10/18 00:00:00+00","291","1624","0.3","B","33.464733","-80.805092","PRIVATE","SC","Orangeburg County","45075","Orangeburg County"
"-93.229290975","48.425690119","2000185","400128464","SFO-2017MNMNS2017-261-011","NONFED","ST-NASF","ST/C&L","USMNMNS","Minnesota Department of Natural Resources","MNMNS","Minnesota Department of Natural Resources","","2017-261-011","","","","","","","","2017","2017/10/18 00:00:00+00","291","1340","Human","Debris and open burning","","2017/10/18 00:00:00+00","291","1630","1","B","48.42569859","-93.22929925","PRIVATE","MN","Koochiching","27071","Koochiching County"
"-80.305989014","33.326474515","2000186","400128465","SFO-2017SCSCS18WF0060","NONFED","ST-NASF","ST/C&L","USSCSCS","South Carolina Forestry Commission","SCSCS","South Carolina Forestry Commission","","18WF0060","","","","","","","","2017","2017/10/18 00:00:00+00","291","1212","Human","Debris and open burning","","2017/10/18 00:00:00+00","291","1640","30","C","33.326481","-80.305992","PRIVATE","SC","Orangeburg County","45075","Orangeburg County"
"-93.343893404","32.16569424","2000187","400128466","SFO-2017LADAF123356","NONFED","ST-NASF","ST/C&L","USLALAS","Louisiana Office of Forestry","LADAF","Louisiana Department of Agriculture and Forestry","","123356","","","","","","","","2017","2017/10/18 00:00:00+00","291","1600","Human","Debris and open burning","","2017/10/18 00:00:00+00","291","1700","0.72","B","32.1657","-93.3439","PRIVATE","LA","Red River","22081","Red River Parish"
"-112.801987054","46.784593447","2000188","400128468","SFO-2017MTSWS003027","NONFED","ST-NASF","ST/C&L","USMTSWS","Southwestern Land Office","MTSWS","Southwestern Land Office","","003027","","LOWER LAKE","","","","","","2017","2017/10/17 00:00:00+00","290","1622","Human","Debris and open burning","","2017/10/18 00:00:00+00","291","1720","18","C","46.7846","-112.802","PRIVATE","MT","Powell","30077","Powell County"
"-83.042496269","32.070827216","2000189","400128469","SFO-2017GAGAS-FY2018-Dodge-005","NONFED","ST-NASF","ST/C&L","USGAGAS","Georgia Forestry Commission","GAGAS","Georgia Forestry Commission","","FY2018-Dodge-005","","FY2018-DODGE-005","","","","","","2017","2017/10/18 00:00:00+00","291","1611","Human","Debris and open burning","","2017/10/18 00:00:00+00","291","1737","1.2","B","32.07083333","-83.0425","PRIVATE","GA","Dodge               ","13091","Dodge County"
"-84.859162447","31.386660769","2000190","400128470","SFO-2017GAGAS-FY2018-Early-005","NONFED","ST-NASF","ST/C&L","USGAGAS","Georgia Forestry Commission","GAGAS","Georgia Forestry Commission","","FY2018-Early-005","","FY2018-EARLY-005","","","","","","2017","2017/10/18 00:00:00+00","291","1625","Human","Debris and open burning","","2017/10/18 00:00:00+00","291","1741","3.74","B","31.38666667","-84.85916667","PRIVATE","GA","Early               ","13099","Early County"
"-81.20254617","37.606203088","2000191","400128471","SFO-2017WVDOF2017-36531","NONFED","ST-NASF","ST/C&L","USWVWVS","West Virginia Division of Forestry","WVDOF","West Virginia Division of Forestry","","2017-36531","","ODD RD","","","","","","2017","2017/10/18 00:00:00+00","291","1528","Human","Debris and open burning","","2017/10/18 00:00:00+00","291","1800","4","B","37.60621045","-81.20254966","PRIVATE","WV","Raleigh","54081","Raleigh County"
"-78.726597005","41.432491789","2000192","400128472","SFO-2017PAPAS13(17)2-002","NONFED","ST-NASF","ST/C&L","USPAPAS","Pennsylvania Division of Forest Fire Protection","PAPAS","Pennsylvania Division of Forest Fire Protection","","13(17)2-002","","FRONT STREET","","","","","","2017","2017/10/18 00:00:00+00","291","1828","Human","Debris and open burning","","2017/10/18 00:00:00+00","291","1840","0.1","A","41.4325","-78.7266","MISSING/NOT SPECIFIED","PA","ELK","42047","Elk County"
"-94.773046028","48.830064019","2000193","400128473","SFO-2017MNMNS2017-131-018","NONFED","ST-NASF","ST/C&L","USMNMNS","Minnesota Department of Natural Resources","MNMNS","Minnesota Department of Natural Resources","","2017-131-018","","","","","","","","2017","2017/10/18 00:00:00+00","291","1830","Human","Debris and open burning","","2017/10/18 00:00:00+00","291","1855","0.1","A","48.83007242","-94.77305483","PRIVATE","MN","Lake of the Woods","27077","Lake of the Woods County"
"-87.918994738","34.658993515","2000194","400128474","SFO-2017ALAFC13104","NONFED","ST-NASF","ST/C&L","USALALS","Alabama Forestry Commission","ALAFC","Alabama Forestry Commission","","13104","","20171018-5","","","","","","2017","2017/10/18 00:00:00+00","291","1621","Human","Debris and open burning","","2017/10/18 00:00:00+00","291","1926","5","B","34.659","-87.919","MISSING/NOT SPECIFIED","AL","Colbert","01033","Colbert County"
"-95.10054293","32.433310928","2000195","400128475","SFO-2017TXTXS5623","NONFED","ST-NASF","ST/C&L","USTXTXS","Texas A & M Forest Service","TXTXS","Texas Forest Service","","5623","","6189","","","","","","2017","2017/10/18 00:00:00+00","291","1800","Human","Debris and open burning","","2017/10/18 00:00:00+00","291","1926","1","B","32.43331667","-95.10055","MISSING/NOT SPECIFIED","TX","Smith","48423","Smith County"
"-80.347599928","34.808129191","2000196","400128476","SFO-2017SCSCS18FF0089","NONFED","ST-NASF","ST/C&L","USSCSCS","South Carolina Forestry Commission","SCSCS","South Carolina Forestry Commission","","18FF0089","","","","","","","","2017","2017/10/18 00:00:00+00","291","1805","Human","Debris and open burning","","2017/10/18 00:00:00+00","291","1929","2","B","34.808136","-80.347603","PRIVATE","SC","Chesterfield County","45025","Chesterfield County"
"-95.171776274","31.860894373","2000197","400128477","SFO-2017TXTXS5622","NONFED","ST-NASF","ST/C&L","USTXTXS","Texas A & M Forest Service","TXTXS","Texas Forest Service","","5622","","7148","","","","","","2017","2017/10/18 00:00:00+00","291","1720","Human","Debris and open burning","","2017/10/18 00:00:00+00","291","1935","2.6","B","31.8609","-95.17178333","MISSING/NOT SPECIFIED","TX","Cherokee","48073","Cherokee County"
"-124.169155762","43.074434826","2000198","400128478","SFO-2017ORODF1772211418","NONFED","ST-NASF","ST/C&L","USORORS","Oregon Department of Forestry Salem Headquarters","ORODF","Oregon Department of Forestry","","1772211418","","PLEASANT VALLEY","","","","","","2017","2017/10/18 00:00:00+00","291","1610","Human","Debris and open burning","","2017/10/18 00:00:00+00","291","2110","15.69","C","43.07444","-124.16917","PRIVATE","OR","Coos","41011","Coos County"
"-123.448315753","43.715274719","2000199","400128479","SFO-2017ORODF1773117418","NONFED","ST-NASF","ST/C&L","USORORS","Oregon Department of Forestry Salem Headquarters","ORODF","Oregon Department of Forestry","","1773117418","","TOM FOLLEY","","","","","","2017","2017/10/18 00:00:00+00","291","1310","Human","Debris and open burning","","2017/10/18 00:00:00+00","291","2110","8","B","43.71528","-123.44833","PRIVATE","OR","Douglas","41019","Douglas County"
"-123.78796038","39.415833034","2000200","400128480","SFO-2017CACDFMEU012610","NONFED","ST-NASF","ST/C&L","USCACDF","California Department of Forestry & Fire Protection","CACDF","Headquarters, California Department of Forestry & Fire Protection","","MEU012610","","YARD","","","","","","2017","2017/10/18 00:00:00+00","291","2138","Human","Debris and open burning","","2017/10/18 00:00:00+00","291","2155","0.01","A","39.415838","-123.787974","MISSING/NOT SPECIFIED","CA","MENDOCINO","06045","Mendocino County"
"-89.832235793","40.004172593","2000201","400128481","SFO-2017ILDNR651730001","NONFED","ST-NASF","ST/C&L","USILILS","Illinois Division of Forestry Resources","ILDNR","Illinois Department of Natural Resources","","651730001","","2017-000231","","","","","","2017","2017/10/18 00:00:00+00","291","0242","Human","Debris and open burning","","2017/10/18 00:00:00+00","291","0303","0.5","B","40.00418","-89.832242","PRIVATE","IL","65","17129","Menard County"
"-102.245739116","48.840332239","2000202","400128482","SFO-201772062018-2017015","NONFED","ST-NASF","ST/C&L","USNDNDS","North Dakota State Forest Service","7206","Local Fire Department","","2018-2017015","","BOWBELLS GRASS FIRE 2017015","","","","","","2017","2017/10/18 00:00:00+00","291","1510","Human","Debris and open burning","","2017/10/18 00:00:00+00","291","","100","D","48.84034","-102.24575","PRIVATE","ND","Burke","38013","Burke County"
"-111.619988279","41.059993908","2000203","400128483","SFO-2017UTFFSL8317","NONFED","ST-NASF","ST/C&L","USUTUTS","Utah Division Forestry Fire State Lands","UTFFSL","Utah Division of Forestry, Fire & State Lands","","8317","","SCOTT CANYON","","","","","","2017","2017/10/16 00:00:00+00","289","","Human","Debris and open burning","","2017/10/18 00:00:00+00","291","","0.25","A","41.06","-111.62","PRIVATE","UT","Morgan","49029","Morgan County"
"-124.474705761","42.831384869","2000204","400128484","SFO-2017ORODF1772311518","NONFED","ST-NASF","ST/C&L","USORORS","Oregon Department of Forestry Salem Headquarters","ORODF","Oregon Department of Forestry","","1772311518","","CRYSTAL CREEK","","","","","","2017","2017/10/19 00:00:00+00","292","0810","Human","Debris and open burning","","2017/10/19 00:00:00+00","292","1010","0.02","A","42.83139","-124.47472","PRIVATE","OR","Curry","41015","Curry County"
"-98.14615881","32.720994332","2000205","400128485","SFO-2017TXTXS5621","NONFED","ST-NASF","ST/C&L","USTXTXS","Texas A & M Forest Service","TXTXS","Texas Forest Service","","5621","","3245 VILLAGE BEND","","","","","","2017","2017/10/18 00:00:00+00","291","1625","Human","Debris and open burning","","2017/10/19 00:00:00+00","292","1140","5","B","32.721","-98.14616667","MISSING/NOT SPECIFIED","TX","Palo Pinto","48363","Palo Pinto County"
"-85.024717948","31.430549654","2000206","400128486","SFO-2017GAGAS-FY2018-Early-006","NONFED","ST-NASF","ST/C&L","USGAGAS","Georgia Forestry Commission","GAGAS","Georgia Forestry Commission","","FY2018-Early-006","","FY2018-EARLY-006","","","","","","2017","2017/10/19 00:00:00+00","292","1055","Human","Debris and open burning","","2017/10/19 00:00:00+00","292","1159","0.91","B","31.43055556","-85.02472222","PRIVATE","GA","Early               ","13099","Early County"
"-74.354398472","40.177891861","2000207","400128487","SFO-2017NJDEPB101801","NONFED","ST-NASF","ST/C&L","USNJNJS","New Jersey Forest Fire Service","NJDEP","New Jersey Department of Environmental Protection","","B101801","","","","","","","","2017","2017/10/18 00:00:00+00","291","1930","Human","Debris and open burning","","2017/10/19 00:00:00+00","292","1200","0.25","A","40.1779","-74.3544","STATE","NJ","Monmouth","34025","Monmouth County"
"-117.058685927","48.037883786","2000208","400128489","SFO-2017WADNR837","NONFED","ST-NASF","ST/C&L","USWAWAS","Washington State Department of Natural Resources Headquarters","WADNR","Washington Department of Natural Resources","","837","","JEFFERSON EAST","","","","","","2017","2017/10/17 00:00:00+00","290","0700","Human","Debris and open burning","","2017/10/19 00:00:00+00","292","1330","0.5","B","48.03789","-117.0587","PRIVATE","WA","63","53063","Spokane County"
"-82.854882469","31.266410731","2000209","400128490","SFO-2017GAGAS-FY2018-Atkinson-003","NONFED","ST-NASF","ST/C&L","USGAGAS","Georgia Forestry Commission","GAGAS","Georgia Forestry Commission","","FY2018-Atkinson-003","","FY2018-ATKINSON-003","","","","","","2017","2017/10/19 00:00:00+00","292","1301","Human","Debris and open burning","","2017/10/19 00:00:00+00","292","1336","1.05","B","31.26641667","-82.85488611","PRIVATE","GA","Atkinson            ","13003","Atkinson County"
"-85.020829059","31.4486052","2000210","400128491","SFO-2017GAGAS-FY2018-Early-007","NONFED","ST-NASF","ST/C&L","USGAGAS","Georgia Forestry Commission","GAGAS","Georgia Forestry Commission","","FY2018-Early-007","","FY2018-EARLY-007","","","","","","2017","2017/10/19 00:00:00+00","292","1255","Human","Debris and open burning","","2017/10/19 00:00:00+00","292","1412","0.12","A","31.44861111","-85.02083333","PRIVATE","GA","Early               ","13099","Early County"
"-90.077513158","45.116101771","2000211","400128492","SFO-2017Wi-WIS84030702017","NONFED","ST-NASF","ST/C&L","USWIWIS","Wisconsin Department of Natural Resources","WiWIS","Wisconsin Department of Natural Resources","","84030702017","","RANGELINE FIRE","","","","","","2017","2017/10/19 00:00:00+00","292","1355","Human","Debris and open burning","","2017/10/19 00:00:00+00","292","1423","0.34","B","45.11611","-90.07752","PRIVATE","WI","Marathon","55073","Marathon County"
"-93.320493503","30.316694618","2000212","400128493","SFO-2017LADAF123405","NONFED","ST-NASF","ST/C&L","USLALAS","Louisiana Office of Forestry","LADAF","Louisiana Department of Agriculture and Forestry","","123405","","","","","","","","2017","2017/10/19 00:00:00+00","292","1220","Human","Debris and open burning","","2017/10/19 00:00:00+00","292","1455","10.1","C","30.3167","-93.3205","PRIVATE","LA","Calcasieu","22019","Calcasieu Parish"
"-78.865782095","39.561627154","2000213","400128494","SFO-2017MDMDS4975","NONFED","ST-NASF","ST/C&L","USMDMDS","Maryland Department of Natural Resources Forest Service","MDMDS","Maryland Department of Natural Resources Forest Service","","4975","","LONG HILL DRIVE","","","","","","2017","2017/10/19 00:00:00+00","292","1330","Human","Debris and open burning","","2017/10/19 00:00:00+00","292","1500","0.6","B","39.561635","-78.865785","PRIVATE","MD","Allegany","24001","Allegany County"
"-89.663713253","45.331551712","2000214","400128495","SFO-2017Wi-WIS84030712017","NONFED","ST-NASF","ST/C&L","USWIWIS","Wisconsin Department of Natural Resources","WiWIS","Wisconsin Department of Natural Resources","","84030712017","","DONAVAN RD","","","","","","2017","2017/10/19 00:00:00+00","292","1512","Human","Debris and open burning","","2017/10/19 00:00:00+00","292","1600","0.44","B","45.33156","-89.66372","PRIVATE","WI","Lincoln","55069","Lincoln County"
"-93.989722513","46.471667187","2000215","400128496","SFO-2017MNMNS2017-142-047","NONFED","ST-NASF","ST/C&L","USMNMNS","Minnesota Department of Natural Resources","MNMNS","Minnesota Department of Natural Resources","","2017-142-047","","","","","","","","2017","2017/10/19 00:00:00+00","292","1550","Human","Debris and open burning","","2017/10/19 00:00:00+00","292","1615","0.5","B","46.47167534","-93.98973069","PRIVATE","MN","Crow Wing","27035","Crow Wing County"
"-93.481293465","30.228794642","2000216","400128497","SFO-2017LADAF123406","NONFED","ST-NASF","ST/C&L","USLALAS","Louisiana Office of Forestry","LADAF","Louisiana Department of Agriculture and Forestry","","123406","","","","","","","","2017","2017/10/19 00:00:00+00","292","1430","Human","Debris and open burning","","2017/10/19 00:00:00+00","292","1620","33.6","C","30.2288","-93.4813","PRIVATE","LA","Calcasieu","22019","Calcasieu Parish"
"-114.483086387","48.2324935","2000217","400128498","SFO-2017MTNWS000901","NONFED","ST-NASF","ST/C&L","USMTNWS","Northwestern Land Office","MTNWS","Northwestern Land Office","","000901","","DERN DRAW","","","","","","2017","2017/10/19 00:00:00+00","292","1526","Human","Debris and open burning","","2017/10/19 00:00:00+00","292","1630","0.01","A","48.2325","-114.4831","PRIVATE","MT","Flathead","30029","Flathead County"
