"ï»¿X","Y","OBJECTID","FOD_ID","FPA_ID","SOURCE_SYSTEM_TYPE","SOURCE_SYSTEM","NWCG_REPORTING_AGENCY","NWCG_REPORTING_UNIT_ID","NWCG_REPORTING_UNIT_NAME","SOURCE_REPORTING_UNIT","SOURCE_REPORTING_UNIT_NAME","LOCAL_FIRE_REPORT_ID","LOCAL_INCIDENT_ID","FIRE_CODE","FIRE_NAME","ICS_209_PLUS_INCIDENT_JOIN_ID","ICS_209_PLUS_COMPLEX_JOIN_ID","MTBS_ID","MTBS_FIRE_NAME","COMPLEX_NAME","FIRE_YEAR","DISCOVERY_DATE","DISCOVERY_DOY","DISCOVERY_TIME","NWCG_CAUSE_CLASSIFICATION","NWCG_GENERAL_CAUSE","NWCG_CAUSE_AGE_CATEGORY","CONT_DATE","CONT_DOY","CONT_TIME","FIRE_SIZE","FIRE_SIZE_CLASS","LATITUDE","LONGITUDE","OWNER_DESCR","STATE","COUNTY","FIPS_CODE","FIPS_NAME"
"-103.087241005","31.874494699","1555001","201413930","TFS-TXFD2011-331317","NONFED","ST-TXTXS","ST/C&L","USTXTXS","Texas A & M Forest Service","TXVFD","Kermit Volunteer Fire Department","","331317","","CR 305 NORTH","","","","","","2011","2011/06/10 00:00:00+00","161","","Human","Equipment and vehicle use","","","","","1","B","31.8745","-103.08725","STATE OR PRIVATE","TX","Winkler","48495","Winkler County"
"-96.288689654","31.920428406","1555002","201413931","TFS-TXFD2011-320733","NONFED","ST-TXTXS","ST/C&L","USTXTXS","Texas A & M Forest Service","TXVFD","Streetman VFD","","320733","","2011060","","","","","","2011","2011/06/10 00:00:00+00","161","","Human","Debris and open burning","","","","","3","B","31.920434","-96.288697","STATE OR PRIVATE","TX","Navarro","48349","Navarro County"
"-101.186991453","31.828705626","1555003","201413932","TFS-TXFD2011-343414","NONFED","ST-TXTXS","ST/C&L","USTXTXS","Texas A & M Forest Service","TXVFD","Sterling County VFD","","343414","","10 WEST 158","","","","","","2011","2011/06/10 00:00:00+00","161","","Human","Equipment and vehicle use","","","","","1","B","31.828711","-101.187","STATE OR PRIVATE","TX","Sterling","48431","Sterling County"
"-95.398914871","32.112598333","1555004","201413935","TFS-TXFD2011-324082","NONFED","ST-TXTXS","ST/C&L","USTXTXS","Texas A & M Forest Service","TXVFD","Bullard VFD","","324082","","11-175","","","","","","2011","2011/06/10 00:00:00+00","161","","Human","Debris and open burning","","","","","0.5","B","32.112604","-95.398922","STATE OR PRIVATE","TX","Cherokee","48073","Cherokee County"
"-99.411167848","32.393341448","1555005","201413938","TFS-TXFD2011-320797","NONFED","ST-TXTXS","ST/C&L","USTXTXS","Texas A & M Forest Service","TXVFD","Baird Volunteer Fire Dept.","","320797","","UPRR & BOWEN ROAD","","","","","","2011","2011/06/10 00:00:00+00","161","","Human","Railroad operations and maintenance","","","","","0.1","A","32.393347","-99.411176","STATE OR PRIVATE","TX","Callahan","48059","Callahan County"
"-99.969912708","32.464941459","1555006","201413939","TFS-TXFD2011-334922","NONFED","ST-TXTXS","ST/C&L","USTXTXS","Texas A & M Forest Service","TXSFD","Merkel Fire Dept","","334922","","GRASSM271","","","","","","2011","2011/06/10 00:00:00+00","161","","Human","Equipment and vehicle use","","","","","0.5","B","32.464947","-99.969921","STATE OR PRIVATE","TX","Taylor","48441","Taylor County"
"-98.740951921","32.249259445","1555007","201413940","TFS-TXFD2011-333980","NONFED","ST-TXTXS","ST/C&L","USTXTXS","Texas A & M Forest Service","TXVFD","Gorman Volunteer Fire Dept","","333980","","HEATHINGTON FIRE","","","","","","2011","2011/06/10 00:00:00+00","161","","Human","Equipment and vehicle use","","","","","5","B","32.249265","-98.7409599","STATE OR PRIVATE","TX","Eastland","48133","Eastland County"
"-98.222744147","32.284369417","1555008","201413941","TFS-TXFD2011-326365","NONFED","ST-TXTXS","ST/C&L","USTXTXS","Texas A & M Forest Service","TXVFD","Erath County Vol. Fire Rescue","","326365","","GRASS FIRE CR 430","","","","","","2011","2011/06/10 00:00:00+00","161","","Human","Equipment and vehicle use","","","","","1","B","32.284375","-98.222752","STATE OR PRIVATE","TX","Erath","48143","Erath County"
"-94.480698104","32.200885279","1555009","201413943","TFS-TXFD2011-323082","NONFED","ST-TXTXS","ST/C&L","USTXTXS","Texas A & M Forest Service","TXSFD","Beckville","","323082","","2011-0069","","","","","","2011","2011/06/10 00:00:00+00","161","","Human","Equipment and vehicle use","","","","","1","B","32.200891","-94.480705","STATE OR PRIVATE","TX","Panola","48365","Panola County"
"-97.704486251","32.713094315","1555010","201413944","TFS-TXFD2011-341558","NONFED","ST-TXTXS","ST/C&L","USTXTXS","Texas A & M Forest Service","TXVFD","Hudson Oaks VFD Inc.","","341558","","MUIR HILL","","","","","","2011","2011/06/10 00:00:00+00","161","","Human","Debris and open burning","","","","","1","B","32.7131","-97.704494","STATE OR PRIVATE","TX","Parker","48367","Parker County"
"-95.18965989","32.738188202","1555011","201413945","TFS-TXFD2011-341340","NONFED","ST-TXTXS","ST/C&L","USTXTXS","Texas A & M Forest Service","TXVFD","Holly Lake VFD","","341340","","CR 3420 HLVFD 110170","","","","","","2011","2011/06/10 00:00:00+00","161","","Human","Debris and open burning","","","","","2","B","32.738194","-95.189667","STATE OR PRIVATE","TX","Wood","48499","Wood County"
"-102.852622019","32.536533574","1555012","201413946","TFS-TXFD2011-358187","NONFED","ST-TXTXS","ST/C&L","USTXTXS","Texas A & M Forest Service","TXSFD","Seminole Fire Department","","358187","","GRASS FIRE","","","","","","2011","2011/06/10 00:00:00+00","161","","Human","Debris and open burning","","","","","5","B","32.536539","-102.852631","STATE OR PRIVATE","TX","Gaines","48165","Gaines County"
"-102.64182106","32.662928543","1555013","201413947","TFS-TXFD2011-358188","NONFED","ST-TXTXS","ST/C&L","USTXTXS","Texas A & M Forest Service","TXSFD","Seminole Fire Department","","358188","","GRASS FIRE","","","","","","2011","2011/06/10 00:00:00+00","161","","Human","Debris and open burning","","","","","1","B","32.662934","-102.64183","STATE OR PRIVATE","TX","Gaines","48165","Gaines County"
"-94.990284247","32.631893415","1555014","201413948","TFS-TXFD2011-322482","NONFED","ST-TXTXS","ST/C&L","USTXTXS","Texas A & M Forest Service","TXVFD","Pritchett Vol. Fire Dept.","","322482","","376 LOBLOLLY","","","","","","2011","2011/06/10 00:00:00+00","161","","Human","Power generation/transmission/distribution","","","","","0.25","A","32.6318992","-94.9902913","STATE OR PRIVATE","TX","Upshur","48459","Upshur County"
"-95.03633091","33.053989935","1555015","201413949","TFS-TXFD2011-321396","NONFED","ST-TXTXS","ST/C&L","USTXTXS","Texas A & M Forest Service","TXVFD","Thunderbird Volunteer Fire Dept","","321396","","DAVID BENSON","","","","","","2011","2011/06/10 00:00:00+00","161","","Human","Debris and open burning","","","","","0.25","A","33.0539958","-95.036338","STATE OR PRIVATE","TX","Camp","48063","Camp County"
"-98.853204951","26.43768429","1555016","201413950","TFS-TXFD2011-320913","NONFED","ST-TXTXS","ST/C&L","USTXTXS","Texas A & M Forest Service","TXSFD","Rio Grande City Fire Dept.","","320913","","FM 3167 ACROSS S.T.C.","","","","","","2011","2011/06/10 00:00:00+00","161","","Human","Missing data/not specified/undetermined","","","","","0.25","A","26.4376887","-98.8532127","STATE OR PRIVATE","TX","Starr","48427","Starr County"
"-98.09614341","27.2605004","1555017","201413951","TFS-TXFD2011-334512","NONFED","ST-TXTXS","ST/C&L","USTXTXS","Texas A & M Forest Service","TXVFD","Falfurrias Volunteer Fire Dept.","","334512","","GALINDO TRASH / GRASS","","","","","","2011","2011/06/10 00:00:00+00","161","","Human","Debris and open burning","","","","","3","B","27.260505","-98.096151","STATE OR PRIVATE","TX","Brooks","48047","Brooks County"
"-98.429761622","27.410430479","1555018","201413952","TFS-TXFD2011-320605","NONFED","ST-TXTXS","ST/C&L","USTXTXS","Texas A & M Forest Service","TXVFD","San Diego Volunteer Fire Department","","320605","","2994 CR 266","","","","","","2011","2011/06/10 00:00:00+00","161","","Human","Debris and open burning","","","","","3","B","27.4104351","-98.4297693","STATE OR PRIVATE","TX","Duval","48131","Duval County"
"-98.1200904","27.377138377","1555019","201413953","TFS-TXFD2011-339137","NONFED","ST-TXTXS","ST/C&L","USTXTXS","Texas A & M Forest Service","TXVFD","Premont VFD","","339137","","1 MILE N ON HW 281","","","","","","2011","2011/06/10 00:00:00+00","161","","Human","Equipment and vehicle use","","","","","10","C","27.377143","-98.120098","STATE OR PRIVATE","TX","Jim Wells","48249","Jim Wells County"
"-99.816104933","28.782289146","1555020","201413954","TFS-TXFD2011-338950","NONFED","ST-TXTXS","ST/C&L","USTXTXS","Texas A & M Forest Service","TXVFD","Crystal City VFD","","338950","","FM 1025","","","","","","2011","2011/06/10 00:00:00+00","161","","Human","Debris and open burning","","","","","1","B","28.782294","-99.816113","STATE OR PRIVATE","TX","Zavala","48507","Zavala County"
"-98.02943214","29.454779755","1555021","201413955","TFS-TXFD2011-337893","NONFED","ST-TXTXS","ST/C&L","USTXTXS","Texas A & M Forest Service","TXVFD","County Line VFD & 1st Responders","","337893","","7504 FM 467","","","","","","2011","2011/06/10 00:00:00+00","161","","Human","Missing data/not specified/undetermined","","","","","2","B","29.4547848","-98.0294398","STATE OR PRIVATE","TX","Guadalupe","48187","Guadalupe County"
"-98.463241245","29.177939024","1555022","201413956","TFS-TXFD2011-360603","NONFED","ST-TXTXS","ST/C&L","USTXTXS","Texas A & M Forest Service","TXVFD","Sandy Oaks VFD","","360603","","DEER RUN","","","","","","2011","2011/06/10 00:00:00+00","161","","Human","Arson/incendiarism","","","","","1","B","29.177944","-98.463249","STATE OR PRIVATE","TX","Bexar","48029","Bexar County"
"-98.413459258","29.160851026","1555023","201413957","TFS-TXFD2011-360627","NONFED","ST-TXTXS","ST/C&L","USTXTXS","Texas A & M Forest Service","TXVFD","Sandy Oaks VFD","","360627","","STAR OAK","","","","","","2011","2011/06/10 00:00:00+00","161","","Human","Missing data/not specified/undetermined","","","","","1","B","29.160856","-98.413467","STATE OR PRIVATE","TX","Bexar","48029","Bexar County"
"-100.313063759","30.003106928","1555024","201413959","TFS-TXFD2011-320678","NONFED","ST-TXTXS","ST/C&L","USTXTXS","Texas A & M Forest Service","TXVFD","R.E.C. Vol Fire Dept.","","320678","","WHEEL GRASS FIRE","","","","","","2011","2011/06/10 00:00:00+00","161","","Human","Missing data/not specified/undetermined","","","","","0.5","B","30.003112","-100.313072","STATE OR PRIVATE","TX","Edwards","48137","Edwards County"
"-98.007480339","29.601273925","1555025","201413960","TFS-TXFD2011-323148","NONFED","ST-TXTXS","ST/C&L","USTXTXS","Texas A & M Forest Service","TXSFD","Seguin Fire Department","","323148","","DUMP TRUCK FIRE","","","","","","2011","2011/06/10 00:00:00+00","161","","Human","Power generation/transmission/distribution","","","","","0.25","A","29.601279","-98.007488","STATE OR PRIVATE","TX","Guadalupe","48187","Guadalupe County"
"-97.741233405","29.607187915","1555026","201413961","TFS-TXFD2011-322481","NONFED","ST-TXTXS","ST/C&L","USTXTXS","Texas A & M Forest Service","TXSFD","Luling Fire Department","","322481","","6900 BLK FM 1150","","","","","","2011","2011/06/10 00:00:00+00","161","","Human","Power generation/transmission/distribution","","","","","1.5","B","29.607193","-97.741241","STATE OR PRIVATE","TX","Guadalupe","48187","Guadalupe County"
"-96.045410569","30.929645691","1555027","201413962","TFS-TXFD2011-338953","NONFED","ST-TXTXS","ST/C&L","USTXTXS","Texas A & M Forest Service","TXVFD","Madisonville VFD","","338953","","SHARRON DORTY","","","","","","2011","2011/06/10 00:00:00+00","161","","Human","Missing data/not specified/undetermined","","","","","1","B","30.9296511","-96.0454178","STATE OR PRIVATE","TX","Madison","48313","Madison County"
"-100.28216468","31.649138621","1555028","201413963","TFS-TXFD2011-330331","NONFED","ST-TXTXS","ST/C&L","USTXTXS","Texas A & M Forest Service","TXVFD","East Concho VFD","","330331","","ORIENT ROAD & TENNYSON ROAD","","","","","","2011","2011/06/10 00:00:00+00","161","","Human","Equipment and vehicle use","","","","","3","B","31.649144","-100.282173","STATE OR PRIVATE","TX","Tom Green","48451","Tom Green County"
"-96.308548676","31.428657503","1555029","201413964","TFS-TXFD2011-339831","NONFED","ST-TXTXS","ST/C&L","USTXTXS","Texas A & M Forest Service","TXVFD","East Lake Limestone VFD","","339831","","061011A","","","","","","2011","2011/06/10 00:00:00+00","161","","Human","Debris and open burning","","","","","2","B","31.428663","-96.308556","STATE OR PRIVATE","TX","Limestone","48293","Limestone County"
"-96.307861673","31.486644492","1555030","201413965","TFS-TXFD2011-339833","NONFED","ST-TXTXS","ST/C&L","USTXTXS","Texas A & M Forest Service","TXVFD","East Lake Limestone VFD","","339833","","061011B","","","","","","2011","2011/06/10 00:00:00+00","161","","Human","Equipment and vehicle use","","","","","11","C","31.48665","-96.307869","STATE OR PRIVATE","TX","Limestone","48293","Limestone County"
"-96.819775602","30.326329739","1555031","201413966","TFS-TXFD2011-336860","NONFED","ST-TXTXS","ST/C&L","USTXTXS","Texas A & M Forest Service","TXVFD","Dime Box VFD","","336860","","GRASS FIRE CR430","","","","","","2011","2011/06/10 00:00:00+00","161","","Human","Equipment and vehicle use","","","","","0.1","A","30.326335","-96.819783","STATE OR PRIVATE","TX","Lee","48287","Lee County"
"-95.219528991","30.704347606","1555032","201413967","TFS-TXFD2011-331766","NONFED","ST-TXTXS","ST/C&L","USTXTXS","Texas A & M Forest Service","TXVFD","Point Blank VFD","","331766","","SNOW HILL ROAD","","","","","","2011","2011/06/10 00:00:00+00","161","","Human","Missing data/not specified/undetermined","","","","","2","B","30.704353","-95.219536","STATE OR PRIVATE","TX","San Jacinto","48407","San Jacinto County"
"-94.957712257","30.743761988","1555033","201413968","TFS-TXFD2011-330020","NONFED","ST-TXTXS","ST/C&L","USTXTXS","Texas A & M Forest Service","TXSFD","Livingston","","330020","","350 TOWN AND COUNTRY","","","","","","2011","2011/06/10 00:00:00+00","161","","Human","Debris and open burning","","","","","1","B","30.7437674","-94.9577192","STATE OR PRIVATE","TX","Polk","48373","Polk County"
"-94.414094202","30.653265587","1555034","201413969","TFS-TXFD2011-329245","NONFED","ST-TXTXS","ST/C&L","USTXTXS","Texas A & M Forest Service","TXVFD","Warren Volunteer Fire Department","","329245","","MCCLURE ROAD","","","","","","2011","2011/06/11 00:00:00+00","162","","Human","Debris and open burning","","","","","1","B","30.653271","-94.414101","STATE OR PRIVATE","TX","Tyler","48457","Tyler County"
"-97.707228364","30.647831709","1555035","201413970","TFS-TXFD2011-326290","NONFED","ST-TXTXS","ST/C&L","USTXTXS","Texas A & M Forest Service","TXSFD","Georgetown Fire Dept","","326290","","109 SKYLINE RD.","","","","","","2011","2011/06/11 00:00:00+00","162","","Human","Power generation/transmission/distribution","","","","","0.25","A","30.647837","-97.707236","STATE OR PRIVATE","TX","Williamson","48491","Williamson County"
"-93.899817737","30.619849075","1555036","201413971","TFS-TXFD2011-322592","NONFED","ST-TXTXS","ST/C&L","USTXTXS","Texas A & M Forest Service","TXVFD","Kirbyville VFD","","322592","","K10-98","","","","","","2011","2011/06/11 00:00:00+00","162","","Human","Debris and open burning","","","","","1","B","30.6198545","-93.8998244","STATE OR PRIVATE","TX","Jasper","48241","Jasper County"
"-95.190261015","30.356132675","1555037","201413972","TFS-TXFD2011-320928","NONFED","ST-TXTXS","ST/C&L","USTXTXS","Texas A & M Forest Service","TXVFD","Bear Creek VFD","","320928","","GRASS FIRE","","","","","","2011","2011/06/11 00:00:00+00","162","","Human","Debris and open burning","","","","","0.5","B","30.356138","-95.190268","STATE OR PRIVATE","TX","San Jacinto","48407","San Jacinto County"
"-94.179776272","30.446744621","1555038","201413973","TFS-TXFD2011-363175","NONFED","ST-TXTXS","ST/C&L","USTXTXS","Texas A & M Forest Service","TXVFD","Fred Volunteer Fire Dept","","363175","","611111","","","","","","2011","2011/06/11 00:00:00+00","162","","Human","Missing data/not specified/undetermined","","","","","5","B","30.44675","-94.179783","STATE OR PRIVATE","TX","Hardin","48199","Hardin County"
"-100.340422676","31.469003656","1555039","201413974","TFS-TXFD2011-330337","NONFED","ST-TXTXS","ST/C&L","USTXTXS","Texas A & M Forest Service","TXVFD","East Concho VFD","","330337","","6102 OLD HWY 380","","","","","","2011","2011/06/11 00:00:00+00","162","","Human","Missing data/not specified/undetermined","","","","","10","C","31.469009","-100.340431","STATE OR PRIVATE","TX","Tom Green","48451","Tom Green County"
"-103.235769993","31.509917769","1555040","201413975","TFS-TXFD2011-383416","NONFED","ST-TXTXS","ST/C&L","USTXTXS","Texas A & M Forest Service","TXVFD","Wickett VFD","","383416","","21","","","","","","2011","2011/06/11 00:00:00+00","162","","Human","Power generation/transmission/distribution","","","","","10","C","31.509923","-103.235779","STATE OR PRIVATE","TX","Ward","48475","Ward County"
"-93.824866312","31.51551439","1555041","201413976","TFS-TXFD2011-320602","NONFED","ST-TXTXS","ST/C&L","USTXTXS","Texas A & M Forest Service","TXVFD","Shamrock Shores VFD","","320602","","FM 276(1700)(FIREA)","","","","","","2011","2011/06/11 00:00:00+00","162","","Human","Smoking","","","","","0.1","A","31.51552","-93.824873","STATE OR PRIVATE","TX","Sabine","48403","Sabine County"
"-97.66239953","31.520527738","1555042","201413977","TFS-TXFD2011-327652","NONFED","ST-TXTXS","ST/C&L","USTXTXS","Texas A & M Forest Service","TXVFD","Coryell City/Osage VFD","","327652","","CR 245 & 929","","","","","","2011","2011/06/11 00:00:00+00","162","","Human","Smoking","","","","","1","B","31.5205332","-97.6624072","STATE OR PRIVATE","TX","Coryell","48099","Coryell County"
"-97.27813443","31.446773537","1555043","201413978","TFS-TXFD2011-386136","NONFED","ST-TXTXS","ST/C&L","USTXTXS","Texas A & M Forest Service","TXSFD","Waco Fire Department","","386136","","CHAPEL","","","","","","2011","2011/06/11 00:00:00+00","162","","Human","Debris and open burning","","","","","10","C","31.446779","-97.278142","STATE OR PRIVATE","TX","McLennan","48309","McLennan County"
"-94.62020811","31.409750442","1555044","201413979","TFS-TXFD2011-325665","NONFED","ST-TXTXS","ST/C&L","USTXTXS","Texas A & M Forest Service","TXVFD","Moffett VFD","","325665","","63-2011","","","","","","2011","2011/06/11 00:00:00+00","162","","Human","Debris and open burning","","","","","1","B","31.409756","-94.620215","STATE OR PRIVATE","TX","Angelina","48005","Angelina County"
"-96.418389634","31.685942457","1555045","201413980","TFS-TXFD2011-320540","NONFED","ST-TXTXS","ST/C&L","USTXTXS","Texas A & M Forest Service","TXSFD","Teague","","320540","","GRASS FIRE HWY 84/FCR 930","","","","","","2011","2011/06/11 00:00:00+00","162","","Human","Missing data/not specified/undetermined","","","","","1","B","31.685948","-96.418397","STATE OR PRIVATE","TX","Freestone","48161","Freestone County"
"-94.676198999","31.346785456","1555046","201413981","TFS-TXFD2011-325664","NONFED","ST-TXTXS","ST/C&L","USTXTXS","Texas A & M Forest Service","TXVFD","Moffett VFD","","325664","","62-2011","","","","","","2011","2011/06/11 00:00:00+00","162","","Human","Debris and open burning","","","","","1.5","B","31.346791","-94.6762059","STATE OR PRIVATE","TX","Angelina","48005","Angelina County"
"-100.086814745","31.33633167","1555047","201413982","TFS-TXFD2011-339004","NONFED","ST-TXTXS","ST/C&L","USTXTXS","Texas A & M Forest Service","TXVFD","Eden VFD","","339004","","VICK LOOP","","","","","","2011","2011/06/11 00:00:00+00","162","","Human","Equipment and vehicle use","","","","","1","B","31.336337","-100.086823","STATE OR PRIVATE","TX","Concho","48095","Concho County"
"-97.785436415","29.125168012","1555048","201413983","TFS-TXFD2011-355039","NONFED","ST-TXTXS","ST/C&L","USTXTXS","Texas A & M Forest Service","TXVFD","Karnes City VFD","","355039","","DAVE PATTON","","","","","","2011","2011/06/11 00:00:00+00","162","","Human","Missing data/not specified/undetermined","","","","","5","B","29.125173","-97.785444","STATE OR PRIVATE","TX","Karnes","48255","Karnes County"
"-98.062600328","29.558003935","1555049","201413984","TFS-TXFD2011-320604","NONFED","ST-TXTXS","ST/C&L","USTXTXS","Texas A & M Forest Service","TXVFD","McQueeney VFD","","320604","","1003 PIONEER","","","","","","2011","2011/06/11 00:00:00+00","162","","Human","Smoking","","","","","0.5","B","29.558009","-98.062608","STATE OR PRIVATE","TX","Guadalupe","48187","Guadalupe County"
"-98.145004306","29.586553133","1555050","201413985","TFS-TXFD2011-326121","NONFED","ST-TXTXS","ST/C&L","USTXTXS","Texas A & M Forest Service","TXVFD","Marion Volunteer Fire Dept.","","326121","","FM78","","","","","","2011","2011/06/11 00:00:00+00","162","","Human","Railroad operations and maintenance","","","","","1","B","29.5865582","-98.145012","STATE OR PRIVATE","TX","Guadalupe","48187","Guadalupe County"
"-98.067489526","29.561841735","1555051","201413986","TFS-TXFD2011-326120","NONFED","ST-TXTXS","ST/C&L","USTXTXS","Texas A & M Forest Service","TXVFD","Marion Volunteer Fire Dept.","","326120","","PIONEER","","","","","","2011","2011/06/11 00:00:00+00","162","","Human","Debris and open burning","","","","","1","B","29.5618468","-98.0674972","STATE OR PRIVATE","TX","Guadalupe","48187","Guadalupe County"
"-97.959042713","28.12218092","1555052","201413987","TFS-TXFD2011-325984","NONFED","ST-TXTXS","ST/C&L","USTXTXS","Texas A & M Forest Service","TXVFD","Lagarto VFD","","325984","","SWINNY SWITCH FIRE","","","","","","2011","2011/06/11 00:00:00+00","162","","Human","Equipment and vehicle use","","","","","30","C","28.1221857","-97.9590503","STATE OR PRIVATE","TX","Live Oak","48297","Live Oak County"
"-99.002258146","28.381730199","1555053","201413988","TFS-TXFD2011-320823","NONFED","ST-TXTXS","ST/C&L","USTXTXS","Texas A & M Forest Service","TXVFD","Cotulla Vol. Fire Department","","320823","","469S MARTINDALE RANCH","","","","","","2011","2011/06/11 00:00:00+00","162","","Human","Debris and open burning","","","","","50","C","28.381735","-99.002266","STATE OR PRIVATE","TX","La Salle","48283","La Salle County"
"-98.999769144","28.451708185","1555054","201413989","TFS-TXFD2011-320694","NONFED","ST-TXTXS","ST/C&L","USTXTXS","Texas A & M Forest Service","TXVFD","Dilley VFD","","320694","","FM 469 4 MI. SOUTH OF HWY 97","","","","","","2011","2011/06/11 00:00:00+00","162","","Human","Missing data/not specified/undetermined","","","","","30","C","28.451713","-98.999777","STATE OR PRIVATE","TX","La Salle","48283","La Salle County"
"-99.002387142","28.47792918","1555055","201413990","TFS-TXFD2011-320695","NONFED","ST-TXTXS","ST/C&L","USTXTXS","Texas A & M Forest Service","TXVFD","Dilley VFD","","320695","","FM 469 3 MI. NORTH OF HWY 97","","","","","","2011","2011/06/11 00:00:00+00","162","","Human","Missing data/not specified/undetermined","","","","","7","B","28.477934","-99.002395","STATE OR PRIVATE","TX","La Salle","48283","La Salle County"
"-98.134962711","26.935918168","1555056","201413991","TFS-TXFD2011-334982","NONFED","ST-TXTXS","ST/C&L","USTXTXS","Texas A & M Forest Service","TXVFD","Palmview VFD","","334982","","SAN MANUEL FIRE","","","","","","2011","2011/06/11 00:00:00+00","162","","Human","Missing data/not specified/undetermined","","","","","300","E","26.9359227","-98.1349703","STATE OR PRIVATE","TX","Brooks","48047","Brooks County"
"-97.975723423","27.727597301","1555057","201413992","TFS-TXFD2011-320739","NONFED","ST-TXTXS","ST/C&L","USTXTXS","Texas A & M Forest Service","TXVFD","Orange Grove VFD","","320739","","FM 625","","","","","","2011","2011/06/11 00:00:00+00","162","","Human","Missing data/not specified/undetermined","","","","","2000","F","27.727602","-97.975731","STATE OR PRIVATE","TX","Jim Wells","48249","Jim Wells County"
"-98.133823435","26.182086625","1555058","201413993","TFS-TXFD2011-341151","NONFED","ST-TXTXS","ST/C&L","USTXTXS","Texas A & M Forest Service","TXSFD","Alamo Fire Department","","341151","","11-438","","","","","","2011","2011/06/11 00:00:00+00","162","","Human","Debris and open burning","","","","","2","B","26.182091","-98.133831","STATE OR PRIVATE","TX","Hidalgo","48215","Hidalgo County"
"-97.458207293","33.041850242","1555059","201413994","TFS-TXFD2011-321258","NONFED","ST-TXTXS","ST/C&L","USTXTXS","Texas A & M Forest Service","TXVFD","Rhome VFD","","321258","","HWY 287","","","","","","2011","2011/06/11 00:00:00+00","162","","Human","Missing data/not specified/undetermined","","","","","1","B","33.041856","-97.458215","STATE OR PRIVATE","TX","Wise","48497","Wise County"
"-95.265299957","32.957107163","1555060","201413996","TFS-TXFD2011-363211","NONFED","ST-TXTXS","ST/C&L","USTXTXS","Texas A & M Forest Service","TXSFD","Winnsboro Fire Department","","363211","","4310","","","","","","2011","2011/06/11 00:00:00+00","162","","Human","Equipment and vehicle use","","","","","0.25","A","32.957113","-95.2653071","STATE OR PRIVATE","TX","Wood","48499","Wood County"
"-95.550834786","32.915759184","1555061","201413997","TFS-TXFD2011-322749","NONFED","ST-TXTXS","ST/C&L","USTXTXS","Texas A & M Forest Service","TXVFD","Yantis Vol. Fire Dept.","","322749","","CANE FIRE","","","","","","2011","2011/06/11 00:00:00+00","162","","Human","Misuse of fire by a minor","Minor","","","","0.5","B","32.915765","-95.550842","STATE OR PRIVATE","TX","Wood","48499","Wood County"
"-97.71092924","32.859490287","1555062","201413998","TFS-TXFD2011-366345","NONFED","ST-TXTXS","ST/C&L","USTXTXS","Texas A & M Forest Service","TXVFD","Central Community VFD","","366345","","BLUEBIRD","","","","","","2011","2011/06/11 00:00:00+00","162","","Human","Debris and open burning","","","","","3","B","32.859496","-97.710937","STATE OR PRIVATE","TX","Parker","48367","Parker County"
"-98.556311314","33.114657978","1555063","201413999","TFS-TXFD2011-322495","NONFED","ST-TXTXS","ST/C&L","USTXTXS","Texas A & M Forest Service","TXVFD","Eliasville Rural Volunteer Fire Dept.","","322495","","2423 FM 2075","","","","","","2011","2011/06/11 00:00:00+00","162","","Human","Missing data/not specified/undetermined","","","","","15","C","33.1146637","-98.5563193","STATE OR PRIVATE","TX","Young","48503","Young County"
"-96.083156664","32.664701254","1555064","201414001","TFS-TXFD2011-343308","NONFED","ST-TXTXS","ST/C&L","USTXTXS","Texas A & M Forest Service","TXVFD","Elmo VFD","","343308","","EF021-2011","","","","","","2011","2011/06/11 00:00:00+00","162","","Human","Debris and open burning","","","","","12","C","32.664707","-96.083164","STATE OR PRIVATE","TX","Kaufman","48257","Kaufman County"
"-94.391776206","32.5812678","1555065","201414002","TFS-TXFD2011-325848","NONFED","ST-TXTXS","ST/C&L","USTXTXS","Texas A & M Forest Service","TXVFD","Nesbitt VFD","","325848","","HARRINGTON RD","","","","","","2011","2011/06/11 00:00:00+00","162","","Human","Debris and open burning","","","","","1","B","32.5812736","-94.3917831","STATE OR PRIVATE","TX","Harrison","48203","Harrison County"
"-94.816810994","32.605537213","1555066","201414003","TFS-TXFD2011-328036","NONFED","ST-TXTXS","ST/C&L","USTXTXS","Texas A & M Forest Service","TXVFD","East Mountain VFD","","328036","","147","","","","","","2011","2011/06/11 00:00:00+00","162","","Human","Debris and open burning","","","","","1","B","32.605543","-94.816818","STATE OR PRIVATE","TX","Upshur","48459","Upshur County"
"-96.694750912","32.606060491","1555067","201414004","TFS-TXFD2011-356263","NONFED","ST-TXTXS","ST/C&L","USTXTXS","Texas A & M Forest Service","TXSFD","Wilmer Fire Department","","356263","","GRASS FIRE","","","","","","2011","2011/06/11 00:00:00+00","162","","Human","Missing data/not specified/undetermined","","","","","1","B","32.6060662","-96.6947584","STATE OR PRIVATE","TX","Dallas","48113","Dallas County"
"-96.111309654","32.714688246","1555068","201414005","TFS-TXFD2011-343314","NONFED","ST-TXTXS","ST/C&L","USTXTXS","Texas A & M Forest Service","TXVFD","Elmo VFD","","343314","","EF022-2011","","","","","","2011","2011/06/11 00:00:00+00","162","","Human","Debris and open burning","","","","","1","B","32.714694","-96.111317","STATE OR PRIVATE","TX","Kaufman","48257","Kaufman County"
"-96.291124609","32.702516256","1555069","201414006","TFS-TXFD2011-320818","NONFED","ST-TXTXS","ST/C&L","USTXTXS","Texas A & M Forest Service","TXVFD","Terrell Volunteer Fire Dept.","","320818","","FM 2578","","","","","","2011","2011/06/11 00:00:00+00","162","","Human","Debris and open burning","","","","","3","B","32.702522","-96.291132","STATE OR PRIVATE","TX","Kaufman","48257","Kaufman County"
"-94.691787921","32.69737709","1555070","201414007","TFS-TXFD2011-356502","NONFED","ST-TXTXS","ST/C&L","USTXTXS","Texas A & M Forest Service","TXVFD","Harleton Volunteer Fire","","356502","","SIMMONS","","","","","","2011","2011/06/11 00:00:00+00","162","","Human","Missing data/not specified/undetermined","","","","","3","B","32.6973829","-94.6917949","STATE OR PRIVATE","TX","Harrison","48203","Harrison County"
"-100.381792691","32.740385727","1555071","201414008","TFS-TXFD2011-328773","NONFED","ST-TXTXS","ST/C&L","USTXTXS","Texas A & M Forest Service","TXVFD","Roby VFD","","328773","","409 NORTH ORANGE","","","","","","2011","2011/06/11 00:00:00+00","162","","Human","Power generation/transmission/distribution","","","","","1","B","32.7403913","-100.3818011","STATE OR PRIVATE","TX","Fisher","48151","Fisher County"
"-96.354910686","32.817257037","1555072","201414009","TFS-TXFD2011-337073","NONFED","ST-TXTXS","ST/C&L","USTXTXS","Texas A & M Forest Service","TXSFD","Wills Point FD","","337073","","MUTUAL AID","","","","","","2011","2011/06/11 00:00:00+00","162","","Human","Equipment and vehicle use","","","","","15","C","32.8172628","-96.3549181","STATE OR PRIVATE","TX","Rockwall","48397","Rockwall County"
"-97.254573394","32.197980393","1555073","201414010","TFS-TXFD2011-328178","NONFED","ST-TXTXS","ST/C&L","USTXTXS","Texas A & M Forest Service","TXSFD","Itasca Fire Department","","328178","","HCR 1405","","","","","","2011","2011/06/11 00:00:00+00","162","","Human","Arson/incendiarism","","","","","500","E","32.197986","-97.254581","STATE OR PRIVATE","TX","Hill","48217","Hill County"
"-95.947007727","32.185114141","1555074","201414011","TFS-TXFD2011-415994","NONFED","ST-TXTXS","ST/C&L","USTXTXS","Texas A & M Forest Service","TXVFD","Malakoff VFD","","415994","","CR 1221/10297","","","","","","2011","2011/06/11 00:00:00+00","162","","Human","Misuse of fire by a minor","Minor","","","","0.02","A","32.1851198","-95.947015","STATE OR PRIVATE","TX","Henderson","48213","Henderson County"
"-97.35739937","32.163255403","1555075","201414012","TFS-TXFD2011-333433","NONFED","ST-TXTXS","ST/C&L","USTXTXS","Texas A & M Forest Service","TXVFD","Woodbury VFD","","333433","","HCR 1137 ","","","","","","2011","2011/06/11 00:00:00+00","162","","Human","Arson/incendiarism","","","","","300","E","32.163261","-97.357407","STATE OR PRIVATE","TX","Hill","48217","Hill County"
"-97.003948455","32.233925375","1555076","201414013","TFS-TXFD2011-320741","NONFED","ST-TXTXS","ST/C&L","USTXTXS","Texas A & M Forest Service","TXSFD","Ellis County ESD #1","","320741","","011-113","","","","","","2011","2011/06/11 00:00:00+00","162","","Human","Equipment and vehicle use","","","","","50","C","32.233931","-97.003956","STATE OR PRIVATE","TX","Ellis","48139","Ellis County"
"-102.586591095","32.3185946","1555077","201414014","TFS-TXFD2011-322747","NONFED","ST-TXTXS","ST/C&L","USTXTXS","Texas A & M Forest Service","TXVFD","Andrews Volunteer Fire Dept","","322747","","2011340","","","","","","2011","2011/06/11 00:00:00+00","162","","Human","Missing data/not specified/undetermined","","","","","11","C","32.3186","-102.5866","STATE OR PRIVATE","TX","Andrews","48003","Andrews County"
"-99.639575195","32.348274166","1555078","201414017","TFS-TXFD2011-344879","NONFED","ST-TXTXS","ST/C&L","USTXTXS","Texas A & M Forest Service","TXVFD","Potosi VFD","","344879","","1620 HWY 36","","","","","","2011","2011/06/11 00:00:00+00","162","","Human","Missing data/not specified/undetermined","","","","","2.5","B","32.3482797","-99.6395834","STATE OR PRIVATE","TX","Taylor","48441","Taylor County"
"-94.183978472","32.373169933","1555079","201414018","TFS-TXFD2011-329444","NONFED","ST-TXTXS","ST/C&L","USTXTXS","Texas A & M Forest Service","TXVFD","Waskom VFD/EMS Services, Inc.","","329444","","GRASS FIRE","","","","","","2011","2011/06/11 00:00:00+00","162","","Human","Equipment and vehicle use","","","","","1","B","32.3731757","-94.1839853","STATE OR PRIVATE","TX","Harrison","48203","Harrison County"
"-94.678978455","32.153083196","1555080","201414019","TFS-TXFD2011-364059","NONFED","ST-TXTXS","ST/C&L","USTXTXS","Texas A & M Forest Service","TXVFD","Church Hill VFD","","364059","","HWY 79 FIRE","","","","","","2011","2011/06/11 00:00:00+00","162","","Human","Missing data/not specified/undetermined","","","","","2","B","32.1530889","-94.6789854","STATE OR PRIVATE","TX","Rusk","48401","Rusk County"
"-99.376650891","31.795300556","1555081","201414020","TFS-TXFD2011-320512","NONFED","ST-TXTXS","ST/C&L","USTXTXS","Texas A & M Forest Service","TXVFD","Santa Anna Volunteer Fire Department","","320512","","WEST HWY 84","","","","","","2011","2011/06/11 00:00:00+00","162","","Human","Equipment and vehicle use","","","","","2","B","31.795306","-99.376659","STATE OR PRIVATE","TX","Coleman","48083","Coleman County"
"-99.571100837","31.92593554","1555082","201414023","TFS-TXFD2011-320526","NONFED","ST-TXTXS","ST/C&L","USTXTXS","Texas A & M Forest Service","TXVFD","Rough Creek Volunteer Fire Department","","320526","","COLEMAN 419","","","","","","2011","2011/06/11 00:00:00+00","162","","Human","Power generation/transmission/distribution","","","","","4","B","31.925941","-99.571109","STATE OR PRIVATE","TX","Coleman","48083","Coleman County"
"-100.29984547","34.796216064","1555083","201414024","TFS-TXFD2011-332622","NONFED","ST-TXTXS","ST/C&L","USTXTXS","Texas A & M Forest Service","TXSFD","Wellington Fire Dept.","","332622","","OREAR DRILLING RIG","","","","","","2011","2011/06/11 00:00:00+00","162","","Human","Equipment and vehicle use","","","","","50","C","34.796222","-100.299854","STATE OR PRIVATE","TX","Collingsworth","48087","Collingsworth County"
"-100.031882449","35.900724862","1555084","201414025","TFS-TXFD2011-372645","NONFED","ST-TXTXS","ST/C&L","USTXTXS","Texas A & M Forest Service","TXVFD","Canadian VFD","","372645","","SMITH OASIS CREEK RANCH","","","","","","2011","2011/06/11 00:00:00+00","162","","Natural","Natural","","","","","450","E","35.900731","-100.031891","STATE OR PRIVATE","TX","Hemphill","48211","Hemphill County"
"-100.507384514","33.471825303","1555085","201414027","TFS-TXFD2011-329410","NONFED","ST-TXTXS","ST/C&L","USTXTXS","Texas A & M Forest Service","TXVFD","Dickens VFD","","329410","","SPRINGER RANCH FIRE","","","","","","2011","2011/06/11 00:00:00+00","162","","Human","Missing data/not specified/undetermined","","","","","1","B","33.471831","-100.507393","STATE OR PRIVATE","TX","King","48269","King County"
"-98.695861133","33.817983657","1555086","201414028","TFS-TXFD2011-376784","NONFED","ST-TXTXS","ST/C&L","USTXTXS","Texas A & M Forest Service","TXVFD","Holliday Vol Fire Rescue","","376784","","81 NORTH","","","","","","2011","2011/06/11 00:00:00+00","162","","Human","Missing data/not specified/undetermined","","","","","2","B","33.8179895","-98.6958692","STATE OR PRIVATE","TX","Archer","48009","Archer County"
"-95.031301878","33.60217503","1555087","201414029","TFS-TXFD2011-372720","NONFED","ST-TXTXS","ST/C&L","USTXTXS","Texas A & M Forest Service","TXSFD","Clarksville Fire Department","","372720","","CORLEY","","","","","","2011","2011/06/11 00:00:00+00","162","","Human","Arson/incendiarism","","","","","0.25","A","33.602181","-95.031309","STATE OR PRIVATE","TX","Red River","48387","Red River County"
"-101.913973169","33.592388349","1555088","201414030","TFS-TXFD2011-320896","NONFED","ST-TXTXS","ST/C&L","USTXTXS","Texas A & M Forest Service","TXSFD","Lubbock Fire Department","","320896","","4702 4TH ST.","","","","","","2011","2011/06/11 00:00:00+00","162","","Human","Smoking","","","","","0.1","A","33.592394","-101.913982","STATE OR PRIVATE","TX","Lubbock","48303","Lubbock County"
"-102.189322125","33.288632415","1555089","201414031","TFS-TXFD2011-331458","NONFED","ST-TXTXS","ST/C&L","USTXTXS","Texas A & M Forest Service","TXVFD","Wellman Vol. Fire Dept.","","331458","","RICH LAKE REKINDLE #3","","","","","","2011","2011/06/12 00:00:00+00","163","","Human","Missing data/not specified/undetermined","","","","","10","C","33.288638","-102.189331","STATE OR PRIVATE","TX","Terry","48445","Terry County"
"-102.190352125","33.289780414","1555090","201414032","TFS-TXFD2011-333491","NONFED","ST-TXTXS","ST/C&L","USTXTXS","Texas A & M Forest Service","TXSFD","Brownfield Fire Department","","333491","","RICH LAKE (3)","","","","","","2011","2011/06/12 00:00:00+00","163","","Natural","Natural","","","","","100","D","33.289786","-102.190361","STATE OR PRIVATE","TX","Terry","48445","Terry County"
"-96.538960501","33.428713129","1555091","201414033","TFS-TXFD2011-351730","NONFED","ST-TXTXS","ST/C&L","USTXTXS","Texas A & M Forest Service","TXSFD","Van Alstyne Fire Department","","351730","","VESTER FIRE","","","","","","2011","2011/06/12 00:00:00+00","163","","Human","Debris and open burning","","","","","1","B","33.428719","-96.538968","STATE OR PRIVATE","TX","Grayson","48181","Grayson County"
"-98.77377694","33.42935823","1555092","201414034","TFS-TXFD2011-320931","NONFED","ST-TXTXS","ST/C&L","USTXTXS","Texas A & M Forest Service","TXVFD","Archer City VFD","","320931","","2178 & LAKE RD.","","","","","","2011","2011/06/12 00:00:00+00","163","","Human","Missing data/not specified/undetermined","","","","","30","C","33.429364","-98.773785","STATE OR PRIVATE","TX","Archer","48009","Archer County"
"-101.784545143","34.401663206","1555093","201414035","TFS-TXFD2011-321428","NONFED","ST-TXTXS","ST/C&L","USTXTXS","Texas A & M Forest Service","TXVFD","Tulia Volunteer Fire Dept.","","321428","","2011-78","","","","","","2011","2011/06/12 00:00:00+00","163","","Human","Missing data/not specified/undetermined","","","","","3","B","34.401669","-101.784554","STATE OR PRIVATE","TX","Swisher","48437","Swisher County"
"-103.034721808","34.936232182","1555094","201414036","TFS-TXFD2011-320958","NONFED","ST-TXTXS","ST/C&L","USTXTXS","Texas A & M Forest Service","TXSFD","Hereford Fire Dept.","","320958","","WEST CAMP","","","","","","2011","2011/06/12 00:00:00+00","163","","Natural","Natural","","","","","100","D","34.936238","-103.034731","STATE OR PRIVATE","TX","Deaf Smith","48117","Deaf Smith County"
"-102.238867206","31.813532673","1555095","201414038","TFS-TXFD2011-321874","NONFED","ST-TXTXS","ST/C&L","USTXTXS","Texas A & M Forest Service","TXSFD","Midland County Fire Marshal","","321874","","S CURVE MOP UP FIRE","","","","","","2011","2011/06/12 00:00:00+00","163","","Human","Missing data/not specified/undetermined","","","","","2","B","31.813538","-102.238876","STATE OR PRIVATE","TX","Midland","48329","Midland County"
"-96.398369223","31.986240098","1555096","201414039","TFS-TXFD2011-325449","NONFED","ST-TXTXS","ST/C&L","USTXTXS","Texas A & M Forest Service","TXVFD","Mildred VFD","","325449","","GRASS FIRE ON S.E C.R 3100","","","","","","2011","2011/06/12 00:00:00+00","163","","Human","Debris and open burning","","","","","6","B","31.9862457","-96.3983766","STATE OR PRIVATE","TX","Navarro","48349","Navarro County"
"-102.524191106","32.368894589","1555097","201414040","TFS-TXFD2011-322757","NONFED","ST-TXTXS","ST/C&L","USTXTXS","Texas A & M Forest Service","TXVFD","Andrews Volunteer Fire Dept","","322757","","ARMSTRONG FIRE","","","","","","2011","2011/06/12 00:00:00+00","163","","Human","Equipment and vehicle use","","","","","24000","G","32.3689","-102.5242","STATE OR PRIVATE","TX","Andrews","48003","Andrews County"
"-95.139990923","32.37847627","1555098","201414041","TFS-TXFD2011-356071","NONFED","ST-TXTXS","ST/C&L","USTXTXS","Texas A & M Forest Service","TXVFD","Jackson Heights VFD","","356071","","ELDORADO","","","","","","2011","2011/06/12 00:00:00+00","163","","Human","Debris and open burning","","","","","1","B","32.378482","-95.139998","STATE OR PRIVATE","TX","Smith","48423","Smith County"
"-102.784691048","32.335594606","1555099","201414042","TFS-TXFD2011-322754","NONFED","ST-TXTXS","ST/C&L","USTXTXS","Texas A & M Forest Service","TXVFD","Andrews Volunteer Fire Dept","","322754","","2011341","","","","","","2011","2011/06/12 00:00:00+00","163","","Human","Equipment and vehicle use","","","","","14","C","32.3356","-102.7847","STATE OR PRIVATE","TX","Andrews","48003","Andrews County"
"-102.77459105","32.335594605","1555100","201414043","TFS-TXFD2011-322760","NONFED","ST-TXTXS","ST/C&L","USTXTXS","Texas A & M Forest Service","TXVFD","Andrews Volunteer Fire Dept","","322760","","2011346","","","","","","2011","2011/06/12 00:00:00+00","163","","Human","Missing data/not specified/undetermined","","","","","2","B","32.3356","-102.7746","STATE OR PRIVATE","TX","Andrews","48003","Andrews County"
"-94.936073271","32.464125545","1555101","201414044","TFS-TXFD2011-337912","NONFED","ST-TXTXS","ST/C&L","USTXTXS","Texas A & M Forest Service","TXVFD","Sabine Volunteer Fire Department","","337912","","BRUSH FIRE","","","","","","2011","2011/06/12 00:00:00+00","163","","Human","Debris and open burning","","","","","0.25","A","32.4641313","-94.9360803","STATE OR PRIVATE","TX","Gregg","48183","Gregg County"
"-95.168807514","32.415926364","1555102","201414045","TFS-TXFD2011-356067","NONFED","ST-TXTXS","ST/C&L","USTXTXS","Texas A & M Forest Service","TXVFD","Jackson Heights VFD","","356067","","FM 2908","","","","","","2011","2011/06/12 00:00:00+00","163","","Human","Debris and open burning","","","","","3","B","32.4159321","-95.1688146","STATE OR PRIVATE","TX","Smith","48423","Smith County"
"-96.941120467","32.308602358","1555103","201414048","TFS-TXFD2011-320749","NONFED","ST-TXTXS","ST/C&L","USTXTXS","Texas A & M Forest Service","TXSFD","Ellis County ESD #1","","320749","","011-115","","","","","","2011","2011/06/12 00:00:00+00","163","","Human","Missing data/not specified/undetermined","","","","","10","C","32.308608","-96.941128","STATE OR PRIVATE","TX","Ellis","48139","Ellis County"
"-101.324212296","32.239324258","1555104","201414049","TFS-TXFD2011-325892","NONFED","ST-TXTXS","ST/C&L","USTXTXS","Texas A & M Forest Service","TXVFD","Howard County VFD","","325892","","MOSS CREEK LAKE","","","","","","2011","2011/06/12 00:00:00+00","163","","Human","Missing data/not specified/undetermined","","","","","2","B","32.2393297","-101.3242209","STATE OR PRIVATE","TX","Howard","48227","Howard County"
"-98.118545142","32.798524317","1555105","201414050","TFS-TXFD2011-329263","NONFED","ST-TXTXS","ST/C&L","USTXTXS","Texas A & M Forest Service","TXVFD","Mineral Wells VFD","","329263","","HESS","","","","","","2011","2011/06/12 00:00:00+00","163","","Human","Debris and open burning","","","","","2","B","32.79853","-98.118553","STATE OR PRIVATE","TX","Palo Pinto","48363","Palo Pinto County"
"-102.455397096","32.778032515","1555106","201414051","TFS-TXFD2011-358202","NONFED","ST-TXTXS","ST/C&L","USTXTXS","Texas A & M Forest Service","TXSFD","Seminole Fire Department","","358202","","GRASS FIRE","","","","","","2011","2011/06/12 00:00:00+00","163","","Human","Power generation/transmission/distribution","","","","","5","B","32.778038","-102.455406","STATE OR PRIVATE","TX","Gaines","48165","Gaines County"
"-102.830649014","32.705261544","1555107","201414052","TFS-TXFD2011-358195","NONFED","ST-TXTXS","ST/C&L","USTXTXS","Texas A & M Forest Service","TXSFD","Seminole Fire Department","","358195","","GRASS FIRE","","","","","","2011","2011/06/12 00:00:00+00","163","","Human","Power generation/transmission/distribution","","","","","25","C","32.705267","-102.830658","STATE OR PRIVATE","TX","Gaines","48165","Gaines County"
"-95.444824125","32.715052218","1555108","201414053","TFS-TXFD2011-320982","NONFED","ST-TXTXS","ST/C&L","USTXTXS","Texas A & M Forest Service","TXVFD","Mineola Volunteer Fire Department","","320982","","NONE","","","","","","2011","2011/06/12 00:00:00+00","163","","Human","Debris and open burning","","","","","1","B","32.715058","-95.4448313","STATE OR PRIVATE","TX","Wood","48499","Wood County"
"-94.983665947","32.666541208","1555109","201414055","TFS-TXFD2011-322471","NONFED","ST-TXTXS","ST/C&L","USTXTXS","Texas A & M Forest Service","TXVFD","Pritchett Vol. Fire Dept.","","322471","","CHINABERRY & CRABAPPLE","","","","","","2011","2011/06/12 00:00:00+00","163","","Human","Missing data/not specified/undetermined","","","","","3","B","32.666547","-94.983673","STATE OR PRIVATE","TX","Upshur","48459","Upshur County"
"-102.43342511","32.640381537","1555110","201414056","TFS-TXFD2011-358200","NONFED","ST-TXTXS","ST/C&L","USTXTXS","Texas A & M Forest Service","TXSFD","Seminole Fire Department","","358200","","GRASS FIRE","","","","","","2011","2011/06/12 00:00:00+00","163","","Human","Debris and open burning","","","","","1","B","32.640387","-102.433434","STATE OR PRIVATE","TX","Gaines","48165","Gaines County"
"-102.838202022","32.542611573","1555111","201414057","TFS-TXFD2011-358198","NONFED","ST-TXTXS","ST/C&L","USTXTXS","Texas A & M Forest Service","TXSFD","Seminole Fire Department","","358198","","GRASS FIRE","","","","","","2011","2011/06/12 00:00:00+00","163","","Human","Power generation/transmission/distribution","","","","","10","C","32.542617","-102.838211","STATE OR PRIVATE","TX","Gaines","48165","Gaines County"
"-94.944247964","32.548290229","1555112","201414058","TFS-TXFD2011-320836","NONFED","ST-TXTXS","ST/C&L","USTXTXS","Texas A & M Forest Service","TXSFD","Gladewater  FD","","320836","","197","","","","","","2011","2011/06/12 00:00:00+00","163","","Human","Missing data/not specified/undetermined","","","","","1","B","32.548296","-94.944255","STATE OR PRIVATE","TX","Upshur","48459","Upshur County"
"-94.982700957","32.494066241","1555113","201414059","TFS-TXFD2011-320755","NONFED","ST-TXTXS","ST/C&L","USTXTXS","Texas A & M Forest Service","TXSFD","Gladewater  FD","","320755","","196","","","","","","2011","2011/06/12 00:00:00+00","163","","Human","Missing data/not specified/undetermined","","","","","1","B","32.494072","-94.982708","STATE OR PRIVATE","TX","Gregg","48183","Gregg County"
"-95.240921852","33.141875127","1555114","201414060","TFS-TXFD2011-331211","NONFED","ST-TXTXS","ST/C&L","USTXTXS","Texas A & M Forest Service","TXVFD","Purley VFD","","331211","","HWY 37 S / S OF FM 21","","","","","","2011","2011/06/12 00:00:00+00","163","","Human","Missing data/not specified/undetermined","","","","","1","B","33.141881","-95.240929","STATE OR PRIVATE","TX","Franklin","48159","Franklin County"
"-96.009857647","33.259641138","1555115","201414061","TFS-TXFD2011-320718","NONFED","ST-TXTXS","ST/C&L","USTXTXS","Texas A & M Forest Service","TXSFD","Commerce Fire Department","","320718","","PHILLIPS FIRE","","","","","","2011","2011/06/12 00:00:00+00","163","","Human","Debris and open burning","","","","","0.5","B","33.259647","-96.009865","STATE OR PRIVATE","TX","Hunt","48231","Hunt County"
"-96.577901503","33.232534168","1555116","201414063","TFS-TXFD2011-337289","NONFED","ST-TXTXS","ST/C&L","USTXTXS","Texas A & M Forest Service","TXSFD","McKinney Fire Department","","337289","","FM 2933","","","","","","2011","2011/06/12 00:00:00+00","163","","Human","Missing data/not specified/undetermined","","","","","0.5","B","33.23254","-96.577909","STATE OR PRIVATE","TX","Collin","48085","Collin County"
"-102.27206311","33.227769429","1555117","201414064","TFS-TXFD2011-333490","NONFED","ST-TXTXS","ST/C&L","USTXTXS","Texas A & M Forest Service","TXSFD","Brownfield Fire Department","","333490","","1303 E. WARREN","","","","","","2011","2011/06/12 00:00:00+00","163","","Human","Power generation/transmission/distribution","","","","","1","B","33.227775","-102.272072","STATE OR PRIVATE","TX","Terry","48445","Terry County"
"-98.888274936","33.048092305","1555118","201414066","TFS-TXFD2011-362927","NONFED","ST-TXTXS","ST/C&L","USTXTXS","Texas A & M Forest Service","TXVFD","Murray Vol Fire Dept","","362927","","KRAMER RD","","","","","","2011","2011/06/12 00:00:00+00","163","","Human","Missing data/not specified/undetermined","","","","","40","C","33.048098","-98.888283","STATE OR PRIVATE","TX","Young","48503","Young County"
"-97.20326861","27.874471249","1555119","201414067","TFS-TXFD2011-335032","NONFED","ST-TXTXS","ST/C&L","USTXTXS","Texas A & M Forest Service","TXSFD","Ingleside","","335032","","FIRST ST.","","","","","","2011","2011/06/12 00:00:00+00","163","","Human","Missing data/not specified/undetermined","","","","","0.5","B","27.874476","-97.203276","STATE OR PRIVATE","TX","San Patricio","48409","San Patricio County"
"-99.102937187","26.541309575","1555120","201414068","TFS-TXFD2011-331907","NONFED","ST-TXTXS","ST/C&L","USTXTXS","Texas A & M Forest Service","TXVFD","Salineno Vol. Fire Dept","","331907","","FM 2098 RD.","","","","","","2011","2011/06/12 00:00:00+00","163","","Human","Missing data/not specified/undetermined","","","","","1","B","26.541314","-99.102945","STATE OR PRIVATE","TX","Starr","48427","Starr County"
"-98.206779333","28.584215134","1555121","201414070","TFS-TXFD2011-332800","NONFED","ST-TXTXS","ST/C&L","USTXTXS","Texas A & M Forest Service","TXVFD","Three Rivers Volunteer","","332800","","TRVFD2011-65","","","","","","2011","2011/06/12 00:00:00+00","163","","Human","Equipment and vehicle use","","","","","2","B","28.58422","-98.206787","STATE OR PRIVATE","TX","Live Oak","48297","Live Oak County"
"-98.206436333","28.585723134","1555122","201414071","TFS-TXFD2011-332802","NONFED","ST-TXTXS","ST/C&L","USTXTXS","Texas A & M Forest Service","TXVFD","Three Rivers Volunteer","","332802","","TRVFD2011-66","","","","","","2011","2011/06/12 00:00:00+00","163","","Human","Equipment and vehicle use","","","","","0.5","B","28.585728","-98.206444","STATE OR PRIVATE","TX","Live Oak","48297","Live Oak County"
"-99.080582104","28.953985089","1555123","201414072","TFS-TXFD2011-324421","NONFED","ST-TXTXS","ST/C&L","USTXTXS","Texas A & M Forest Service","TXVFD","Pearsall Vol.Fire Dept.","","324421","","IH 35 MM 105","","","","","","2011","2011/06/12 00:00:00+00","163","","Human","Missing data/not specified/undetermined","","","","","0.25","A","28.95399","-99.08059","STATE OR PRIVATE","TX","Frio","48163","Frio County"
"-98.712264178","29.319786004","1555124","201414073","TFS-TXFD2011-338031","NONFED","ST-TXTXS","ST/C&L","USTXTXS","Texas A & M Forest Service","TXVFD","Jarret Volunteer Fire Asso.","","338031","","LADD RD","","","","","","2011","2011/06/12 00:00:00+00","163","","Human","Equipment and vehicle use","","","","","1","B","29.319791","-98.712272","STATE OR PRIVATE","TX","Bexar","48029","Bexar County"
"-98.403846258","29.232780011","1555125","201414074","TFS-TXFD2011-360634","NONFED","ST-TXTXS","ST/C&L","USTXTXS","Texas A & M Forest Service","TXVFD","Sandy Oaks VFD","","360634","","SA RIVER","","","","","","2011","2011/06/12 00:00:00+00","163","","Human","Missing data/not specified/undetermined","","","","","0.5","B","29.232785","-98.403854","STATE OR PRIVATE","TX","Bexar","48029","Bexar County"
"-98.103332315","29.620357924","1555126","201414076","TFS-TXFD2011-323112","NONFED","ST-TXTXS","ST/C&L","USTXTXS","Texas A & M Forest Service","TXSFD","Seguin Fire Department","","323112","","UNION WINE FIRE","","","","","","2011","2011/06/12 00:00:00+00","163","","Human","Equipment and vehicle use","","","","","100","D","29.620363","-98.10334","STATE OR PRIVATE","TX","Guadalupe","48187","Guadalupe County"
"-97.296034508","29.788741863","1555127","201414077","TFS-TXFD2011-325688","NONFED","ST-TXTXS","ST/C&L","USTXTXS","Texas A & M Forest Service","TXVFD","Muldoon VFD","","325688","","WALTER","","","","","","2011","2011/06/12 00:00:00+00","163","","Human","Debris and open burning","","","","","1","B","29.788747","-97.296042","STATE OR PRIVATE","TX","Fayette","48149","Fayette County"
"-97.036659566","29.943605823","1555128","201414078","TFS-TXFD2011-325684","NONFED","ST-TXTXS","ST/C&L","USTXTXS","Texas A & M Forest Service","TXVFD","Muldoon VFD","","325684","","OLD LOCKHART","","","","","","2011","2011/06/12 00:00:00+00","163","","Human","Arson/incendiarism","","","","","0.5","B","29.943611","-97.036667","STATE OR PRIVATE","TX","Fayette","48149","Fayette County"
"-97.204455518","30.058343806","1555129","201414079","TFS-TXFD2011-323157","NONFED","ST-TXTXS","ST/C&L","USTXTXS","Texas A & M Forest Service","TXVFD","Heart Of The Pines VFD","","323157","","TRANSFORMER","","","","","","2011","2011/06/12 00:00:00+00","163","","Human","Power generation/transmission/distribution","","","","","0.1","A","30.058349","-97.204463","STATE OR PRIVATE","TX","Bastrop","48021","Bastrop County"
"-95.43692036","30.181879719","1555130","201414080","TFS-TXFD2011-321134","NONFED","ST-TXTXS","ST/C&L","USTXTXS","Texas A & M Forest Service","TXSFD","NeedHam FD","","321134","","TAMINA","","","","","","2011","2011/06/12 00:00:00+00","163","","Human","Debris and open burning","","","","","1","B","30.181885","-95.4369274","STATE OR PRIVATE","TX","Montgomery","48339","Montgomery County"
"-95.743106239","31.067907452","1555131","201414082","TFS-TXFD2011-357972","NONFED","ST-TXTXS","ST/C&L","USTXTXS","Texas A & M Forest Service","TXVFD","Midway VFD","","357972","","ELVIS KELLY","","","","","","2011","2011/06/12 00:00:00+00","163","","Human","Debris and open burning","","","","","5","B","31.0679129","-95.7431134","STATE OR PRIVATE","TX","Madison","48313","Madison County"
"-96.463239588","30.41001931","1555132","201414083","TFS-TXFD2011-327064","NONFED","ST-TXTXS","ST/C&L","USTXTXS","Texas A & M Forest Service","TXVFD","Snook Volunteer Fire Department","","327064","","741 OAK FOREST","","","","","","2011","2011/06/12 00:00:00+00","163","","Human","Missing data/not specified/undetermined","","","","","0.1","A","30.4100246","-96.4632469","STATE OR PRIVATE","TX","Burleson","48051","Burleson County"
"-97.315032453","30.836531657","1555133","201414085","TFS-TXFD2011-349239","NONFED","ST-TXTXS","ST/C&L","USTXTXS","Texas A & M Forest Service","TXVFD","Holland VFD","","349239","","VILAS ROAD FIRE 2011","","","","","","2011","2011/06/13 00:00:00+00","164","","Human","Equipment and vehicle use","","","","","4","B","30.836537","-97.31504","STATE OR PRIVATE","TX","Bell","48027","Bell County"
"-95.97658509","30.847112205","1555134","201414086","TFS-TXFD2011-322126","NONFED","ST-TXTXS","ST/C&L","USTXTXS","Texas A & M Forest Service","TXVFD","Bedias Volunteer Fire Dept.","","322126","","26084 TYLER PARK","","","","","","2011","2011/06/13 00:00:00+00","164","","Human","Debris and open burning","","","","","5","B","30.8471176","-95.9765923","STATE OR PRIVATE","TX","Grimes","48185","Grimes County"
"-103.934790883","30.602594956","1555135","201414087","TFS-TXFD2011-340179","NONFED","ST-TXTXS","ST/C&L","USTXTXS","Texas A & M Forest Service","TXVFD","Fort Davis Vol. Fire Dept. Inc.","","340179","","ROADSIDE FIRE","","","","","","2011","2011/06/13 00:00:00+00","164","","Human","Missing data/not specified/undetermined","","","","","0.1","A","30.6026","-103.9348","STATE OR PRIVATE","TX","Jeff Davis","48243","Jeff Davis County"
"-94.983685159","30.565358125","1555136","201414088","TFS-TXFD2011-331604","NONFED","ST-TXTXS","ST/C&L","USTXTXS","Texas A & M Forest Service","TXVFD","Shepherd V. F. D.","","331604","","BLACKBERRY","","","","","","2011","2011/06/13 00:00:00+00","164","","Human","Missing data/not specified/undetermined","","","","","1","B","30.5653635","-94.9836921","STATE OR PRIVATE","TX","San Jacinto","48407","San Jacinto County"
"-96.584390563","30.291060738","1555137","201414089","TFS-TXFD2011-322855","NONFED","ST-TXTXS","ST/C&L","USTXTXS","Texas A & M Forest Service","TXVFD","Rocky Creek VFD","","322855","","COON LN","","","","","","2011","2011/06/13 00:00:00+00","164","","Human","Power generation/transmission/distribution","","","","","0.15","A","30.291066","-96.5843979","STATE OR PRIVATE","TX","Washington","48477","Washington County"
"-95.43213896","30.210320713","1555138","201414090","TFS-TXFD2011-321132","NONFED","ST-TXTXS","ST/C&L","USTXTXS","Texas A & M Forest Service","TXSFD","NeedHam FD","","321132","","GLEN EAGLES","","","","","","2011","2011/06/13 00:00:00+00","164","","Human","Debris and open burning","","","","","5","B","30.210326","-95.432146","STATE OR PRIVATE","TX","Montgomery","48339","Montgomery County"
"-97.437753978","31.6725277","1555139","201414091","TFS-TXFD2011-350731","NONFED","ST-TXTXS","ST/C&L","USTXTXS","Texas A & M Forest Service","TXVFD","Valley Mills VFD","","350731","","SMITH","","","","","","2011","2011/06/13 00:00:00+00","164","","Human","Power generation/transmission/distribution","","","","","0.25","A","31.6725332","-97.4377616","STATE OR PRIVATE","TX","Bosque","48035","Bosque County"
"-96.892358522","31.545971503","1555140","201414092","TFS-TXFD2011-325333","NONFED","ST-TXTXS","ST/C&L","USTXTXS","Texas A & M Forest Service","TXVFD","Mart Volunteer Fire Department","","325333","","6711 BATTLE LAKE RD TRASH FIRE","","","","","","2011","2011/06/13 00:00:00+00","164","","Human","Debris and open burning","","","","","0.1","A","31.545977","-96.892366","STATE OR PRIVATE","TX","McLennan","48309","McLennan County"
"-99.138556964","31.546936593","1555141","201414093","TFS-TXFD2011-382996","NONFED","ST-TXTXS","ST/C&L","USTXTXS","Texas A & M Forest Service","TXVFD","Winchell VFD","","382996","","CATTLEGUARD RD","","","","","","2011","2011/06/13 00:00:00+00","164","","Human","Equipment and vehicle use","","","","","10","C","31.546942","-99.138565","STATE OR PRIVATE","TX","Brown","48049","Brown County"
"-97.285792523","31.535924721","1555142","201414094","TFS-TXFD2011-376123","NONFED","ST-TXTXS","ST/C&L","USTXTXS","Texas A & M Forest Service","TXVFD","Speegleville Vol. Fire Dept.","","376123","","SPEEGLEVILLE RD & MARIE DR","","","","","","2011","2011/06/13 00:00:00+00","164","","Human","Power generation/transmission/distribution","","","","","1","B","31.5359302","-97.2858001","STATE OR PRIVATE","TX","McLennan","48309","McLennan County"
"-94.941008023","31.498474436","1555143","201414096","TFS-TXFD2011-326034","NONFED","ST-TXTXS","ST/C&L","USTXTXS","Texas A & M Forest Service","TXVFD","Wells Vol. Fire Dept.","","326034","","DEER SHINE RD. # 2","","","","","","2011","2011/06/13 00:00:00+00","164","","Human","Debris and open burning","","","","","5","B","31.49848","-94.941015","STATE OR PRIVATE","TX","Cherokee","48073","Cherokee County"
"-96.945068578","30.178442773","1555144","201414097","TFS-TXFD2011-320949","NONFED","ST-TXTXS","ST/C&L","USTXTXS","Texas A & M Forest Service","TXVFD","Giddings VFD","","320949","","RICHTER","","","","","","2011","2011/06/13 00:00:00+00","164","","Human","Missing data/not specified/undetermined","","","","","1","B","30.178448","-96.945076","STATE OR PRIVATE","TX","Lee","48287","Lee County"
"-95.296801504","30.00488375","1555145","201414098","TFS-TXFD2011-357874","NONFED","ST-TXTXS","ST/C&L","USTXTXS","Texas A & M Forest Service","TXSFD","Northeast Fire Rescue","","357874","","KENSWICK DR","","","","","","2011","2011/06/13 00:00:00+00","164","","Human","Smoking","","","","","0.1","A","30.004889","-95.2968085","STATE OR PRIVATE","TX","Harris","48201","Harris County"
"-98.675586161","29.890845891","1555146","201414099","TFS-TXFD2011-326218","NONFED","ST-TXTXS","ST/C&L","USTXTXS","Texas A & M Forest Service","TXSFD","Boerne Fire Department","","326218","","8 SMISER SMITH ","","","","","","2011","2011/06/13 00:00:00+00","164","","Human","Equipment and vehicle use","","","","","3","B","29.890851","-98.675594","STATE OR PRIVATE","TX","Kendall","48259","Kendall County"
"-98.043459943","29.305987985","1555147","201414100","TFS-TXFD2011-334944","NONFED","ST-TXTXS","ST/C&L","USTXTXS","Texas A & M Forest Service","TXVFD","La Vernia Volunteer Fire Dept","","334944","","CR 343 FIRE","","","","","","2011","2011/06/13 00:00:00+00","164","","Human","Debris and open burning","","","","","4","B","29.305993","-98.0434676","STATE OR PRIVATE","TX","Wilson","48493","Wilson County"
"-98.042499333","29.551108936","1555148","201414101","TFS-TXFD2011-323029","NONFED","ST-TXTXS","ST/C&L","USTXTXS","Texas A & M Forest Service","TXSFD","Seguin Fire Department","","323029","","3240 IH 10 FIRE","","","","","","2011","2011/06/13 00:00:00+00","164","","Human","Missing data/not specified/undetermined","","","","","0.8","B","29.551114","-98.042507","STATE OR PRIVATE","TX","Guadalupe","48187","Guadalupe County"
"-95.818219496","29.442480883","1555149","201414102","TFS-TXFD2011-321461","NONFED","ST-TXTXS","ST/C&L","USTXTXS","Texas A & M Forest Service","TXSFD","Fairchilds Fire Dept.","","321461","","GRASS FIRE ","","","","","","2011","2011/06/13 00:00:00+00","164","","Human","Missing data/not specified/undetermined","","","","","0.1","A","29.442486","-95.8182266","STATE OR PRIVATE","TX","Fort Bend","48157","Fort Bend County"
"-97.104777569","29.492299916","1555150","201414103","TFS-TXFD2011-363839","NONFED","ST-TXTXS","ST/C&L","USTXTXS","Texas A & M Forest Service","TXVFD","Shiner Vol. Fire Dept.","","363839","","ORSAK","","","","","","2011","2011/06/13 00:00:00+00","164","","Human","Equipment and vehicle use","","","","","2","B","29.492305","-97.104785","STATE OR PRIVATE","TX","Lavaca","48285","Lavaca County"
"-98.431656259","29.051663048","1555151","201414104","TFS-TXFD2011-354094","NONFED","ST-TXTXS","ST/C&L","USTXTXS","Texas A & M Forest Service","TXVFD","Leming VFD","","354094","","SMALL 3006 FIRE","","","","","","2011","2011/06/13 00:00:00+00","164","","Human","Debris and open burning","","","","","1","B","29.051668","-98.431664","STATE OR PRIVATE","TX","Atascosa","48013","Atascosa County"
"-99.144152097","28.738467133","1555152","201414105","TFS-TXFD2011-321403","NONFED","ST-TXTXS","ST/C&L","USTXTXS","Texas A & M Forest Service","TXVFD","Dilley VFD","","321403","","90 NORTHBOUND (FRIO RIVER)","","","","","","2011","2011/06/13 00:00:00+00","164","","Human","Missing data/not specified/undetermined","","","","","0.1","A","28.738472","-99.14416","STATE OR PRIVATE","TX","Frio","48163","Frio County"
"-97.132823594","28.731139071","1555153","201414106","TFS-TXFD2011-321050","NONFED","ST-TXTXS","ST/C&L","USTXTXS","Texas A & M Forest Service","TXSFD","Victoria FD","","321050","","TRANQUILLO FIRE","","","","","","2011","2011/06/13 00:00:00+00","164","","Human","Debris and open burning","","","","","1","B","28.731144","-97.132831","STATE OR PRIVATE","TX","Victoria","48469","Victoria County"
"-101.829520226","33.04262444","1555154","201414111","TFS-TXFD2011-322999","NONFED","ST-TXTXS","ST/C&L","USTXTXS","Texas A & M Forest Service","TXVFD","Tahoka Volunteer Fire Department","","322999","","CR31 & US 87","","","","","","2011","2011/06/13 00:00:00+00","164","","Human","Equipment and vehicle use","","","","","35","C","33.04263","-101.829529","STATE OR PRIVATE","TX","Lynn","48305","Lynn County"
"-101.805487227","33.113968427","1555155","201414112","TFS-TXFD2011-323002","NONFED","ST-TXTXS","ST/C&L","USTXTXS","Texas A & M Forest Service","TXVFD","Tahoka Volunteer Fire Department","","323002","","7 MILES S. ON US 87","","","","","","2011","2011/06/13 00:00:00+00","164","","Human","Equipment and vehicle use","","","","","1.5","B","33.113974","-101.805496","STATE OR PRIVATE","TX","Lynn","48305","Lynn County"
"-96.330989574","33.117564179","1555156","201414113","TFS-TXFD2011-324055","NONFED","ST-TXTXS","ST/C&L","USTXTXS","Texas A & M Forest Service","TXVFD","Josephine Volunteer Fire Department","","324055","","GRASS FIRE FM 547/FM850","","","","","","2011","2011/06/13 00:00:00+00","164","","Human","Missing data/not specified/undetermined","","","","","0.25","A","33.11757","-96.330997","STATE OR PRIVATE","TX","Collin","48085","Collin County"
"-95.060569901","33.111380125","1555157","201414114","TFS-TXFD2011-347658","NONFED","ST-TXTXS","ST/C&L","USTXTXS","Texas A & M Forest Service","TXVFD","Tri Lakes VFD","","347658","","GRASS FIRE","","","","","","2011","2011/06/13 00:00:00+00","164","","Human","Railroad operations and maintenance","","","","","2","B","33.111386","-95.060577","STATE OR PRIVATE","TX","Titus","48449","Titus County"
"-98.758841966","33.078016294","1555158","201414115","TFS-TXFD2011-322514","NONFED","ST-TXTXS","ST/C&L","USTXTXS","Texas A & M Forest Service","TXVFD","Eliasville Rural Volunteer Fire Dept.","","322514","","FM 3109","","","","","","2011","2011/06/13 00:00:00+00","164","","Human","Missing data/not specified/undetermined","","","","","1","B","33.078022","-98.75885","STATE OR PRIVATE","TX","Young","48503","Young County"
"-102.421791123","32.482694564","1555159","201414116","TFS-TXFD2011-322768","NONFED","ST-TXTXS","ST/C&L","USTXTXS","Texas A & M Forest Service","TXVFD","Andrews Volunteer Fire Dept","","322768","","2011351","","","","","","2011","2011/06/13 00:00:00+00","164","","Human","Missing data/not specified/undetermined","","","","","5","B","32.4827","-102.4218","STATE OR PRIVATE","TX","Andrews","48003","Andrews County"
"-98.435775081","32.507729384","1555160","201414117","TFS-TXFD2011-321153","NONFED","ST-TXTXS","ST/C&L","USTXTXS","Texas A & M Forest Service","TXVFD","Gordon Volunteer Fire Department","","321153","","364I20","","","","","","2011","2011/06/13 00:00:00+00","164","","Human","Equipment and vehicle use","","","","","1","B","32.507735","-98.435783","STATE OR PRIVATE","TX","Erath","48143","Erath County"
"-97.280988362","32.64102631","1555161","201414118","TFS-TXFD2011-327178","NONFED","ST-TXTXS","ST/C&L","USTXTXS","Texas A & M Forest Service","TXVFD","Everman Volunteer Fire Department","","327178","","HEATHER","","","","","","2011","2011/06/13 00:00:00+00","164","","Human","Debris and open burning","","","","","0.5","B","32.641032","-97.280996","STATE OR PRIVATE","TX","Tarrant","48439","Tarrant County"
"-95.000264943","32.65632121","1555162","201414119","TFS-TXFD2011-322469","NONFED","ST-TXTXS","ST/C&L","USTXTXS","Texas A & M Forest Service","TXVFD","Pritchett Vol. Fire Dept.","","322469","","357 VINTAGE RD","","","","","","2011","2011/06/13 00:00:00+00","164","","Human","Debris and open burning","","","","","0.25","A","32.656327","-95.000272","STATE OR PRIVATE","TX","Upshur","48459","Upshur County"
"-95.113420918","32.584295229","1555163","201414120","TFS-TXFD2011-347433","NONFED","ST-TXTXS","ST/C&L","USTXTXS","Texas A & M Forest Service","TXVFD","City of Big Sandy VFD","","347433","","JUN13-2011A","","","","","","2011","2011/06/13 00:00:00+00","164","","Human","Power generation/transmission/distribution","","","","","1","B","32.584301","-95.113428","STATE OR PRIVATE","TX","Upshur","48459","Upshur County"
"-95.10697292","32.587486228","1555164","201414121","TFS-TXFD2011-347434","NONFED","ST-TXTXS","ST/C&L","USTXTXS","Texas A & M Forest Service","TXVFD","City of Big Sandy VFD","","347434","","JUN13-2011B","","","","","","2011","2011/06/13 00:00:00+00","164","","Human","Power generation/transmission/distribution","","","","","1","B","32.587492","-95.10698","STATE OR PRIVATE","TX","Upshur","48459","Upshur County"
"-102.852793008","32.720282543","1555165","201414122","TFS-TXFD2011-358209","NONFED","ST-TXTXS","ST/C&L","USTXTXS","Texas A & M Forest Service","TXSFD","Seminole Fire Department","","358209","","GRASS FIRE","","","","","","2011","2011/06/13 00:00:00+00","164","","Human","Debris and open burning","","","","","5","B","32.720288","-102.852802","STATE OR PRIVATE","TX","Gaines","48165","Gaines County"
"-102.501746088","32.746563522","1555166","201414125","TFS-TXFD2011-358206","NONFED","ST-TXTXS","ST/C&L","USTXTXS","Texas A & M Forest Service","TXSFD","Seminole Fire Department","","358206","","GRASS","","","","","","2011","2011/06/13 00:00:00+00","164","","Human","Power generation/transmission/distribution","","","","","15","C","32.746569","-102.501755","STATE OR PRIVATE","TX","Gaines","48165","Gaines County"
"-102.562391105","32.238594613","1555167","201414126","TFS-TXFD2011-322762","NONFED","ST-TXTXS","ST/C&L","USTXTXS","Texas A & M Forest Service","TXVFD","Andrews Volunteer Fire Dept","","322762","","2011347","","","","","","2011","2011/06/13 00:00:00+00","164","","Human","Equipment and vehicle use","","","","","1","B","32.2386","-102.5624","STATE OR PRIVATE","TX","Andrews","48003","Andrews County"
"-98.190986158","32.237192424","1555168","201414127","TFS-TXFD2011-326374","NONFED","ST-TXTXS","ST/C&L","USTXTXS","Texas A & M Forest Service","TXVFD","Erath County Vol. Fire Rescue","","326374","","GRASS FIRE MORGAN MILL RD","","","","","","2011","2011/06/13 00:00:00+00","164","","Human","Equipment and vehicle use","","","","","1","B","32.237198","-98.190994","STATE OR PRIVATE","TX","Erath","48143","Erath County"
"-102.574291103","32.231894615","1555169","201414128","TFS-TXFD2011-322769","NONFED","ST-TXTXS","ST/C&L","USTXTXS","Texas A & M Forest Service","TXVFD","Andrews Volunteer Fire Dept","","322769","","2011352","","","","","","2011","2011/06/13 00:00:00+00","164","","Human","Missing data/not specified/undetermined","","","","","0.5","B","32.2319","-102.5743","STATE OR PRIVATE","TX","Andrews","48003","Andrews County"
"-102.579091103","32.213694618","1555170","201414129","TFS-TXFD2011-322765","NONFED","ST-TXTXS","ST/C&L","USTXTXS","Texas A & M Forest Service","TXVFD","Andrews Volunteer Fire Dept","","322765","","HIGHMOUNT FIRE","","","","","","2011","2011/06/13 00:00:00+00","164","","Human","Equipment and vehicle use","","","","","347","E","32.2137","-102.5791","STATE OR PRIVATE","TX","Andrews","48003","Andrews County"
"-97.249595397","32.164854399","1555171","201414130","TFS-TXFD2011-329802","NONFED","ST-TXTXS","ST/C&L","USTXTXS","Texas A & M Forest Service","TXVFD","Covington VFD","","329802","","82","","","","","","2011","2011/06/13 00:00:00+00","164","","Human","Arson/incendiarism","","","","","0.5","B","32.16486","-97.249603","STATE OR PRIVATE","TX","Hill","48217","Hill County"
"-97.416265448","32.29752948","1555172","201414132","TFS-TXFD2011-326942","NONFED","ST-TXTXS","ST/C&L","USTXTXS","Texas A & M Forest Service","TXVFD","Bono VFD","","326942","","BONO 116","","","","","","2011","2011/06/13 00:00:00+00","164","","Human","Missing data/not specified/undetermined","","","","","25","C","32.2975351","-97.4162731","STATE OR PRIVATE","TX","Johnson","48251","Johnson County"
"-97.40964175","32.29838808","1555173","201414133","TFS-TXFD2011-360519","NONFED","ST-TXTXS","ST/C&L","USTXTXS","Texas A & M Forest Service","TXVFD","Liberty Chapel VFD","","360519","","HARVEST HILL FIRE","","","","","","2011","2011/06/13 00:00:00+00","164","","Human","Missing data/not specified/undetermined","","","","","5","B","32.2983937","-97.4096494","STATE OR PRIVATE","TX","Johnson","48251","Johnson County"
"-95.986511713","32.245903331","1555174","201414134","TFS-TXFD2011-321129","NONFED","ST-TXTXS","ST/C&L","USTXTXS","Texas A & M Forest Service","TXVFD","Payne Springs VFD","","321129","","FM 3054","","","","","","2011","2011/06/13 00:00:00+00","164","","Human","Power generation/transmission/distribution","","","","","1","B","32.245909","-95.986519","STATE OR PRIVATE","TX","Henderson","48213","Henderson County"
"-94.971800965","32.411379257","1555175","201414136","TFS-TXFD2011-337923","NONFED","ST-TXTXS","ST/C&L","USTXTXS","Texas A & M Forest Service","TXVFD","Sabine Volunteer Fire Department","","337923","","BRUSH FIRE","","","","","","2011","2011/06/13 00:00:00+00","164","","Human","Debris and open burning","","","","","0.1","A","32.411385","-94.971808","STATE OR PRIVATE","TX","Gregg","48183","Gregg County"
"-99.581099805","32.423436449","1555176","201414137","TFS-TXFD2011-322158","NONFED","ST-TXTXS","ST/C&L","USTXTXS","Texas A & M Forest Service","TXVFD","Clyde VFD","","322158","","FM 18 WEST OF FM 603","","","","","","2011","2011/06/13 00:00:00+00","164","","Human","Missing data/not specified/undetermined","","","","","0.5","B","32.423442","-99.581108","STATE OR PRIVATE","TX","Callahan","48059","Callahan County"
"-102.336491143","32.479694561","1555177","201414138","TFS-TXFD2011-322766","NONFED","ST-TXTXS","ST/C&L","USTXTXS","Texas A & M Forest Service","TXVFD","Andrews Volunteer Fire Dept","","322766","","2011350","","","","","","2011","2011/06/13 00:00:00+00","164","","Human","Missing data/not specified/undetermined","","","","","0.1","A","32.4797","-102.3365","STATE OR PRIVATE","TX","Andrews","48003","Andrews County"
"-95.600959801","32.432420279","1555178","201414139","TFS-TXFD2011-331395","NONFED","ST-TXTXS","ST/C&L","USTXTXS","Texas A & M Forest Service","TXVFD","Edom VFD","","331395","","FM 314","","","","","","2011","2011/06/13 00:00:00+00","164","","Human","Debris and open burning","","","","","1","B","32.432426","-95.600967","STATE OR PRIVATE","TX","Van Zandt","48467","Van Zandt County"
"-96.986631454","32.334457355","1555179","201414141","TFS-TXFD2011-321167","NONFED","ST-TXTXS","ST/C&L","USTXTXS","Texas A & M Forest Service","TXSFD","Ellis County ESD #1","","321167","","011-116","","","","","","2011","2011/06/13 00:00:00+00","164","","Human","Smoking","","","","","15","C","32.334463","-96.986639","STATE OR PRIVATE","TX","Ellis","48139","Ellis County"
"-102.235301197","31.983644643","1555180","201414142","TFS-TXFD2011-321070","NONFED","ST-TXTXS","ST/C&L","USTXTXS","Texas A & M Forest Service","TXSFD","Midland County Fire Marshal","","321070","","JONES 3 FIRE","","","","","","2011","2011/06/13 00:00:00+00","164","","Human","Missing data/not specified/undetermined","","","","","20","C","31.98365","-102.23531","STATE OR PRIVATE","TX","Midland","48329","Midland County"
"-96.497773493","32.058961288","1555181","201414143","TFS-TXFD2011-331124","NONFED","ST-TXTXS","ST/C&L","USTXTXS","Texas A & M Forest Service","TXVFD","Retreat VFD","","331124","","121107770","","","","","","2011","2011/06/13 00:00:00+00","164","","Human","Missing data/not specified/undetermined","","","","","1","B","32.0589669","-96.4977809","STATE OR PRIVATE","TX","Navarro","48349","Navarro County"
"-94.749725837","32.155714198","1555182","201414145","TFS-TXFD2011-321007","NONFED","ST-TXTXS","ST/C&L","USTXTXS","Texas A & M Forest Service","TXSFD","Henderson FD","","321007","","GRASS FIRE","","","","","","2011","2011/06/13 00:00:00+00","164","","Human","Debris and open burning","","","","","1","B","32.1557199","-94.7497328","STATE OR PRIVATE","TX","Rusk","48401","Rusk County"
"-94.826588019","32.120592308","1555183","201414146","TFS-TXFD2011-320920","NONFED","ST-TXTXS","ST/C&L","USTXTXS","Texas A & M Forest Service","TXSFD","Henderson FD","","320920","","GRASS FIRE","","","","","","2011","2011/06/13 00:00:00+00","164","","Human","Missing data/not specified/undetermined","","","","","0.25","A","32.120598","-94.826595","STATE OR PRIVATE","TX","Rusk","48401","Rusk County"
"-98.838575028","31.705772551","1555184","201414147","TFS-TXFD2011-322277","NONFED","ST-TXTXS","ST/C&L","USTXTXS","Texas A & M Forest Service","TXVFD","Zephyr VFD","","322277","","1300","","","","","","2011","2011/06/13 00:00:00+00","164","","Human","Missing data/not specified/undetermined","","","","","2","B","31.705778","-98.838583","STATE OR PRIVATE","TX","Brown","48049","Brown County"
"-95.849182767","31.908450391","1555185","201414149","TFS-TXFD2011-335877","NONFED","ST-TXTXS","ST/C&L","USTXTXS","Texas A & M Forest Service","TXVFD","Montalba VFD","","335877","","TRASH FIRE ","","","","","","2011","2011/06/13 00:00:00+00","164","","Human","Debris and open burning","","","","","1","B","31.908456","-95.84919","STATE OR PRIVATE","TX","Anderson","48001","Anderson County"
"-101.79366408","35.194031074","1555186","201414150","TFS-TXFD2011-338071","NONFED","ST-TXTXS","ST/C&L","USTXTXS","Texas A & M Forest Service","TXSFD","Amarillo Fire Department","","338071","","2011-8398","","","","","","2011","2011/06/13 00:00:00+00","164","","Human","Missing data/not specified/undetermined","","","","","1","B","35.194037","-101.793673","STATE OR PRIVATE","TX","Potter","48375","Potter County"
"-101.888141958","35.185722081","1555187","201414151","TFS-TXFD2011-338069","NONFED","ST-TXTXS","ST/C&L","USTXTXS","Texas A & M Forest Service","TXSFD","Amarillo Fire Department","","338069","","2011-8396","","","","","","2011","2011/06/13 00:00:00+00","164","","Human","Missing data/not specified/undetermined","","","","","1","B","35.185728","-101.8881509","STATE OR PRIVATE","TX","Potter","48375","Potter County"
"-101.937963647","35.183135884","1555188","201414152","TFS-TXFD2011-338101","NONFED","ST-TXTXS","ST/C&L","USTXTXS","Texas A & M Forest Service","TXSFD","Amarillo Fire Department","","338101","","2011-8403","","","","","","2011","2011/06/13 00:00:00+00","164","","Human","Smoking","","","","","1","B","35.1831418","-101.9379726","STATE OR PRIVATE","TX","Potter","48375","Potter County"
"-100.343919431","35.170698002","1555189","201414153","TFS-TXFD2011-342649","NONFED","ST-TXTXS","ST/C&L","USTXTXS","Texas A & M Forest Service","TXVFD","Samnorwood VFD","","342649","","COUNTY LINE FM 1547 RIGHT OF WAY","","","","","","2011","2011/06/13 00:00:00+00","164","","Human","Equipment and vehicle use","","","","","1","B","35.170704","-100.343928","STATE OR PRIVATE","TX","Collingsworth","48087","Collingsworth County"
"-101.861962062","35.214489974","1555190","201414155","TFS-TXFD2011-338089","NONFED","ST-TXTXS","ST/C&L","USTXTXS","Texas A & M Forest Service","TXSFD","Amarillo Fire Department","","338089","","2011-8400","","","","","","2011","2011/06/13 00:00:00+00","164","","Human","Missing data/not specified/undetermined","","","","","1","B","35.2144959","-101.861971","STATE OR PRIVATE","TX","Potter","48375","Potter County"
"-102.434992227","35.209858606","1555191","201414156","TFS-TXFD2011-330684","NONFED","ST-TXTXS","ST/C&L","USTXTXS","Texas A & M Forest Service","TXSFD","Vega Fire Rescue","","330684","","CR 36 & B","","","","","","2011","2011/06/13 00:00:00+00","164","","Human","Power generation/transmission/distribution","","","","","5","B","35.2098645","-102.4350013","STATE OR PRIVATE","TX","Oldham","48359","Oldham County"
"-102.839574902","34.293524277","1555192","201414158","TFS-TXFD2011-325237","NONFED","ST-TXTXS","ST/C&L","USTXTXS","Texas A & M Forest Service","TXVFD","Muleshoe VFD","","325237","","2011049","","","","","","2011","2011/06/13 00:00:00+00","164","","Human","Missing data/not specified/undetermined","","","","","1","B","34.29353","-102.839584","STATE OR PRIVATE","TX","Bailey","48017","Bailey County"
"-100.124407508","34.863007043","1555193","201414159","TFS-TXFD2011-332623","NONFED","ST-TXTXS","ST/C&L","USTXTXS","Texas A & M Forest Service","TXSFD","Wellington Fire Dept.","","332623","","RIGHT OF WAY","","","","","","2011","2011/06/13 00:00:00+00","164","","Human","Power generation/transmission/distribution","","","","","0.5","B","34.863013","-100.124416","STATE OR PRIVATE","TX","Collingsworth","48087","Collingsworth County"
"-101.802397124","34.592938175","1555194","201414160","TFS-TXFD2011-321434","NONFED","ST-TXTXS","ST/C&L","USTXTXS","Texas A & M Forest Service","TXVFD","Tulia Volunteer Fire Dept.","","321434","","2011-80","","","","","","2011","2011/06/13 00:00:00+00","164","","Human","Missing data/not specified/undetermined","","","","","1","B","34.592944","-101.802406","STATE OR PRIVATE","TX","Swisher","48437","Swisher County"
"-102.297125036","34.201717265","1555195","201414161","TFS-TXFD2011-325487","NONFED","ST-TXTXS","ST/C&L","USTXTXS","Texas A & M Forest Service","TXVFD","Earth VFD","","325487","","SPRINGLAKE ASSISTANCE","","","","","","2011","2011/06/13 00:00:00+00","164","","Human","Missing data/not specified/undetermined","","","","","5","B","34.201723","-102.297134","STATE OR PRIVATE","TX","Lamb","48279","Lamb County"
"-99.290305763","34.160640124","1555196","201414162","TFS-TXFD2011-321677","NONFED","ST-TXTXS","ST/C&L","USTXTXS","Texas A & M Forest Service","TXSFD","Vernon FD","","321677","","WHEELER/HWY 287 FIRE","","","","","","2011","2011/06/13 00:00:00+00","164","","Human","Equipment and vehicle use","","","","","1","B","34.160646","-99.290314","STATE OR PRIVATE","TX","Wilbarger","48487","Wilbarger County"
"-98.694765226","33.925748037","1555197","201414163","TFS-TXFD2011-321439","NONFED","ST-TXTXS","ST/C&L","USTXTXS","Texas A & M Forest Service","TXVFD","Iowa Park Volunteer Fire Department","","321439","","3320@368 GRASS FIRE","","","","","","2011","2011/06/13 00:00:00+00","164","","Human","Missing data/not specified/undetermined","","","","","1","B","33.9257539","-98.6947733","STATE OR PRIVATE","TX","Wichita","48485","Wichita County"
"-98.187467056","33.870357123","1555198","201414164","TFS-TXFD2011-337137","NONFED","ST-TXTXS","ST/C&L","USTXTXS","Texas A & M Forest Service","TXVFD","Jolly VFD","","337137","","F.M. 1197 FIRE ","","","","","","2011","2011/06/13 00:00:00+00","164","","Human","Missing data/not specified/undetermined","","","","","40","C","33.870363","-98.187475","STATE OR PRIVATE","TX","Clay","48077","Clay County"
"-101.518469094","35.840075953","1555199","201414165","TFS-TXFD2011-334243","NONFED","ST-TXTXS","ST/C&L","USTXTXS","Texas A & M Forest Service","TXVFD","Stinnett VFD","","334243","","EARLY","","","","","","2011","2011/06/13 00:00:00+00","164","","Natural","Natural","","","","","20","C","35.840082","-101.518478","STATE OR PRIVATE","TX","Hutchinson","48233","Hutchinson County"
"-100.279503376","36.058321849","1555200","201414166","TFS-TXFD2011-372648","NONFED","ST-TXTXS","ST/C&L","USTXTXS","Texas A & M Forest Service","TXVFD","Canadian VFD","","372648","","RADAR RANCH RECALL","","","","","","2011","2011/06/13 00:00:00+00","164","","Human","Debris and open burning","","","","","2","B","36.058328","-100.279512","STATE OR PRIVATE","TX","Lipscomb","48295","Lipscomb County"
"-101.410666071","36.413816854","1555201","201414167","TFS-TXFD2011-418794","NONFED","ST-TXTXS","ST/C&L","USTXTXS","Texas A & M Forest Service","TXSFD","Gruver Fire Dept.","","418794","","SPIVEY GRASS FIRE","","","","","","2011","2011/06/13 00:00:00+00","164","","Human","Missing data/not specified/undetermined","","","","","0.25","A","36.413823","-101.410675","STATE OR PRIVATE","TX","Hansford","48195","Hansford County"
"-100.395289395","35.462620955","1555202","201414170","TFS-TXFD2011-364200","NONFED","ST-TXTXS","ST/C&L","USTXTXS","Texas A & M Forest Service","TXVFD","Mobeetie VFD","","364200","","EMBRIDGE-HIDETOWN","","","","","","2011","2011/06/13 00:00:00+00","164","","Human","Equipment and vehicle use","","","","","5","B","35.462627","-100.395298","STATE OR PRIVATE","TX","Wheeler","48483","Wheeler County"
"-96.518489505","33.447192125","1555203","201414172","TFS-TXFD2011-351765","NONFED","ST-TXTXS","ST/C&L","USTXTXS","Texas A & M Forest Service","TXSFD","Van Alstyne Fire Department","","351765","","EDWARDS FIRE","","","","","","2011","2011/06/13 00:00:00+00","164","","Human","Debris and open burning","","","","","1","B","33.447198","-96.518497","STATE OR PRIVATE","TX","Grayson","48181","Grayson County"
"-95.242187836","33.395183078","1555204","201414173","TFS-TXFD2011-321264","NONFED","ST-TXTXS","ST/C&L","USTXTXS","Texas A & M Forest Service","TXSFD","Bogata Fire & Rescue","","321264","","FM 196 GRASS FIRE 6/13","","","","","","2011","2011/06/13 00:00:00+00","164","","Human","Equipment and vehicle use","","","","","2.84","B","33.395189","-95.242195","STATE OR PRIVATE","TX","Red River","48387","Red River County"
"-95.996768648","33.301115129","1555205","201414174","TFS-TXFD2011-320964","NONFED","ST-TXTXS","ST/C&L","USTXTXS","Texas A & M Forest Service","TXSFD","Commerce Fire Department","","320964","","COYOTE FIRE","","","","","","2011","2011/06/13 00:00:00+00","164","","Human","Debris and open burning","","","","","0.5","B","33.301121","-95.996776","STATE OR PRIVATE","TX","Hunt","48231","Hunt County"
"-95.266220825","33.477409064","1555206","201414175","TFS-TXFD2011-321262","NONFED","ST-TXTXS","ST/C&L","USTXTXS","Texas A & M Forest Service","TXSFD","Bogata Fire & Rescue","","321262","","FM 410S GRASS FIRE 6/13","","","","","","2011","2011/06/13 00:00:00+00","164","","Human","Missing data/not specified/undetermined","","","","","0.01","A","33.477415","-95.266228","STATE OR PRIVATE","TX","Red River","48387","Red River County"
"-97.596945525","33.552127654","1555207","201414176","TFS-TXFD2011-329299","NONFED","ST-TXTXS","ST/C&L","USTXTXS","Texas A & M Forest Service","TXVFD","Forestburg VFD","","329299","","NORED RD FIRE","","","","","","2011","2011/06/13 00:00:00+00","164","","Natural","Natural","","","","","3","B","33.5521335","-97.5969533","STATE OR PRIVATE","TX","Montague","48337","Montague County"
"-99.866400661","33.585445253","1555208","201414177","TFS-TXFD2011-354777","NONFED","ST-TXTXS","ST/C&L","USTXTXS","Texas A & M Forest Service","TXVFD","Benjamin VFD","","354777","","82 WEST FIRE","","","","","","2011","2011/06/13 00:00:00+00","164","","Human","Missing data/not specified/undetermined","","","","","30","C","33.585451","-99.866409","STATE OR PRIVATE","TX","Knox","48275","Knox County"
"-96.741456837","33.622162502","1555209","201414178","TFS-TXFD2011-322498","NONFED","ST-TXTXS","ST/C&L","USTXTXS","Texas A & M Forest Service","TXSFD","Southmayd FD","","322498","","56GRASSFIRE","","","","","","2011","2011/06/13 00:00:00+00","164","","Human","Recreation and ceremony","","","","","0.2","A","33.6221684","-96.7414644","STATE OR PRIVATE","TX","Grayson","48181","Grayson County"
"-98.06464309","33.825643126","1555210","201414179","TFS-TXFD2011-321302","NONFED","ST-TXTXS","ST/C&L","USTXTXS","Texas A & M Forest Service","TXVFD","Bellevue VFD","","321302","","D S MURRY FIRE","","","","","","2011","2011/06/13 00:00:00+00","164","","Human","Power generation/transmission/distribution","","","","","12","C","33.825649","-98.064651","STATE OR PRIVATE","TX","Clay","48077","Clay County"
"-97.925512126","33.803484123","1555211","201414182","TFS-TXFD2011-329634","NONFED","ST-TXTXS","ST/C&L","USTXTXS","Texas A & M Forest Service","TXVFD","Ringgold Volunteer Fire Department","","329634","","FITE ROAD","","","","","","2011","2011/06/14 00:00:00+00","165","","Natural","Natural","","","","","5","B","33.80349","-97.92552","STATE OR PRIVATE","TX","Montague","48337","Montague County"
"-97.799598159","33.78884312","1555212","201414183","TFS-TXFD2011-321270","NONFED","ST-TXTXS","ST/C&L","USTXTXS","Texas A & M Forest Service","TXVFD","Nocona Rural VFD","","321270","","2011061","","","","","","2011","2011/06/14 00:00:00+00","165","","Natural","Natural","","","","","1","B","33.788849","-97.799606","STATE OR PRIVATE","TX","Montague","48337","Montague County"
"-97.936998324","33.798028225","1555213","201414184","TFS-TXFD2011-321269","NONFED","ST-TXTXS","ST/C&L","USTXTXS","Texas A & M Forest Service","TXVFD","Nocona Rural VFD","","321269","","2011060","","","","","","2011","2011/06/14 00:00:00+00","165","","Natural","Natural","","","","","1","B","33.7980341","-97.9370062","STATE OR PRIVATE","TX","Montague","48337","Montague County"
"-95.510666739","33.836766006","1555214","201414185","TFS-TXFD2011-325024","NONFED","ST-TXTXS","ST/C&L","USTXTXS","Texas A & M Forest Service","TXVFD","Chicota VFD","","325024","","61411","","","","","","2011","2011/06/14 00:00:00+00","165","","Human","Equipment and vehicle use","","","","","5","B","33.836772","-95.510674","STATE OR PRIVATE","TX","Lamar","48277","Lamar County"
"-97.968084119","33.745695136","1555215","201414187","TFS-TXFD2011-329635","NONFED","ST-TXTXS","ST/C&L","USTXTXS","Texas A & M Forest Service","TXVFD","Ringgold Volunteer Fire Department","","329635","","DUTTON ROAD","","","","","","2011","2011/06/14 00:00:00+00","165","","Natural","Natural","","","","","5","B","33.745701","-97.968092","STATE OR PRIVATE","TX","Montague","48337","Montague County"
"-98.348014023","33.769795149","1555216","201414188","TFS-TXFD2011-321960","NONFED","ST-TXTXS","ST/C&L","USTXTXS","Texas A & M Forest Service","TXVFD","Arrowhead Ranch Estates VFD","","321960","","HALSELL RANCH 1","","","","","","2011","2011/06/14 00:00:00+00","165","","Natural","Natural","","","","","5","B","33.769801","-98.348022","STATE OR PRIVATE","TX","Clay","48077","Clay County"
"-97.938301125","33.772863129","1555217","201414189","TFS-TXFD2011-321271","NONFED","ST-TXTXS","ST/C&L","USTXTXS","Texas A & M Forest Service","TXVFD","Nocona Rural VFD","","321271","","2011062","","","","","","2011","2011/06/14 00:00:00+00","165","","Natural","Natural","","","","","1","B","33.772869","-97.938309","STATE OR PRIVATE","TX","Montague","48337","Montague County"
"-98.034603111","33.624334161","1555218","201414190","TFS-TXFD2011-321234","NONFED","ST-TXTXS","ST/C&L","USTXTXS","Texas A & M Forest Service","TXVFD","Bellevue VFD","","321234","","61401101","","","","","","2011","2011/06/14 00:00:00+00","165","","Natural","Natural","","","","","8","B","33.62434","-98.034611","STATE OR PRIVATE","TX","Clay","48077","Clay County"
"-101.82932719","33.577926348","1555219","201414192","TFS-TXFD2011-321892","NONFED","ST-TXTXS","ST/C&L","USTXTXS","Texas A & M Forest Service","TXSFD","Lubbock Fire Department","","321892","","602 E. 19TH STREET","","","","","","2011","2011/06/14 00:00:00+00","165","","Human","Missing data/not specified/undetermined","","","","","0.5","B","33.577932","-101.829336","STATE OR PRIVATE","TX","Lubbock","48303","Lubbock County"
"-98.738242933","33.661776187","1555220","201414193","TFS-TXFD2011-323433","NONFED","ST-TXTXS","ST/C&L","USTXTXS","Texas A & M Forest Service","TXVFD","Archer City VFD","","323433","","TURBEVILLE RD.","","","","","","2011","2011/06/14 00:00:00+00","165","","Natural","Natural","","","","","1","B","33.661782","-98.738251","STATE OR PRIVATE","TX","Archer","48009","Archer County"
"-95.514225747","33.692227034","1555221","201414194","TFS-TXFD2011-365519","NONFED","ST-TXTXS","ST/C&L","USTXTXS","Texas A & M Forest Service","TXSFD","Paris Fire Department","","365519","","3410 SUMMERHILL","","","","","","2011","2011/06/14 00:00:00+00","165","","Human","Debris and open burning","","","","","0.1","A","33.692233","-95.514233","STATE OR PRIVATE","TX","Lamar","48277","Lamar County"
"-97.334997291","33.550493143","1555222","201414196","TFS-TXFD2011-324063","NONFED","ST-TXTXS","ST/C&L","USTXTXS","Texas A & M Forest Service","TXVFD","Era VFD","","324063","","GRASS FIRE","","","","","","2011","2011/06/14 00:00:00+00","165","","Natural","Natural","","","","","6","B","33.550499","-97.335005","STATE OR PRIVATE","TX","Cooke","48097","Cooke County"
"-98.574820981","33.558127198","1555223","201414197","TFS-TXFD2011-323436","NONFED","ST-TXTXS","ST/C&L","USTXTXS","Texas A & M Forest Service","TXVFD","Archer City VFD","","323436","","BELL RD.","","","","","","2011","2011/06/14 00:00:00+00","165","","Natural","Natural","","","","","1","B","33.558133","-98.574829","STATE OR PRIVATE","TX","Archer","48009","Archer County"
"-97.060167362","33.528153134","1555224","201414198","TFS-TXFD2011-326701","NONFED","ST-TXTXS","ST/C&L","USTXTXS","Texas A & M Forest Service","TXVFD","Lake Kiowa VFD","","326701","","NEELY TRL","","","","","","2011","2011/06/14 00:00:00+00","165","","Human","Arson/incendiarism","","","","","3","B","33.528159","-97.060175","STATE OR PRIVATE","TX","Cooke","48097","Cooke County"
"-98.447963017","33.481562206","1555225","201414199","TFS-TXFD2011-332116","NONFED","ST-TXTXS","ST/C&L","USTXTXS","Texas A & M Forest Service","TXVFD","Windthorst VFD","","332116","","HWY 16@281","","","","","","2011","2011/06/14 00:00:00+00","165","","Natural","Natural","","","","","0.25","A","33.481568","-98.447971","STATE OR PRIVATE","TX","Archer","48009","Archer County"
"-97.04243617","33.478301043","1555226","201414200","TFS-TXFD2011-324535","NONFED","ST-TXTXS","ST/C&L","USTXTXS","Texas A & M Forest Service","TXVFD","North Shore Vol Fire Dept","","324535","","VALLEY VIEW ASSIST","","","","","","2011","2011/06/14 00:00:00+00","165","","Human","Debris and open burning","","","","","2","B","33.4783069","-97.0424438","STATE OR PRIVATE","TX","Cooke","48097","Cooke County"
"-100.212126396","36.006263854","1555227","201414201","TFS-TXFD2011-372650","NONFED","ST-TXTXS","ST/C&L","USTXTXS","Texas A & M Forest Service","TXVFD","Canadian VFD","","372650","","IV RANCH 2758","","","","","","2011","2011/06/14 00:00:00+00","165","","Natural","Natural","","","","","26","C","36.00627","-100.212135","STATE OR PRIVATE","TX","Hemphill","48211","Hemphill County"
"-99.733954964","34.012675772","1555228","201414202","TFS-TXFD2011-321154","NONFED","ST-TXTXS","ST/C&L","USTXTXS","Texas A & M Forest Service","TXVFD","Crowell V.F.D","","321154","","PARKHILL FIRE","","","","","","2011","2011/06/14 00:00:00+00","165","","Human","Power generation/transmission/distribution","","","","","5","B","34.0126816","-99.7339633","STATE OR PRIVATE","TX","Foard","48155","Foard County"
"-101.822475068","35.258377065","1555229","201414204","TFS-TXFD2011-338148","NONFED","ST-TXTXS","ST/C&L","USTXTXS","Texas A & M Forest Service","TXSFD","Amarillo Fire Department","","338148","","2011-8413","","","","","","2011","2011/06/14 00:00:00+00","165","","Human","Missing data/not specified/undetermined","","","","","1","B","35.258383","-101.822484","STATE OR PRIVATE","TX","Potter","48375","Potter County"
"-101.938097648","35.161681087","1555230","201414205","TFS-TXFD2011-338151","NONFED","ST-TXTXS","ST/C&L","USTXTXS","Texas A & M Forest Service","TXSFD","Amarillo Fire Department","","338151","","2011-8433","","","","","","2011","2011/06/14 00:00:00+00","165","","Human","Missing data/not specified/undetermined","","","","","1","B","35.161687","-101.9381066","STATE OR PRIVATE","TX","Randall","48381","Randall County"
"-100.710792364","34.874510071","1555231","201414206","TFS-TXFD2011-321303","NONFED","ST-TXTXS","ST/C&L","USTXTXS","Texas A & M Forest Service","TXVFD","Clarendon Vol. Fire Dept.","","321303","","US 287 - MONROES WEST","","","","","","2011","2011/06/14 00:00:00+00","165","","Human","Equipment and vehicle use","","","","","2","B","34.874516","-100.710801","STATE OR PRIVATE","TX","Donley","48129","Donley County"
"-100.740843357","34.881700072","1555232","201414207","TFS-TXFD2011-379343","NONFED","ST-TXTXS","ST/C&L","USTXTXS","Texas A & M Forest Service","TXSFD","Hedley","","379343","","EAST OF LELIA LAKE HWY 287","","","","","","2011","2011/06/14 00:00:00+00","165","","Human","Equipment and vehicle use","","","","","25","C","34.881706","-100.740852","STATE OR PRIVATE","TX","Donley","48129","Donley County"
"-96.405777425","31.918121511","1555233","201414208","TFS-TXFD2011-344872","NONFED","ST-TXTXS","ST/C&L","USTXTXS","Texas A & M Forest Service","TXVFD","Richland Vol Fire Dept","","344872","","11-07814","","","","","","2011","2011/06/14 00:00:00+00","165","","Human","Equipment and vehicle use","","","","","1.5","B","31.9181271","-96.4057848","STATE OR PRIVATE","TX","Navarro","48349","Navarro County"
"-102.060430254","31.703035685","1555234","201414210","TFS-TXFD2011-324214","NONFED","ST-TXTXS","ST/C&L","USTXTXS","Texas A & M Forest Service","TXSFD","Midland County Fire Marshal","","324214","","LOVEJOY FIRE","","","","","","2011","2011/06/14 00:00:00+00","165","","Human","Missing data/not specified/undetermined","","","","","1","B","31.703041","-102.060439","STATE OR PRIVATE","TX","Midland","48329","Midland County"
"-97.098435462","31.697030482","1555235","201414211","TFS-TXFD2011-341358","NONFED","ST-TXTXS","ST/C&L","USTXTXS","Texas A & M Forest Service","TXSFD","Elm Mott Fire/Rescue","","341358","","GRASSFIRE - ELECTRICAL","","","","","","2011","2011/06/14 00:00:00+00","165","","Human","Power generation/transmission/distribution","","","","","0.1","A","31.697036","-97.098443","STATE OR PRIVATE","TX","McLennan","48309","McLennan County"
"-94.837585016","32.11416531","1555236","201414212","TFS-TXFD2011-321184","NONFED","ST-TXTXS","ST/C&L","USTXTXS","Texas A & M Forest Service","TXSFD","Henderson FD","","321184","","GRASS FIRE","","","","","","2011","2011/06/14 00:00:00+00","165","","Human","Missing data/not specified/undetermined","","","","","0.5","B","32.114171","-94.837592","STATE OR PRIVATE","TX","Rusk","48401","Rusk County"
"-97.277981391","32.144717404","1555237","201414213","TFS-TXFD2011-329806","NONFED","ST-TXTXS","ST/C&L","USTXTXS","Texas A & M Forest Service","TXVFD","Covington VFD","","329806","","HCR 1439","","","","","","2011","2011/06/14 00:00:00+00","165","","Human","Arson/incendiarism","","","","","15","C","32.144723","-97.277989","STATE OR PRIVATE","TX","Hill","48217","Hill County"
"-95.13899794","32.092131326","1555238","201414214","TFS-TXFD2011-323967","NONFED","ST-TXTXS","ST/C&L","USTXTXS","Texas A & M Forest Service","TXVFD","Troup Volunteer Fire Department","","323967","","CR 4807 FIRE","","","","","","2011","2011/06/14 00:00:00+00","165","","Human","Missing data/not specified/undetermined","","","","","0.25","A","32.092137","-95.139005","STATE OR PRIVATE","TX","Cherokee","48073","Cherokee County"
"-96.339025834","32.059270381","1555239","201414215","TFS-TXFD2011-336451","NONFED","ST-TXTXS","ST/C&L","USTXTXS","Texas A & M Forest Service","TXVFD","Eureka VFD","","336451","","BLUFFVIEW ESTATES FIRE","","","","","","2011","2011/06/14 00:00:00+00","165","","Human","Arson/incendiarism","","","","","2","B","32.059276","-96.3390332","STATE OR PRIVATE","TX","Navarro","48349","Navarro County"
"-99.949484742","31.971963548","1555240","201414216","TFS-TXFD2011-333330","NONFED","ST-TXTXS","ST/C&L","USTXTXS","Texas A & M Forest Service","TXVFD","Lawn VFD","","333330","","GRASS RUNNELS 2 ","","","","","","2011","2011/06/14 00:00:00+00","165","","Human","Equipment and vehicle use","","","","","100","D","31.971969","-99.949493","STATE OR PRIVATE","TX","Runnels","48399","Runnels County"
"-98.926326991","31.977572504","1555241","201414217","TFS-TXFD2011-335424","NONFED","ST-TXTXS","ST/C&L","USTXTXS","Texas A & M Forest Service","TXVFD","May VFD","","335424","","FORD ST","","","","","","2011","2011/06/14 00:00:00+00","165","","Human","Debris and open burning","","","","","0.3","B","31.977578","-98.926335","STATE OR PRIVATE","TX","Brown","48049","Brown County"
"-96.986610454","32.334351355","1555242","201414218","TFS-TXFD2011-322529","NONFED","ST-TXTXS","ST/C&L","USTXTXS","Texas A & M Forest Service","TXSFD","Ellis County ESD #1","","322529","","011-118","","","","","","2011","2011/06/14 00:00:00+00","165","","Human","Missing data/not specified/undetermined","","","","","1","B","32.334357","-96.986618","STATE OR PRIVATE","TX","Ellis","48139","Ellis County"
"-94.870326995","32.338530267","1555243","201414220","TFS-TXFD2011-336612","NONFED","ST-TXTXS","ST/C&L","USTXTXS","Texas A & M Forest Service","TXVFD","Crims Chapel VFD","","336612","","GRASS","","","","","","2011","2011/06/14 00:00:00+00","165","","Human","Debris and open burning","","","","","1.5","B","32.338536","-94.870334","STATE OR PRIVATE","TX","Rusk","48401","Rusk County"
"-96.933987167","32.345739151","1555244","201414221","TFS-TXFD2011-322534","NONFED","ST-TXTXS","ST/C&L","USTXTXS","Texas A & M Forest Service","TXSFD","Ellis County ESD #1","","322534","","011-119","","","","","","2011","2011/06/14 00:00:00+00","165","","Human","Debris and open burning","","","","","1","B","32.3457448","-96.9339947","STATE OR PRIVATE","TX","Ellis","48139","Ellis County"
"-94.615903059","32.376733249","1555245","201414222","TFS-TXFD2011-321164","NONFED","ST-TXTXS","ST/C&L","USTXTXS","Texas A & M Forest Service","TXVFD","Elderville-Lakeport Volunteer Fire Department","","321164","","11-0000145","","","","","","2011","2011/06/14 00:00:00+00","165","","Human","Debris and open burning","","","","","0.5","B","32.376739","-94.61591","STATE OR PRIVATE","TX","Gregg","48183","Gregg County"
