"ï»¿X","Y","OBJECTID","FOD_ID","FPA_ID","SOURCE_SYSTEM_TYPE","SOURCE_SYSTEM","NWCG_REPORTING_AGENCY","NWCG_REPORTING_UNIT_ID","NWCG_REPORTING_UNIT_NAME","SOURCE_REPORTING_UNIT","SOURCE_REPORTING_UNIT_NAME","LOCAL_FIRE_REPORT_ID","LOCAL_INCIDENT_ID","FIRE_CODE","FIRE_NAME","ICS_209_PLUS_INCIDENT_JOIN_ID","ICS_209_PLUS_COMPLEX_JOIN_ID","MTBS_ID","MTBS_FIRE_NAME","COMPLEX_NAME","FIRE_YEAR","DISCOVERY_DATE","DISCOVERY_DOY","DISCOVERY_TIME","NWCG_CAUSE_CLASSIFICATION","NWCG_GENERAL_CAUSE","NWCG_CAUSE_AGE_CATEGORY","CONT_DATE","CONT_DOY","CONT_TIME","FIRE_SIZE","FIRE_SIZE_CLASS","LATITUDE","LONGITUDE","OWNER_DESCR","STATE","COUNTY","FIPS_CODE","FIPS_NAME"
"-82.487719987","38.16357271","1325001","1805044","SFO-1992WVDOF1992-14240","NONFED","ST-NASF","ST/C&L","USWVWVS","West Virginia Division of Forestry","WVDOF","West Virginia Division of Forestry","","1992-14240","","GREENBRIER CREEK ROAD","","","","","","1992","1992/02/22 00:00:00+00","53","1330","Human","Debris and open burning","","1992/02/22 00:00:00+00","53","1330","25","C","38.16358013","-82.4877239","PRIVATE","WV","Wayne","54099","Wayne County"
"-82.533637279","38.077845589","1325002","1805045","SFO-1992WVDOF1992-14241","NONFED","ST-NASF","ST/C&L","USWVWVS","West Virginia Division of Forestry","WVDOF","West Virginia Division of Forestry","","1992-14241","","MILL HOLLOW","","","","","","1992","1992/02/22 00:00:00+00","53","1500","Human","Arson/incendiarism","","1992/02/22 00:00:00+00","53","1500","35","C","38.07785299","-82.5336412","PRIVATE","WV","Wayne","54099","Wayne County"
"-82.505756389","38.345272255","1325003","1805046","SFO-1992WVDOF1992-14242","NONFED","ST-NASF","ST/C&L","USWVWVS","West Virginia Division of Forestry","WVDOF","West Virginia Division of Forestry","","1992-14242","","MALCOLM LANE","","","","","","1992","1992/02/22 00:00:00+00","53","1645","Human","Debris and open burning","","1992/02/22 00:00:00+00","53","1645","0.5","B","38.34527971","-82.50576032","PRIVATE","WV","Wayne","54099","Wayne County"
"-82.313084772","38.273846301","1325004","1805047","SFO-1992WVDOF1992-14243","NONFED","ST-NASF","ST/C&L","USWVWVS","West Virginia Division of Forestry","WVDOF","West Virginia Division of Forestry","","1992-14243","","BEECH FORK ROAD","","","","","","1992","1992/03/01 00:00:00+00","61","1515","Human","Debris and open burning","","1992/03/01 00:00:00+00","61","1515","3","B","38.27385375","-82.31308864","PRIVATE","WV","Wayne","54099","Wayne County"
"-82.448766507","38.341025563","1325005","1805048","SFO-1992WVDOF1992-14244","NONFED","ST-NASF","ST/C&L","USWVWVS","West Virginia Division of Forestry","WVDOF","West Virginia Division of Forestry","","1992-14244","","EIGTH STREET ROAD","","","","","","1992","1992/03/02 00:00:00+00","62","1045","Human","Arson/incendiarism","","1992/03/02 00:00:00+00","62","1045","8","B","38.34103302","-82.44877042","PRIVATE","WV","Wayne","54099","Wayne County"
"-82.432883223","38.026821225","1325006","1805049","SFO-1992WVDOF1992-14245","NONFED","ST-NASF","ST/C&L","USWVWVS","West Virginia Division of Forestry","WVDOF","West Virginia Division of Forestry","","1992-14245","","BIG BRANCH ROAD","","","","","","1992","1992/03/03 00:00:00+00","63","1130","Human","Arson/incendiarism","","1992/03/03 00:00:00+00","63","1130","25","C","38.02682862","-82.43288711","PRIVATE","WV","Wayne","54099","Wayne County"
"-82.485546438","38.154335992","1325007","1805050","SFO-1992WVDOF1992-14246","NONFED","ST-NASF","ST/C&L","USWVWVS","West Virginia Division of Forestry","WVDOF","West Virginia Division of Forestry","","1992-14246","","DILLON BRANCH","","","","","","1992","1992/03/03 00:00:00+00","63","1520","Human","Arson/incendiarism","","1992/03/04 00:00:00+00","64","1520","85","C","38.15434341","-82.48555035","PRIVATE","WV","Wayne","54099","Wayne County"
"-82.535215738","38.082997838","1325008","1805051","SFO-1992WVDOF1992-14247","NONFED","ST-NASF","ST/C&L","USWVWVS","West Virginia Division of Forestry","WVDOF","West Virginia Division of Forestry","","1992-14247","","WILDCAT BRANCH","","","","","","1992","1992/03/03 00:00:00+00","63","1527","Human","Arson/incendiarism","","1992/03/03 00:00:00+00","63","1527","25","C","38.08300524","-82.53521966","PRIVATE","WV","Wayne","54099","Wayne County"
"-82.541468218","38.068541761","1325009","1805052","SFO-1992WVDOF1992-14248","NONFED","ST-NASF","ST/C&L","USWVWVS","West Virginia Division of Forestry","WVDOF","West Virginia Division of Forestry","","1992-14248","","BROMLEY RIDGE ROAD","","","","","","1992","1992/03/03 00:00:00+00","63","1435","Human","Arson/incendiarism","","1992/03/03 00:00:00+00","63","1435","20","C","38.06854916","-82.54147214","PRIVATE","WV","Wayne","54099","Wayne County"
"-82.595940303","38.191898109","1325010","1805053","SFO-1992WVDOF1992-14249","NONFED","ST-NASF","ST/C&L","USWVWVS","West Virginia Division of Forestry","WVDOF","West Virginia Division of Forestry","","1992-14249","","BIG HURRICANE CREEK","","","","","","1992","1992/03/03 00:00:00+00","63","1700","Human","Debris and open burning","","1992/03/03 00:00:00+00","63","1700","0.5","B","38.19190553","-82.59594425","PRIVATE","WV","Wayne","54099","Wayne County"
"-82.480024248","38.178125167","1325011","1805054","SFO-1992WVDOF1992-14250","NONFED","ST-NASF","ST/C&L","USWVWVS","West Virginia Division of Forestry","WVDOF","West Virginia Division of Forestry","","1992-14250","","WV RT. 52 TWELVEPOLE CREEK","","","","","","1992","1992/03/02 00:00:00+00","62","1300","Human","Arson/incendiarism","","1992/03/02 00:00:00+00","62","1300","0.5","B","38.17813259","-82.48002816","PRIVATE","WV","Wayne","54099","Wayne County"
"-82.361356554","38.172469923","1325012","1805055","SFO-1992WVDOF1992-14251","NONFED","ST-NASF","ST/C&L","USWVWVS","West Virginia Division of Forestry","WVDOF","West Virginia Division of Forestry","","1992-14251","","CAMP CREEK","","","","","","1992","1992/03/04 00:00:00+00","64","1400","Human","Debris and open burning","","1992/03/04 00:00:00+00","64","1400","1","B","38.17247735","-82.36136043","PRIVATE","WV","Wayne","54099","Wayne County"
"-82.382896436","37.907016007","1325013","1805056","SFO-1992WVDOF1992-14252","NONFED","ST-NASF","ST/C&L","USWVWVS","West Virginia Division of Forestry","WVDOF","West Virginia Division of Forestry","","1992-14252","","JENNIES CREEK ROAD","","","","","","1992","1992/03/04 00:00:00+00","64","1050","Human","Arson/incendiarism","","1992/03/04 00:00:00+00","64","1050","37","C","37.90702338","-82.3829003","PRIVATE","WV","Wayne","54099","Wayne County"
"-82.580595944","38.243211588","1325014","1805057","SFO-1992WVDOF1992-14253","NONFED","ST-NASF","ST/C&L","USWVWVS","West Virginia Division of Forestry","WVDOF","West Virginia Division of Forestry","","1992-14253","","LOCK HILL","","","","","","1992","1992/03/05 00:00:00+00","65","1400","Human","Arson/incendiarism","","1992/03/05 00:00:00+00","65","1400","8","B","38.24321902","-82.58059989","PRIVATE","WV","Wayne","54099","Wayne County"
"-82.448108617","38.341889813","1325015","1805058","SFO-1992WVDOF1992-14254","NONFED","ST-NASF","ST/C&L","USWVWVS","West Virginia Division of Forestry","WVDOF","West Virginia Division of Forestry","","1992-14254","","8TH STREET ROAD","","","","","","1992","1992/03/05 00:00:00+00","65","1845","Human","Debris and open burning","","1992/03/05 00:00:00+00","65","1845","0.1","A","38.34189727","-82.44811253","PRIVATE","WV","Wayne","54099","Wayne County"
"-82.5958984","38.233902411","1325016","1805059","SFO-1992WVDOF1992-14255","NONFED","ST-NASF","ST/C&L","USWVWVS","West Virginia Division of Forestry","WVDOF","West Virginia Division of Forestry","","1992-14255","","OLD COUNTY RT. 1","","","","","","1992","1992/03/05 00:00:00+00","65","1930","Human","Arson/incendiarism","","1992/03/05 00:00:00+00","65","1930","8","B","38.23390984","-82.59590235","PRIVATE","WV","Wayne","54099","Wayne County"
"-82.522140102","38.234054278","1325017","1805060","SFO-1992WVDOF1992-14256","NONFED","ST-NASF","ST/C&L","USWVWVS","West Virginia Division of Forestry","WVDOF","West Virginia Division of Forestry","","1992-14256","","BUCK HOLLOW","","","","","","1992","1992/03/05 00:00:00+00","65","1930","Human","Arson/incendiarism","","1992/03/05 00:00:00+00","65","1930","1","B","38.23406171","-82.52214403","PRIVATE","WV","Wayne","54099","Wayne County"
"-82.592325401","38.23666353","1325018","1805061","SFO-1992WVDOF1992-14257","NONFED","ST-NASF","ST/C&L","USWVWVS","West Virginia Division of Forestry","WVDOF","West Virginia Division of Forestry","","1992-14257","","BUCK HOLLOW","","","","","","1992","1992/03/05 00:00:00+00","65","1930","Human","Arson/incendiarism","","1992/03/05 00:00:00+00","65","1930","0.1","A","38.23667096","-82.59232935","PRIVATE","WV","Wayne","54099","Wayne County"
"-82.591247751","38.230730431","1325019","1805062","SFO-1992WVDOF1992-14258","NONFED","ST-NASF","ST/C&L","USWVWVS","West Virginia Division of Forestry","WVDOF","West Virginia Division of Forestry","","1992-14258","","BUCK HOLLOW","","","","","","1992","1992/03/05 00:00:00+00","65","1930","Human","Arson/incendiarism","","1992/03/05 00:00:00+00","65","1930","0.2","A","38.23073786","-82.5912517","PRIVATE","WV","Wayne","54099","Wayne County"
"-82.592329561","38.232139591","1325020","1805063","SFO-1992WVDOF1992-14259","NONFED","ST-NASF","ST/C&L","USWVWVS","West Virginia Division of Forestry","WVDOF","West Virginia Division of Forestry","","1992-14259","","OLD COUNTY RT. 1","","","","","","1992","1992/03/05 00:00:00+00","65","1930","Human","Arson/incendiarism","","1992/03/05 00:00:00+00","65","1930","10","C","38.23214702","-82.59233351","PRIVATE","WV","Wayne","54099","Wayne County"
"-82.59602897","38.235693961","1325021","1805064","SFO-1992WVDOF1992-14260","NONFED","ST-NASF","ST/C&L","USWVWVS","West Virginia Division of Forestry","WVDOF","West Virginia Division of Forestry","","1992-14260","","OLD COUNTY RT. 1","","","","","","1992","1992/03/05 00:00:00+00","65","1930","Human","Arson/incendiarism","","1992/03/05 00:00:00+00","65","1930","2","B","38.23570139","-82.59603292","PRIVATE","WV","Wayne","54099","Wayne County"
"-82.59402972","38.235180461","1325022","1805065","SFO-1992WVDOF1992-14261","NONFED","ST-NASF","ST/C&L","USWVWVS","West Virginia Division of Forestry","WVDOF","West Virginia Division of Forestry","","1992-14261","","SCHOOLHOUSE HOLLOW","","","","","","1992","1992/03/05 00:00:00+00","65","2300","Human","Arson/incendiarism","","1992/03/05 00:00:00+00","65","2300","0.3","B","38.23518789","-82.59403367","PRIVATE","WV","Wayne","54099","Wayne County"
"-82.592814551","38.232899001","1325023","1805066","SFO-1992WVDOF1992-14262","NONFED","ST-NASF","ST/C&L","USWVWVS","West Virginia Division of Forestry","WVDOF","West Virginia Division of Forestry","","1992-14262","","BUCK HOLLOW","","","","","","1992","1992/03/05 00:00:00+00","65","1930","Human","Arson/incendiarism","","1992/03/05 00:00:00+00","65","1930","0.5","B","38.23290643","-82.5928185","PRIVATE","WV","Wayne","54099","Wayne County"
"-82.592023151","38.23590164","1325024","1805067","SFO-1992WVDOF1992-14263","NONFED","ST-NASF","ST/C&L","USWVWVS","West Virginia Division of Forestry","WVDOF","West Virginia Division of Forestry","","1992-14263","","BUCK HOLLOW","","","","","","1992","1992/03/05 00:00:00+00","65","1930","Human","Arson/incendiarism","","1992/03/05 00:00:00+00","65","1930","2","B","38.23590907","-82.5920271","PRIVATE","WV","Wayne","54099","Wayne County"
"-82.59642164","38.234318831","1325025","1805069","SFO-1992WVDOF1992-14265","NONFED","ST-NASF","ST/C&L","USWVWVS","West Virginia Division of Forestry","WVDOF","West Virginia Division of Forestry","","1992-14265","","OLD COUNTY RT. 1","","","","","","1992","1992/03/05 00:00:00+00","65","1930","Human","Arson/incendiarism","","1992/03/05 00:00:00+00","65","1930","3","B","38.23432626","-82.59642559","PRIVATE","WV","Wayne","54099","Wayne County"
"-82.585588755","38.352968907","1325026","1805070","SFO-1992WVDOF1992-14266","NONFED","ST-NASF","ST/C&L","USWVWVS","West Virginia Division of Forestry","WVDOF","West Virginia Division of Forestry","","1992-14266","","TABORS CREEK ROAD","","","","","","1992","1992/03/02 00:00:00+00","62","1830","Human","Arson/incendiarism","","1992/03/02 00:00:00+00","62","1830","0.1","A","38.35297636","-82.58559271","PRIVATE","WV","Wayne","54099","Wayne County"
"-82.586981414","38.354905547","1325027","1805071","SFO-1992WVDOF1992-14267","NONFED","ST-NASF","ST/C&L","USWVWVS","West Virginia Division of Forestry","WVDOF","West Virginia Division of Forestry","","1992-14267","","TABORS CREEK ROAD","","","","","","1992","1992/03/02 00:00:00+00","62","1830","Human","Arson/incendiarism","","1992/03/02 00:00:00+00","62","1830","0.1","A","38.354913","-82.58698537","PRIVATE","WV","Wayne","54099","Wayne County"
"-82.601384541","38.18761539","1325028","1805072","SFO-1992WVDOF1992-14268","NONFED","ST-NASF","ST/C&L","USWVWVS","West Virginia Division of Forestry","WVDOF","West Virginia Division of Forestry","","1992-14268","","TOLSIA HIGHWAY","","","","","","1992","1992/03/02 00:00:00+00","62","1845","Human","Arson/incendiarism","","1992/03/02 00:00:00+00","62","1845","0.3","B","38.18762281","-82.60138849","STATE","WV","Wayne","54099","Wayne County"
"-82.570557536","38.250907356","1325029","1805073","SFO-1992WVDOF1992-14269","NONFED","ST-NASF","ST/C&L","USWVWVS","West Virginia Division of Forestry","WVDOF","West Virginia Division of Forestry","","1992-14269","","LOCK HILL","","","","","","1992","1992/03/02 00:00:00+00","62","1950","Human","Arson/incendiarism","","1992/03/02 00:00:00+00","62","1950","0.1","A","38.25091479","-82.57056148","PRIVATE","WV","Wayne","54099","Wayne County"
"-82.606700457","38.225833553","1325030","1805074","SFO-1992WVDOF1992-14270","NONFED","ST-NASF","ST/C&L","USWVWVS","West Virginia Division of Forestry","WVDOF","West Virginia Division of Forestry","","1992-14270","","TOLSIA HIGHWAY","","","","","","1992","1992/03/02 00:00:00+00","62","1755","Human","Arson/incendiarism","","1992/03/02 00:00:00+00","62","1755","0.4","B","38.22584098","-82.60670441","STATE","WV","Wayne","54099","Wayne County"
"-82.591375741","38.240794779","1325031","1805075","SFO-1992WVDOF1992-14271","NONFED","ST-NASF","ST/C&L","USWVWVS","West Virginia Division of Forestry","WVDOF","West Virginia Division of Forestry","","1992-14271","","TOLSIA HIGHWAY","","","","","","1992","1992/03/04 00:00:00+00","64","2030","Human","Arson/incendiarism","","1992/03/04 00:00:00+00","64","2030","0.2","A","38.24080221","-82.59137969","PRIVATE","WV","Wayne","54099","Wayne County"
"-82.600780388","38.236142841","1325032","1805076","SFO-1992WVDOF1992-14272","NONFED","ST-NASF","ST/C&L","USWVWVS","West Virginia Division of Forestry","WVDOF","West Virginia Division of Forestry","","1992-14272","","OLD COUNTY RT. 1","","","","","","1992","1992/03/05 00:00:00+00","65","0001","Human","Arson/incendiarism","","1992/03/05 00:00:00+00","65","0010","0.1","A","38.23615027","-82.60078434","PRIVATE","WV","Wayne","54099","Wayne County"
"-82.482051333","38.396553384","1325033","1805077","SFO-1992WVDOF1992-14273","NONFED","ST-NASF","ST/C&L","USWVWVS","West Virginia Division of Forestry","WVDOF","West Virginia Division of Forestry","","1992-14273","","WEST ROAD","","","","","","1992","1992/02/22 00:00:00+00","53","1515","Human","Debris and open burning","","1992/02/22 00:00:00+00","53","1515","2","B","38.39656085","-82.48205526","PRIVATE","WV","Wayne","54099","Wayne County"
"-82.457232642","38.218026858","1325034","1805078","SFO-1992WVDOF1992-14275","NONFED","ST-NASF","ST/C&L","USWVWVS","West Virginia Division of Forestry","WVDOF","West Virginia Division of Forestry","","1992-14275","","TOMS CREEK ROAD","","","","","","1992","1992/03/17 00:00:00+00","77","1510","Human","Debris and open burning","","1992/03/17 00:00:00+00","77","1510","0.1","A","38.21803429","-82.45723655","PRIVATE","WV","Wayne","54099","Wayne County"
"-82.440853758","37.920018796","1325035","1805079","SFO-1992WVDOF1992-14276","NONFED","ST-NASF","ST/C&L","USWVWVS","West Virginia Division of Forestry","WVDOF","West Virginia Division of Forestry","","1992-14276","","RIGHT FORK BULL CREEK","","","","","","1992","1992/03/28 00:00:00+00","88","1700","Human","Arson/incendiarism","","1992/03/28 00:00:00+00","88","1700","4","B","37.92002617","-82.44085764","PRIVATE","WV","Wayne","54099","Wayne County"
"-82.582317787","38.189784719","1325036","1805080","SFO-1992WVDOF1992-14277","NONFED","ST-NASF","ST/C&L","USWVWVS","West Virginia Division of Forestry","WVDOF","West Virginia Division of Forestry","","1992-14277","","BIG HURRICANE CREEK","","","","","","1992","1992/01/21 00:00:00+00","21","1400","Human","Arson/incendiarism","","1992/01/21 00:00:00+00","21","1400","0.3","B","38.18979214","-82.58232173","PRIVATE","WV","Wayne","54099","Wayne County"
"-82.425955056","38.307971009","1325037","1805081","SFO-1992WVDOF1992-14279","NONFED","ST-NASF","ST/C&L","USWVWVS","West Virginia Division of Forestry","WVDOF","West Virginia Division of Forestry","","1992-14279","","DELTA LANE","","","","","","1992","1992/04/06 00:00:00+00","97","1346","Human","Debris and open burning","","1992/04/06 00:00:00+00","97","1346","7","B","38.30797846","-82.42595896","PRIVATE","WV","Wayne","54099","Wayne County"
"-82.482847763","38.102767552","1325038","1805084","SFO-1992WVDOF1992-14282","NONFED","ST-NASF","ST/C&L","USWVWVS","West Virginia Division of Forestry","WVDOF","West Virginia Division of Forestry","","1992-14282","","JACKSON BRANCH","","","","","","1992","1992/04/10 00:00:00+00","101","1300","Human","Arson/incendiarism","","1992/04/10 00:00:00+00","101","1300","7","B","38.10277496","-82.48285167","PRIVATE","WV","Wayne","54099","Wayne County"
"-82.563286489","38.239036988","1325039","1805085","SFO-1992WVDOF1992-14283","NONFED","ST-NASF","ST/C&L","USWVWVS","West Virginia Division of Forestry","WVDOF","West Virginia Division of Forestry","","1992-14283","","UPPER GRASSTON CREEK","","","","","","1992","1992/04/12 00:00:00+00","103","1930","Human","Arson/incendiarism","","1992/04/12 00:00:00+00","103","1930","0.2","A","38.23904442","-82.56329043","PRIVATE","WV","Wayne","54099","Wayne County"
"-82.549727891","38.265594373","1325040","1805086","SFO-1992WVDOF1992-14284","NONFED","ST-NASF","ST/C&L","USWVWVS","West Virginia Division of Forestry","WVDOF","West Virginia Division of Forestry","","1992-14284","","BRIDGES BRANCH","","","","","","1992","1992/04/12 00:00:00+00","103","2000","Human","Arson/incendiarism","","1992/04/12 00:00:00+00","103","2000","0.1","A","38.26560181","-82.54973183","PRIVATE","WV","Wayne","54099","Wayne County"
"-82.503731395","38.263877531","1325041","1805087","SFO-1992WVDOF1992-14285","NONFED","ST-NASF","ST/C&L","USWVWVS","West Virginia Division of Forestry","WVDOF","West Virginia Division of Forestry","","1992-14285","","BALANGEE BRANCH ROAD","","","","","","1992","1992/04/12 00:00:00+00","103","1940","Human","Arson/incendiarism","","1992/04/13 00:00:00+00","104","1940","30","C","38.26388497","-82.50373532","PRIVATE","WV","Wayne","54099","Wayne County"
"-82.368788802","38.177988922","1325042","1805088","SFO-1992WVDOF1992-14286","NONFED","ST-NASF","ST/C&L","USWVWVS","West Virginia Division of Forestry","WVDOF","West Virginia Division of Forestry","","1992-14286","","LITTLE LYNN CREEK LEFT FORK","","","","","","1992","1992/04/13 00:00:00+00","104","1243","Human","Arson/incendiarism","","1992/04/13 00:00:00+00","104","1243","6","B","38.17799635","-82.36879268","PRIVATE","WV","Wayne","54099","Wayne County"
"-82.470621613","38.001958851","1325043","1805089","SFO-1992WVDOF1992-14287","NONFED","ST-NASF","ST/C&L","USWVWVS","West Virginia Division of Forestry","WVDOF","West Virginia Division of Forestry","","1992-14287","","LOWER RIGHT FORK OF LOST CREEK","","","","","","1992","1992/04/13 00:00:00+00","104","1307","Human","Arson/incendiarism","","1992/04/13 00:00:00+00","104","1307","8","B","38.00196624","-82.47062551","PRIVATE","WV","Wayne","54099","Wayne County"
"-82.360910438","38.125134742","1325044","1805090","SFO-1992WVDOF1992-14288","NONFED","ST-NASF","ST/C&L","USWVWVS","West Virginia Division of Forestry","WVDOF","West Virginia Division of Forestry","","1992-14288","","CAMP CREEK LEFT FORK","","","","","","1992","1992/04/13 00:00:00+00","104","1700","Human","Debris and open burning","","1992/04/13 00:00:00+00","104","1700","3","B","38.12514216","-82.36091431","PRIVATE","WV","Wayne","54099","Wayne County"
"-82.490173473","38.355988142","1325045","1805091","SFO-1992WVDOF1992-14289","NONFED","ST-NASF","ST/C&L","USWVWVS","West Virginia Division of Forestry","WVDOF","West Virginia Division of Forestry","","1992-14289","","HAYNES BRANCH","","","","","","1992","1992/04/13 00:00:00+00","104","1800","Human","Debris and open burning","","1992/04/13 00:00:00+00","104","1800","3","B","38.3559956","-82.4901774","PRIVATE","WV","Wayne","54099","Wayne County"
"-82.517218265","38.349476965","1325046","1805092","SFO-1992WVDOF1992-14290","NONFED","ST-NASF","ST/C&L","USWVWVS","West Virginia Division of Forestry","WVDOF","West Virginia Division of Forestry","","1992-14290","","BURGER HOLLOW","","","","","","1992","1992/04/13 00:00:00+00","104","2100","Human","Recreation and ceremony","","1992/04/13 00:00:00+00","104","2100","0.1","A","38.34948442","-82.5172222","PRIVATE","WV","Wayne","54099","Wayne County"
"-82.411359437","37.906010888","1325047","1805093","SFO-1992WVDOF1992-14291","NONFED","ST-NASF","ST/C&L","USWVWVS","West Virginia Division of Forestry","WVDOF","West Virginia Division of Forestry","","1992-14291","","JENNIES CREEK ROAD","","","","","","1992","1992/04/15 00:00:00+00","106","1430","Human","Recreation and ceremony","","1992/04/15 00:00:00+00","106","1430","25","C","37.90601826","-82.41136331","PRIVATE","WV","Wayne","54099","Wayne County"
"-82.385687104","37.916923815","1325048","1805094","SFO-1992WVDOF1992-14292","NONFED","ST-NASF","ST/C&L","USWVWVS","West Virginia Division of Forestry","WVDOF","West Virginia Division of Forestry","","1992-14292","","BULL BRANCH","","","","","","1992","1992/04/16 00:00:00+00","107","2045","Human","Arson/incendiarism","","1992/04/17 00:00:00+00","108","2045","35","C","37.91693119","-82.38569097","PRIVATE","WV","Wayne","54099","Wayne County"
"-82.543316158","38.052322894","1325049","1805095","SFO-1992WVDOF1992-14293","NONFED","ST-NASF","ST/C&L","USWVWVS","West Virginia Division of Forestry","WVDOF","West Virginia Division of Forestry","","1992-14293","","TUG RIVER","","","","","","1992","1992/04/16 00:00:00+00","107","1711","Human","Arson/incendiarism","","1992/04/16 00:00:00+00","107","1711","0.5","B","38.05233029","-82.54332008","PRIVATE","WV","Wayne","54099","Wayne County"
"-82.510459767","38.355205593","1325050","1805096","SFO-1992WVDOF1992-14294","NONFED","ST-NASF","ST/C&L","USWVWVS","West Virginia Division of Forestry","WVDOF","West Virginia Division of Forestry","","1992-14294","","OLD RT. 75","","","","","","1992","1992/04/16 00:00:00+00","107","1715","Human","Misuse of fire by a minor","Minor","1992/04/16 00:00:00+00","107","1715","4","B","38.35521305","-82.5104637","PRIVATE","WV","Wayne","54099","Wayne County"
"-82.509948945","38.090733455","1325051","1805097","SFO-1992WVDOF1992-14296","NONFED","ST-NASF","ST/C&L","USWVWVS","West Virginia Division of Forestry","WVDOF","West Virginia Division of Forestry","","1992-14296","","MILL CREEK LEFT FORK","","","","","","1992","1992/04/20 00:00:00+00","111","1145","Human","Arson/incendiarism","","1992/04/20 00:00:00+00","111","1145","158","D","38.09074086","-82.50995286","PRIVATE","WV","Wayne","54099","Wayne County"
"-82.474325826","37.949740772","1325052","1805098","SFO-1992WVDOF1992-14297","NONFED","ST-NASF","ST/C&L","USWVWVS","West Virginia Division of Forestry","WVDOF","West Virginia Division of Forestry","","1992-14297","","CAMP CREEK","","","","","","1992","1992/04/20 00:00:00+00","111","1438","Human","Arson/incendiarism","","1992/04/20 00:00:00+00","111","1438","25","C","37.94974815","-82.47432972","PRIVATE","WV","Wayne","54099","Wayne County"
"-82.398854696","37.979619773","1325053","1805099","SFO-1992WVDOF1992-14298","NONFED","ST-NASF","ST/C&L","USWVWVS","West Virginia Division of Forestry","WVDOF","West Virginia Division of Forestry","","1992-14298","","MOSSES FORK","","","","","","1992","1992/05/03 00:00:00+00","124","1845","Human","Debris and open burning","","1992/05/03 00:00:00+00","124","1845","30","C","37.97962716","-82.39885857","PRIVATE","WV","Wayne","54099","Wayne County"
"-82.578433104","38.243592188","1325054","1805100","SFO-1992WVDOF1992-14300","NONFED","ST-NASF","ST/C&L","USWVWVS","West Virginia Division of Forestry","WVDOF","West Virginia Division of Forestry","","1992-14300","","LOCK HILL","","","","","","1992","1992/05/02 00:00:00+00","123","1320","Human","Debris and open burning","","1992/05/02 00:00:00+00","123","1320","15","C","38.24359962","-82.57843705","PRIVATE","WV","Wayne","54099","Wayne County"
"-82.370834451","38.176270773","1325055","1805101","SFO-1992WVDOF1992-14301","NONFED","ST-NASF","ST/C&L","USWVWVS","West Virginia Division of Forestry","WVDOF","West Virginia Division of Forestry","","1992-14301","","LITTLE LYNN CREEK","","","","","","1992","1992/04/13 00:00:00+00","104","2300","Human","Arson/incendiarism","","1992/04/14 00:00:00+00","105","2300","4","B","38.1762782","-82.37083833","PRIVATE","WV","Wayne","54099","Wayne County"
"-81.374903135","39.126487993","1325056","1805102","SFO-1992WVDOF1992-14302","NONFED","ST-NASF","ST/C&L","USWVWVS","West Virginia Division of Forestry","WVDOF","West Virginia Division of Forestry","","1992-14302","","NEWARK RD","","","","","","1992","1992/02/22 00:00:00+00","53","1100","Human","Debris and open burning","","1992/02/22 00:00:00+00","53","1100","3","B","39.12649565","-81.37490678","PRIVATE","WV","Wirt","54105","Wirt County"
"-81.591645449","39.130329132","1325057","1805103","SFO-1992WVDOF1992-14303","NONFED","ST-NASF","ST/C&L","USWVWVS","West Virginia Division of Forestry","WVDOF","West Virginia Division of Forestry","","1992-14303","","SYCAMORE ROAD","","","","","","1992","1992/03/05 00:00:00+00","65","1345","Human","Equipment and vehicle use","","1992/03/05 00:00:00+00","65","1345","3","B","39.13033678","-81.59164916","PRIVATE","WV","Wood","54107","Wood County"
"-81.564468491","39.225881302","1325058","1805104","SFO-1992WVDOF1992-14304","NONFED","ST-NASF","ST/C&L","USWVWVS","West Virginia Division of Forestry","WVDOF","West Virginia Division of Forestry","","1992-14304","","HOPE HILL","","","","","","1992","1992/03/02 00:00:00+00","62","1225","Human","Debris and open burning","","1992/03/02 00:00:00+00","62","1225","0.4","B","39.22588897","-81.5644722","PRIVATE","WV","Wood","54107","Wood County"
"-81.681863518","39.185352855","1325059","1805105","SFO-1992WVDOF1992-14305","NONFED","ST-NASF","ST/C&L","USWVWVS","West Virginia Division of Forestry","WVDOF","West Virginia Division of Forestry","","1992-14305","","BEEMAN ROAD","","","","","","1992","1992/03/04 00:00:00+00","64","1520","Human","Equipment and vehicle use","","1992/03/04 00:00:00+00","64","1520","0.1","A","39.18536051","-81.68186726","PRIVATE","WV","Wood","54107","Wood County"
"-81.506963847","39.241013817","1325060","1805106","SFO-1992WVDOF1992-14306","NONFED","ST-NASF","ST/C&L","USWVWVS","West Virginia Division of Forestry","WVDOF","West Virginia Division of Forestry","","1992-14306","","DRY RUN ROAD","","","","","","1992","1992/04/07 00:00:00+00","98","1332","Human","Debris and open burning","","1992/04/07 00:00:00+00","98","1332","0.4","B","39.24102149","-81.50696754","PRIVATE","WV","Wood","54107","Wood County"
"-81.73306879","38.938849455","1325061","1805107","SFO-1992WVDOF1992-14307","NONFED","ST-NASF","ST/C&L","USWVWVS","West Virginia Division of Forestry","WVDOF","West Virginia Division of Forestry","","1992-14307","","RT. 56","","","","","","1992","1992/03/03 00:00:00+00","63","1230","Human","Debris and open burning","","1992/03/03 00:00:00+00","63","1230","2","B","38.93885706","-81.73307253","PRIVATE","WV","Jackson","54035","Jackson County"
"-81.759060899","38.850759544","1325062","1805108","SFO-1992WVDOF1992-14308","NONFED","ST-NASF","ST/C&L","USWVWVS","West Virginia Division of Forestry","WVDOF","West Virginia Division of Forestry","","1992-14308","","MUD RUN","","","","","","1992","1992/04/10 00:00:00+00","101","1840","Human","Debris and open burning","","1992/04/10 00:00:00+00","101","1840","1","B","38.85076713","-81.75906464","PRIVATE","WV","Jackson","54035","Jackson County"
"-81.680124807","38.637679782","1325063","1805109","SFO-1992WVDOF1992-14309","NONFED","ST-NASF","ST/C&L","USWVWVS","West Virginia Division of Forestry","WVDOF","West Virginia Division of Forestry","","1992-14309","","YOUNG HOLLOW","","","","","","1992","1992/04/02 00:00:00+00","93","1300","Human","Fireworks","","1992/04/02 00:00:00+00","93","1300","20","C","38.63768733","-81.68012851","PRIVATE","WV","Jackson","54035","Jackson County"
"-81.869692094","38.866893245","1325064","1805110","SFO-1992WVDOF1992-14310","NONFED","ST-NASF","ST/C&L","USWVWVS","West Virginia Division of Forestry","WVDOF","West Virginia Division of Forestry","","1992-14310","","RT. 331","","","","","","1992","1992/05/14 00:00:00+00","135","1458","Human","Power generation/transmission/distribution","","1992/05/14 00:00:00+00","135","1458","1","B","38.86690083","-81.86969587","PRIVATE","WV","Jackson","54035","Jackson County"
"-81.559043133","38.941263667","1325065","1805111","SFO-1992WVDOF1992-14311","NONFED","ST-NASF","ST/C&L","USWVWVS","West Virginia Division of Forestry","WVDOF","West Virginia Division of Forestry","","1992-14311","","TURKEY FORK","","","","","","1992","1992/05/27 00:00:00+00","148","1100","Human","Equipment and vehicle use","","1992/05/27 00:00:00+00","148","1100","0.1","A","38.94127128","-81.55904682","STATE","WV","Jackson","54035","Jackson County"
"-81.134806773","39.209275167","1325066","1805112","SFO-1992WVDOF1992-14312","NONFED","ST-NASF","ST/C&L","USWVWVS","West Virginia Division of Forestry","WVDOF","West Virginia Division of Forestry","","1992-14312","","HARRISBURG","","","","","","1992","1992/02/11 00:00:00+00","42","1400","Human","Debris and open burning","","1992/02/11 00:00:00+00","42","1400","0.1","A","39.20928285","-81.13481035","PRIVATE","WV","Ritchie","54085","Ritchie County"
"-81.044813066","39.269213521","1325067","1805113","SFO-1992WVDOF1992-14313","NONFED","ST-NASF","ST/C&L","USWVWVS","West Virginia Division of Forestry","WVDOF","West Virginia Division of Forestry","","1992-14313","","ELLENBORO","","","","","","1992","1992/02/11 00:00:00+00","42","1930","Human","Misuse of fire by a minor","Minor","1992/02/11 00:00:00+00","42","1930","0.1","A","39.26922122","-81.04481662","PRIVATE","WV","Ritchie","54085","Ritchie County"
"-81.0142471","39.343497956","1325068","1805114","SFO-1992WVDOF1992-14314","NONFED","ST-NASF","ST/C&L","USWVWVS","West Virginia Division of Forestry","WVDOF","West Virginia Division of Forestry","","1992-14314","","HIGHLAND","","","","","","1992","1992/02/22 00:00:00+00","53","1235","Human","Debris and open burning","","1992/02/22 00:00:00+00","53","1235","0.1","A","39.34350567","-81.01425065","PRIVATE","WV","Ritchie","54085","Ritchie County"
"-80.963432557","39.316028029","1325069","1805115","SFO-1992WVDOF1992-14315","NONFED","ST-NASF","ST/C&L","USWVWVS","West Virginia Division of Forestry","WVDOF","West Virginia Division of Forestry","","1992-14315","","BOND CREEK ROAD","","","","","","1992","1992/02/22 00:00:00+00","53","1400","Human","Debris and open burning","","1992/02/22 00:00:00+00","53","1400","3","B","39.31603574","-80.96343609","PRIVATE","WV","Ritchie","54085","Ritchie County"
"-81.090067059","39.312043165","1325070","1805116","SFO-1992WVDOF1992-14316","NONFED","ST-NASF","ST/C&L","USWVWVS","West Virginia Division of Forestry","WVDOF","West Virginia Division of Forestry","","1992-14316","","RT 16","","","","","","1992","1992/03/02 00:00:00+00","62","1200","Human","Equipment and vehicle use","","1992/03/02 00:00:00+00","62","1200","20","C","39.31205087","-81.09007063","PRIVATE","WV","Ritchie","54085","Ritchie County"
"-80.932420029","39.285187914","1325071","1805117","SFO-1992WVDOF1992-14317","NONFED","ST-NASF","ST/C&L","USWVWVS","West Virginia Division of Forestry","WVDOF","West Virginia Division of Forestry","","1992-14317","","HUGHES RIVER","","","","","","1992","1992/03/04 00:00:00+00","64","1355","Human","Equipment and vehicle use","","1992/03/04 00:00:00+00","64","1355","0.1","A","39.28519562","-80.93242355","PRIVATE","WV","Ritchie","54085","Ritchie County"
"-81.293200236","39.184465209","1325072","1805118","SFO-1992WVDOF1992-14318","NONFED","ST-NASF","ST/C&L","USWVWVS","West Virginia Division of Forestry","WVDOF","West Virginia Division of Forestry","","1992-14318","","GOOSE CREEK ROAD","","","","","","1992","1992/04/06 00:00:00+00","97","1700","Human","Equipment and vehicle use","","1992/04/06 00:00:00+00","97","1700","5","B","39.18447288","-81.29320386","PRIVATE","WV","Ritchie","54085","Ritchie County"
"-80.882379905","39.13670951","1325073","1805119","SFO-1992WVDOF1992-14319","NONFED","ST-NASF","ST/C&L","USWVWVS","West Virginia Division of Forestry","WVDOF","West Virginia Division of Forestry","","1992-14319","","PULLMAN","","","","","","1992","1992/04/08 00:00:00+00","99","1746","Human","Debris and open burning","","1992/04/08 00:00:00+00","99","1746","5","B","39.13671719","-80.8823834","PRIVATE","WV","Ritchie","54085","Ritchie County"
"-80.917170409","39.069840325","1325074","1805120","SFO-1992WVDOF1992-14320","NONFED","ST-NASF","ST/C&L","USWVWVS","West Virginia Division of Forestry","WVDOF","West Virginia Division of Forestry","","1992-14320","","LAWFORD","","","","","","1992","1992/04/11 00:00:00+00","102","2100","Human","Debris and open burning","","1992/04/11 00:00:00+00","102","2100","3","B","39.06984799","-80.91717391","PRIVATE","WV","Ritchie","54085","Ritchie County"
"-81.336710809","38.666748642","1325075","1805121","SFO-1992WVDOF1992-14321","NONFED","ST-NASF","ST/C&L","USWVWVS","West Virginia Division of Forestry","WVDOF","West Virginia Division of Forestry","","1992-14321","","STINGTOWN ROAD","","","","","","1992","1992/02/05 00:00:00+00","36","1635","Human","Debris and open burning","","1992/02/05 00:00:00+00","36","1635","2","B","38.66675621","-81.33671441","PRIVATE","WV","Roane","54087","Roane County"
"-81.371409184","38.728230121","1325076","1805122","SFO-1992WVDOF1992-14322","NONFED","ST-NASF","ST/C&L","USWVWVS","West Virginia Division of Forestry","WVDOF","West Virginia Division of Forestry","","1992-14322","","SPEEN ROAD","","","","","","1992","1992/04/06 00:00:00+00","97","1630","Human","Debris and open burning","","1992/04/06 00:00:00+00","97","1630","5","B","38.7282377","-81.3714128","PRIVATE","WV","Roane","54087","Roane County"
"-81.374260453","38.593160618","1325077","1805123","SFO-1992WVDOF1992-14323","NONFED","ST-NASF","ST/C&L","USWVWVS","West Virginia Division of Forestry","WVDOF","West Virginia Division of Forestry","","1992-14323","","VINEYARD ROAD","","","","","","1992","1992/02/22 00:00:00+00","53","1500","Human","Debris and open burning","","1992/02/22 00:00:00+00","53","1500","10","C","38.59316817","-81.37426406","PRIVATE","WV","Roane","54087","Roane County"
"-81.332941312","38.790851117","1325078","1805124","SFO-1992WVDOF1992-14324","NONFED","ST-NASF","ST/C&L","USWVWVS","West Virginia Division of Forestry","WVDOF","West Virginia Division of Forestry","","1992-14324","","CHARLESTON ROAD","","","","","","1992","1992/03/01 00:00:00+00","61","1500","Human","Misuse of fire by a minor","Minor","1992/03/01 00:00:00+00","61","1500","1","B","38.79085871","-81.33294492","PRIVATE","WV","Roane","54087","Roane County"
"-81.28391391","38.741902845","1325079","1805125","SFO-1992WVDOF1992-14325","NONFED","ST-NASF","ST/C&L","USWVWVS","West Virginia Division of Forestry","WVDOF","West Virginia Division of Forestry","","1992-14325","","OTTO ROAD","","","","","","1992","1992/03/02 00:00:00+00","62","1615","Human","Arson/incendiarism","","1992/03/02 00:00:00+00","62","1615","10","C","38.74191043","-81.2839175","PRIVATE","WV","Roane","54087","Roane County"
"-81.470659487","38.826477966","1325080","1805126","SFO-1992WVDOF1992-14326","NONFED","ST-NASF","ST/C&L","USWVWVS","West Virginia Division of Forestry","WVDOF","West Virginia Division of Forestry","","1992-14326","","US 33","","","","","","1992","1992/05/03 00:00:00+00","124","1719","Natural","Natural","","1992/05/03 00:00:00+00","124","1719","2","B","38.82648556","-81.47066314","PRIVATE","WV","Roane","54087","Roane County"
"-81.412722534","38.69434256","1325081","1805127","SFO-1992WVDOF1992-14327","NONFED","ST-NASF","ST/C&L","USWVWVS","West Virginia Division of Forestry","WVDOF","West Virginia Division of Forestry","","1992-14327","","GANDEEVILLE","","","","","","1992","1992/04/07 00:00:00+00","98","1700","Human","Misuse of fire by a minor","Minor","1992/04/07 00:00:00+00","98","1700","2","B","38.69435013","-81.41272616","PRIVATE","WV","Roane","54087","Roane County"
"-81.481971384","38.684290865","1325082","1805128","SFO-1992WVDOF1992-14328","NONFED","ST-NASF","ST/C&L","USWVWVS","West Virginia Division of Forestry","WVDOF","West Virginia Division of Forestry","","1992-14328","","JONES RIDGE","","","","","","1992","1992/04/13 00:00:00+00","104","1430","Human","Arson/incendiarism","","1992/04/13 00:00:00+00","104","1430","1","B","38.68429843","-81.48197503","PRIVATE","WV","Roane","54087","Roane County"
"-80.817921106","38.824995249","1325083","1805129","SFO-1992WVDOF1992-14329","NONFED","ST-NASF","ST/C&L","USWVWVS","West Virginia Division of Forestry","WVDOF","West Virginia Division of Forestry","","1992-14329","","UPPER LEVEL RUN","","","","","","1992","1992/02/22 00:00:00+00","53","1600","Human","Debris and open burning","","1992/02/22 00:00:00+00","53","1600","0.2","A","38.82500287","-80.81792456","PRIVATE","WV","Gilmer","54021","Gilmer County"
"-80.739636585","38.892866212","1325084","1805130","SFO-1992WVDOF1992-14330","NONFED","ST-NASF","ST/C&L","USWVWVS","West Virginia Division of Forestry","WVDOF","West Virginia Division of Forestry","","1992-14330","","STOUTS MILLS","","","","","","1992","1992/02/22 00:00:00+00","53","1625","Human","Equipment and vehicle use","","1992/02/22 00:00:00+00","53","1625","0.5","B","38.89287385","-80.73964002","PRIVATE","WV","Gilmer","54021","Gilmer County"
"-80.65641337","38.896030288","1325085","1805131","SFO-1992WVDOF1992-14331","NONFED","ST-NASF","ST/C&L","USWVWVS","West Virginia Division of Forestry","WVDOF","West Virginia Division of Forestry","","1992-14331","","TUMBLING FORK ROAD","","","","","","1992","1992/03/02 00:00:00+00","62","1253","Human","Equipment and vehicle use","","1992/03/02 00:00:00+00","62","1253","10","C","38.89603793","-80.65641678","PRIVATE","WV","Gilmer","54021","Gilmer County"
"-80.848487462","38.893950337","1325086","1805132","SFO-1992WVDOF1992-14332","NONFED","ST-NASF","ST/C&L","USWVWVS","West Virginia Division of Forestry","WVDOF","West Virginia Division of Forestry","","1992-14332","","CEDAR CREEK ROAD","","","","","","1992","1992/03/02 00:00:00+00","62","1355","Human","Power generation/transmission/distribution","","1992/03/02 00:00:00+00","62","1355","0.2","A","38.89395797","-80.84849093","PRIVATE","WV","Gilmer","54021","Gilmer County"
"-80.838390386","38.876787869","1325087","1805133","SFO-1992WVDOF1992-14333","NONFED","ST-NASF","ST/C&L","USWVWVS","West Virginia Division of Forestry","WVDOF","West Virginia Division of Forestry","","1992-14333","","CEDAR CREEK ROAD","","","","","","1992","1992/03/02 00:00:00+00","62","1415","Human","Power generation/transmission/distribution","","1992/03/02 00:00:00+00","62","1415","2","B","38.8767955","-80.83839385","PRIVATE","WV","Gilmer","54021","Gilmer County"
"-80.914171142","38.882932911","1325088","1805134","SFO-1992WVDOF1992-14334","NONFED","ST-NASF","ST/C&L","USWVWVS","West Virginia Division of Forestry","WVDOF","West Virginia Division of Forestry","","1992-14334","","GRASSY RUN ROAD","","","","","","1992","1992/03/04 00:00:00+00","64","1215","Human","Arson/incendiarism","","1992/03/04 00:00:00+00","64","1215","0.1","A","38.88294054","-80.91417463","STATE","WV","Gilmer","54021","Gilmer County"
"-80.961193538","38.74592698","1325089","1805135","SFO-1992WVDOF1992-14335","NONFED","ST-NASF","ST/C&L","USWVWVS","West Virginia Division of Forestry","WVDOF","West Virginia Division of Forestry","","1992-14335","","LAUREL RUN ROAD","","","","","","1992","1992/04/06 00:00:00+00","97","1635","Human","Fireworks","","1992/04/06 00:00:00+00","97","1635","12","C","38.74593458","-80.96119703","PRIVATE","WV","Gilmer","54021","Gilmer County"
"-80.908938758","38.971610784","1325090","1805136","SFO-1992WVDOF1992-14336","NONFED","ST-NASF","ST/C&L","USWVWVS","West Virginia Division of Forestry","WVDOF","West Virginia Division of Forestry","","1992-14336","","THIRD RUN ROAD","","","","","","1992","1992/04/17 00:00:00+00","108","1135","Human","Fireworks","","1992/04/17 00:00:00+00","108","1135","3","B","38.97161843","-80.90894225","PRIVATE","WV","Gilmer","54021","Gilmer County"
"-80.890057433","38.83416911","1325091","1805137","SFO-1992WVDOF1992-14337","NONFED","ST-NASF","ST/C&L","USWVWVS","West Virginia Division of Forestry","WVDOF","West Virginia Division of Forestry","","1992-14337","","STEER RUN","","","","","","1992","1992/05/02 00:00:00+00","123","1605","Human","Power generation/transmission/distribution","","1992/05/02 00:00:00+00","123","1605","0.1","A","38.83417673","-80.89006091","PRIVATE","WV","Gilmer","54021","Gilmer County"
"-80.822627378","39.058750133","1325092","1805138","SFO-1992WVDOF1992-14338","NONFED","ST-NASF","ST/C&L","USWVWVS","West Virginia Division of Forestry","WVDOF","West Virginia Division of Forestry","","1992-14338","","STONELICK ROAD","","","","","","1992","1992/05/07 00:00:00+00","128","2035","Human","Fireworks","","1992/05/07 00:00:00+00","128","2035","16","C","39.0587578","-80.82263085","PRIVATE","WV","Gilmer","54021","Gilmer County"
"-81.095840478","38.874012711","1325093","1805139","SFO-1992WVDOF1992-14339","NONFED","ST-NASF","ST/C&L","USWVWVS","West Virginia Division of Forestry","WVDOF","West Virginia Division of Forestry","","1992-14339","","GRANTSVILLE","","","","","","1992","1992/03/02 00:00:00+00","62","1825","Human","Equipment and vehicle use","","1992/03/02 00:00:00+00","62","1825","0.1","A","38.87402033","-81.09584402","PRIVATE","WV","Calhoun","54013","Calhoun County"
"-81.093882224","38.787448738","1325094","1805140","SFO-1992WVDOF1992-14340","NONFED","ST-NASF","ST/C&L","USWVWVS","West Virginia Division of Forestry","WVDOF","West Virginia Division of Forestry","","1992-14340","","CRUMMIES CREEK","","","","","","1992","1992/03/04 00:00:00+00","64","1835","Human","Arson/incendiarism","","1992/03/04 00:00:00+00","64","1835","3","B","38.78745634","-81.09388576","PRIVATE","WV","Calhoun","54013","Calhoun County"
"-81.301224825","38.732090797","1325095","1805141","SFO-1992WVDOF1992-14341","NONFED","ST-NASF","ST/C&L","USWVWVS","West Virginia Division of Forestry","WVDOF","West Virginia Division of Forestry","","1992-14341","","JESSIE RUN","","","","","","1992","1992/03/05 00:00:00+00","65","1240","Human","Equipment and vehicle use","","1992/03/05 00:00:00+00","65","1240","1","B","38.73209838","-81.30122842","PRIVATE","WV","Calhoun","54013","Calhoun County"
"-81.226133584","38.940545123","1325096","1805142","SFO-1992WVDOF1992-14342","NONFED","ST-NASF","ST/C&L","USWVWVS","West Virginia Division of Forestry","WVDOF","West Virginia Division of Forestry","","1992-14342","","BIG BEN","","","","","","1992","1992/04/11 00:00:00+00","102","1800","Human","Debris and open burning","","1992/04/11 00:00:00+00","102","1800","3","B","38.94055275","-81.22613717","PRIVATE","WV","Calhoun","54013","Calhoun County"
"-80.659877186","39.376125434","1325097","1805143","SFO-1992WVDOF1992-14343","NONFED","ST-NASF","ST/C&L","USWVWVS","West Virginia Division of Forestry","WVDOF","West Virginia Division of Forestry","","1992-14343","","COON RUN","","","","","","1992","1992/02/22 00:00:00+00","53","1350","Human","Debris and open burning","","1992/02/22 00:00:00+00","53","1350","13","C","39.37613317","-80.65988063","PRIVATE","WV","Doddridge","54017","Doddridge County"
"-80.571464192","39.249051155","1325098","1805144","SFO-1992WVDOF1992-14344","NONFED","ST-NASF","ST/C&L","USWVWVS","West Virginia Division of Forestry","WVDOF","West Virginia Division of Forestry","","1992-14344","","GREENBRIER RUN ROAD","","","","","","1992","1992/02/22 00:00:00+00","53","1525","Human","Debris and open burning","","1992/02/22 00:00:00+00","53","1525","12","C","39.24905887","-80.5714676","PRIVATE","WV","Doddridge","54017","Doddridge County"
"-80.629857514","39.384143471","1325099","1805145","SFO-1992WVDOF1992-14345","NONFED","ST-NASF","ST/C&L","USWVWVS","West Virginia Division of Forestry","WVDOF","West Virginia Division of Forestry","","1992-14345","","BIG BATTLE RUN","","","","","","1992","1992/02/22 00:00:00+00","53","1438","Human","Equipment and vehicle use","","1992/02/22 00:00:00+00","53","1438","0.1","A","39.38415121","-80.62986095","PRIVATE","WV","Doddridge","54017","Doddridge County"
"-80.635033969","39.156625596","1325100","1805146","SFO-1992WVDOF1992-14346","NONFED","ST-NASF","ST/C&L","USWVWVS","West Virginia Division of Forestry","WVDOF","West Virginia Division of Forestry","","1992-14346","","INDIAN FORK ROAD","","","","","","1992","1992/04/19 00:00:00+00","110","1640","Human","Debris and open burning","","1992/04/19 00:00:00+00","110","1640","13","C","39.15663329","-80.63503739","PRIVATE","WV","Doddridge","54017","Doddridge County"
"-80.834834286","39.320223793","1325101","1805147","SFO-1992WVDOF1992-14347","NONFED","ST-NASF","ST/C&L","USWVWVS","West Virginia Division of Forestry","WVDOF","West Virginia Division of Forestry","","1992-14347","","ARNOLDS CREEK","","","","","","1992","1992/04/23 00:00:00+00","114","1452","Human","Debris and open burning","","1992/04/23 00:00:00+00","114","1452","2","B","39.32023151","-80.83483778","PRIVATE","WV","Doddridge","54017","Doddridge County"
"-80.703089763","39.365232578","1325102","1805148","SFO-1992WVDOF1992-14348","NONFED","ST-NASF","ST/C&L","USWVWVS","West Virginia Division of Forestry","WVDOF","West Virginia Division of Forestry","","1992-14348","","BRUSH RUN","","","","","","1992","1992/04/23 00:00:00+00","114","1741","Human","Debris and open burning","","1992/04/23 00:00:00+00","114","1741","3","B","39.36524031","-80.70309322","PRIVATE","WV","Doddridge","54017","Doddridge County"
"-80.630420321","39.420521434","1325103","1805149","SFO-1992WVDOF1992-14349","NONFED","ST-NASF","ST/C&L","USWVWVS","West Virginia Division of Forestry","WVDOF","West Virginia Division of Forestry","","1992-14349","","BEVERLIN FORK ROAD","","","","","","1992","1992/05/03 00:00:00+00","124","1420","Human","Fireworks","","1992/05/03 00:00:00+00","124","1420","2","B","39.42052918","-80.63042376","PRIVATE","WV","Doddridge","54017","Doddridge County"
"-81.159390421","39.400815341","1325104","1805150","SFO-1992WVDOF1992-14350","NONFED","ST-NASF","ST/C&L","USWVWVS","West Virginia Division of Forestry","WVDOF","West Virginia Division of Forestry","","1992-14350","","RAVEN ROCK","","","","","","1992","1992/02/06 00:00:00+00","37","1535","Human","Debris and open burning","","1992/02/06 00:00:00+00","37","1535","4","B","39.40082306","-81.15939402","PRIVATE","WV","Pleasants","54073","Pleasants County"
"-81.3101247","39.344157948","1325105","1805151","SFO-1992WVDOF1992-14351","NONFED","ST-NASF","ST/C&L","USWVWVS","West Virginia Division of Forestry","WVDOF","West Virginia Division of Forestry","","1992-14351","","POLECAT HOLLOW","","","","","","1992","1992/04/12 00:00:00+00","103","1945","Natural","Natural","","1992/04/12 00:00:00+00","103","1945","15","C","39.34416565","-81.31012834","PRIVATE","WV","Pleasants","54073","Pleasants County"
"-81.119024248","39.34218547","1325106","1805152","SFO-1992WVDOF1992-14352","NONFED","ST-NASF","ST/C&L","USWVWVS","West Virginia Division of Forestry","WVDOF","West Virginia Division of Forestry","","1992-14352","","NINE MILE RIDGE ROAD","","","","","","1992","1992/03/02 00:00:00+00","62","1045","Human","Misuse of fire by a minor","Minor","1992/03/02 00:00:00+00","62","1045","4","B","39.34219318","-81.11902783","PRIVATE","WV","Pleasants","54073","Pleasants County"
"-81.184579954","39.395741113","1325107","1805153","SFO-1992WVDOF1992-14353","NONFED","ST-NASF","ST/C&L","USWVWVS","West Virginia Division of Forestry","WVDOF","West Virginia Division of Forestry","","1992-14353","","BROAD RUN ROAD","","","","","","1992","1992/04/29 00:00:00+00","120","1540","Human","Debris and open burning","","1992/04/29 00:00:00+00","120","1540","2","B","39.39574883","-81.18458356","PRIVATE","WV","Pleasants","54073","Pleasants County"
"-81.116359899","39.34501756","1325108","1805154","SFO-1992WVDOF1992-14354","NONFED","ST-NASF","ST/C&L","USWVWVS","West Virginia Division of Forestry","WVDOF","West Virginia Division of Forestry","","1992-14354","","9 MILE RIDGE","","","","","","1992","1992/03/02 00:00:00+00","62","1515","Human","Debris and open burning","","1992/03/02 00:00:00+00","62","1515","3","B","39.34502527","-81.11636348","PRIVATE","WV","Pleasants","54073","Pleasants County"
"-80.850728879","39.352323807","1325109","1805155","SFO-1992WVDOF1992-14355","NONFED","ST-NASF","ST/C&L","USWVWVS","West Virginia Division of Forestry","WVDOF","West Virginia Division of Forestry","","1992-14355","","SLAUGHTER RUN","","","","","","1992","1992/02/10 00:00:00+00","41","1350","Human","Debris and open burning","","1992/02/10 00:00:00+00","41","1350","2","B","39.35233153","-80.85073238","PRIVATE","WV","Tyler","54095","Tyler County"
"-80.905926755","39.457023069","1325110","1805156","SFO-1992WVDOF1992-14356","NONFED","ST-NASF","ST/C&L","USWVWVS","West Virginia Division of Forestry","WVDOF","West Virginia Division of Forestry","","1992-14356","","WICK","","","","","","1992","1992/04/16 00:00:00+00","107","1500","Human","Arson/incendiarism","","1992/04/16 00:00:00+00","107","1500","5","B","39.45703081","-80.90593028","PRIVATE","WV","Tyler","54095","Tyler County"
"-80.897868887","39.458890488","1325111","1805157","SFO-1992WVDOF1992-14357","NONFED","ST-NASF","ST/C&L","USWVWVS","West Virginia Division of Forestry","WVDOF","West Virginia Division of Forestry","","1992-14357","","KLONDIKE RIDGE ROAD","","","","","","1992","1992/04/16 00:00:00+00","107","2115","Human","Arson/incendiarism","","1992/04/16 00:00:00+00","107","2115","30","C","39.45889823","-80.89787241","PRIVATE","WV","Tyler","54095","Tyler County"
"-80.987982352","39.564790782","1325112","1805158","SFO-1992WVDOF1992-14358","NONFED","ST-NASF","ST/C&L","USWVWVS","West Virginia Division of Forestry","WVDOF","West Virginia Division of Forestry","","1992-14358","","CHERRY STREET","","","","","","1992","1992/05/02 00:00:00+00","123","1550","Human","Misuse of fire by a minor","Minor","1992/05/02 00:00:00+00","123","1550","1","B","39.56479854","-80.98798591","PRIVATE","WV","Tyler","54095","Tyler County"
"-80.862584849","39.44395954","1325113","1805159","SFO-1992WVDOF1992-14359","NONFED","ST-NASF","ST/C&L","USWVWVS","West Virginia Division of Forestry","WVDOF","West Virginia Division of Forestry","","1992-14359","","KLONDIKE RIDGE","","","","","","1992","1992/05/23 00:00:00+00","144","1648","Natural","Natural","","1992/05/23 00:00:00+00","144","1648","8","B","39.44396728","-80.86258836","PRIVATE","WV","Tyler","54095","Tyler County"
"-80.764319052","39.404596453","1325114","1805160","SFO-1992WVDOF1992-14360","NONFED","ST-NASF","ST/C&L","USWVWVS","West Virginia Division of Forestry","WVDOF","West Virginia Division of Forestry","","1992-14360","","SHIRLEY","","","","","","1992","1992/05/03 00:00:00+00","124","2000","Natural","Natural","","1992/05/03 00:00:00+00","124","2000","10","C","39.40460419","-80.76432253","PRIVATE","WV","Tyler","54095","Tyler County"
"-80.026205574","39.163246989","1325115","1805161","SFO-1992WVDOF1992-3541","NONFED","ST-NASF","ST/C&L","USWVWVS","West Virginia Division of Forestry","WVDOF","West Virginia Division of Forestry","","1992-3541","","PHILIPPI","","","","","","1992","1992/10/22 00:00:00+00","296","1430","Human","Equipment and vehicle use","","1992/10/22 00:00:00+00","296","1430","1","B","39.16325471","-80.02620881","PRIVATE","WV","Barbour","54001","Barbour County"
"-80.089610755","39.166048551","1325116","1805162","SFO-1992WVDOF1992-3542","NONFED","ST-NASF","ST/C&L","USWVWVS","West Virginia Division of Forestry","WVDOF","West Virginia Division of Forestry","","1992-3542","","ELK CITY","","","","","","1992","1992/10/29 00:00:00+00","303","2048","Human","Arson/incendiarism","","1992/10/29 00:00:00+00","303","2048","0.2","A","39.16605627","-80.08961401","PRIVATE","WV","Barbour","54001","Barbour County"
"-79.997078634","39.158701679","1325117","1805163","SFO-1992WVDOF1992-3543","NONFED","ST-NASF","ST/C&L","USWVWVS","West Virginia Division of Forestry","WVDOF","West Virginia Division of Forestry","","1992-3543","","FORD RUN","","","","","","1992","1992/11/10 00:00:00+00","315","2018","Human","Arson/incendiarism","","1992/11/10 00:00:00+00","315","2018","2","B","39.1587094","-79.99708186","PRIVATE","WV","Barbour","54001","Barbour County"
"-80.194915463","39.29848094","1325118","1805164","SFO-1992WVDOF1992-3544","NONFED","ST-NASF","ST/C&L","USWVWVS","West Virginia Division of Forestry","WVDOF","West Virginia Division of Forestry","","1992-3544","","RT. 50 IN TAYLOR COL.","","","","","","1992","1992/10/13 00:00:00+00","287","1345","Human","Debris and open burning","","1992/10/13 00:00:00+00","287","1345","0.1","A","39.29848868","-80.19491876","PRIVATE","WV","Taylor","54091","Taylor County"
"-80.377213456","39.611264836","1325119","1805165","SFO-1992WVDOF1992-3545","NONFED","ST-NASF","ST/C&L","USWVWVS","West Virginia Division of Forestry","WVDOF","West Virginia Division of Forestry","","1992-3545","","STYLE RUN","","","","","","1992","1992/10/05 00:00:00+00","279","1245","Human","Debris and open burning","","1992/10/05 00:00:00+00","279","1245","0.1","A","39.61127263","-80.37721683","PRIVATE","WV","Marion","54049","Marion County"
"-80.506612077","39.451959743","1325120","1805166","SFO-1992WVDOF1992-3546","NONFED","ST-NASF","ST/C&L","USWVWVS","West Virginia Division of Forestry","WVDOF","West Virginia Division of Forestry","","1992-3546","","WALLACE","","","","","","1992","1992/10/26 00:00:00+00","300","1406","Human","Arson/incendiarism","","1992/10/26 00:00:00+00","300","1406","0.1","A","39.4519675","-80.50661548","STATE","WV","Harrison","54033","Harrison County"
"-80.516761277","39.412896261","1325121","1805167","SFO-1992WVDOF1992-3547","NONFED","ST-NASF","ST/C&L","USWVWVS","West Virginia Division of Forestry","WVDOF","West Virginia Division of Forestry","","1992-3547","","RINEHART","","","","","","1992","1992/10/28 00:00:00+00","302","2106","Human","Arson/incendiarism","","1992/10/28 00:00:00+00","302","2106","0.1","A","39.41290401","-80.51676468","STATE","WV","Harrison","54033","Harrison County"
"-79.877430721","39.58544357","1325122","1805168","SFO-1992WVDOF1992-3548","NONFED","ST-NASF","ST/C&L","USWVWVS","West Virginia Division of Forestry","WVDOF","West Virginia Division of Forestry","","1992-3548","","DECKERS CREEK","","","","","","1992","1992/10/06 00:00:00+00","280","1910","Human","Misuse of fire by a minor","Minor","1992/10/06 00:00:00+00","280","1910","0.1","A","39.58545138","-79.87743394","PRIVATE","WV","Monongalia","54061","Monongalia County"
"-80.073171615","39.664477793","1325123","1805169","SFO-1992WVDOF1992-3549","NONFED","ST-NASF","ST/C&L","USWVWVS","West Virginia Division of Forestry","WVDOF","West Virginia Division of Forestry","","1992-3549","","NEW HILL","","","","","","1992","1992/10/27 00:00:00+00","301","1608","Human","Misuse of fire by a minor","Minor","1992/10/27 00:00:00+00","301","1608","0.1","A","39.66448561","-80.0731749","PRIVATE","WV","Monongalia","54061","Monongalia County"
"-79.98601495","39.693302144","1325124","1805170","SFO-1992WVDOF1992-3550","NONFED","ST-NASF","ST/C&L","USWVWVS","West Virginia Division of Forestry","WVDOF","West Virginia Division of Forestry","","1992-3550","","MAIDSVILLE","","","","","","1992","1992/10/28 00:00:00+00","302","1334","Human","Smoking","","1992/10/28 00:00:00+00","302","1334","0.5","B","39.69330997","-79.98601821","PRIVATE","WV","Monongalia","54061","Monongalia County"
"-80.371157682","39.689540241","1325125","1805171","SFO-1992WVDOF1992-3551","NONFED","ST-NASF","ST/C&L","USWVWVS","West Virginia Division of Forestry","WVDOF","West Virginia Division of Forestry","","1992-3551","","CAMP RUN","","","","","","1992","1992/10/28 00:00:00+00","302","1442","Human","Smoking","","1992/10/28 00:00:00+00","302","1442","0.5","B","39.68954805","-80.37116106","PRIVATE","WV","Monongalia","54061","Monongalia County"
"-78.03904905","39.582336926","1325126","1805172","SFO-1992WVDOF1992-3552","NONFED","ST-NASF","ST/C&L","USWVWVS","West Virginia Division of Forestry","WVDOF","West Virginia Division of Forestry","","1992-3552","","BIG POOL","","","","","","1992","1992/12/03 00:00:00+00","338","1608","Human","Debris and open burning","","1992/12/03 00:00:00+00","338","1608","0.7","B","39.58234481","-78.0390517","PRIVATE","WV","Berkeley","54003","Berkeley County"
"-78.569885508","39.232441407","1325127","1805173","SFO-1992WVDOF1992-3553","NONFED","ST-NASF","ST/C&L","USWVWVS","West Virginia Division of Forestry","WVDOF","West Virginia Division of Forestry","","1992-3553","","YELLOW SPRING","","","","","","1992","1992/10/15 00:00:00+00","289","1456","Human","Arson/incendiarism","","1992/10/15 00:00:00+00","289","1456","0.3","B","39.2324492","-78.5698883","PRIVATE","WV","Hampshire","54027","Hampshire County"
"-78.693020711","39.066544754","1325128","1805174","SFO-1992WVDOF1992-3554","NONFED","ST-NASF","ST/C&L","USWVWVS","West Virginia Division of Forestry","WVDOF","West Virginia Division of Forestry","","1992-3554","","WARDENSVILLE","","","","","","1992","1992/11/13 00:00:00+00","318","1325","Human","Smoking","","1992/11/13 00:00:00+00","318","1325","1","B","39.06655251","-78.69302353","STATE","WV","Hardy","54031","Hardy County"
"-78.725807014","39.468762606","1325129","1805175","SFO-1992WVDOF1992-3555","NONFED","ST-NASF","ST/C&L","USWVWVS","West Virginia Division of Forestry","WVDOF","West Virginia Division of Forestry","","1992-3555","","SPRINGFIELD","","","","","","1992","1992/10/27 00:00:00+00","301","1130","Human","Smoking","","1992/10/27 00:00:00+00","301","1130","0.1","A","39.46877044","-78.72580987","PRIVATE","WV","Mineral","54057","Mineral County"
"-78.806588266","39.51698662","1325130","1805176","SFO-1992WVDOF1992-3556","NONFED","ST-NASF","ST/C&L","USWVWVS","West Virginia Division of Forestry","WVDOF","West Virginia Division of Forestry","","1992-3556","","TURNERS RUN","","","","","","1992","1992/10/08 00:00:00+00","282","1245","Human","Recreation and ceremony","","1992/10/08 00:00:00+00","282","1245","0.1","A","39.51699446","-78.80659115","PRIVATE","WV","Mineral","54057","Mineral County"
"-78.778035182","39.555182671","1325131","1805177","SFO-1992WVDOF1992-3557","NONFED","ST-NASF","ST/C&L","USWVWVS","West Virginia Division of Forestry","WVDOF","West Virginia Division of Forestry","","1992-3557","","PLUM RUN","","","","","","1992","1992/10/13 00:00:00+00","287","1200","Human","Arson/incendiarism","","1992/10/13 00:00:00+00","287","1200","0.1","A","39.55519052","-78.77803806","PRIVATE","WV","Mineral","54057","Mineral County"
"-78.778035182","39.555182671","1325132","1805178","SFO-1992WVDOF1992-3558","NONFED","ST-NASF","ST/C&L","USWVWVS","West Virginia Division of Forestry","WVDOF","West Virginia Division of Forestry","","1992-3558","","RT. 28","","","","","","1992","1992/10/13 00:00:00+00","287","1200","Human","Arson/incendiarism","","1992/10/13 00:00:00+00","287","1200","0.1","A","39.55519052","-78.77803806","PRIVATE","WV","Mineral","54057","Mineral County"
"-78.778035182","39.555182671","1325133","1805181","SFO-1992WVDOF1992-3561","NONFED","ST-NASF","ST/C&L","USWVWVS","West Virginia Division of Forestry","WVDOF","West Virginia Division of Forestry","","1992-3561","","PLUM RUN","","","","","","1992","1992/10/14 00:00:00+00","288","1827","Human","Arson/incendiarism","","1992/10/14 00:00:00+00","288","1827","0.1","A","39.55519052","-78.77803806","PRIVATE","WV","Mineral","54057","Mineral County"
"-79.310510076","38.521829918","1325134","1805182","SFO-1992WVDOF1992-3562","NONFED","ST-NASF","ST/C&L","USWVWVS","West Virginia Division of Forestry","WVDOF","West Virginia Division of Forestry","","1992-3562","","SUGAR GROVE","","","","","","1992","1992/10/17 00:00:00+00","291","1000","Human","Smoking","","1992/10/17 00:00:00+00","291","1000","0.1","A","38.52183754","-79.31051305","PRIVATE","WV","Pendleton","54071","Pendleton County"
"-79.494650901","38.509025898","1325135","1805183","SFO-1992WVDOF1992-3563","NONFED","ST-NASF","ST/C&L","USWVWVS","West Virginia Division of Forestry","WVDOF","West Virginia Division of Forestry","","1992-3563","","MOATSTOWN","","","","","","1992","1992/10/21 00:00:00+00","295","1000","Human","Equipment and vehicle use","","1992/10/21 00:00:00+00","295","1000","0.1","A","38.50903351","-79.49465393","PRIVATE","WV","Pendleton","54071","Pendleton County"
"-79.176277481","38.776713391","1325136","1805184","SFO-1992WVDOF1992-3564","NONFED","ST-NASF","ST/C&L","USWVWVS","West Virginia Division of Forestry","WVDOF","West Virginia Division of Forestry","","1992-3564","","MOZER","","","","","","1992","1992/11/10 00:00:00+00","315","2035","Human","Arson/incendiarism","","1992/11/10 00:00:00+00","315","2035","0.2","A","38.77672107","-79.17628043","PRIVATE","WV","Pendleton","54071","Pendleton County"
"-79.318376691","38.715681509","1325137","1805185","SFO-1992WVDOF1992-3565","NONFED","ST-NASF","ST/C&L","USWVWVS","West Virginia Division of Forestry","WVDOF","West Virginia Division of Forestry","","1992-3565","","FRANKLIN","","","","","","1992","1992/12/02 00:00:00+00","337","2100","Human","Debris and open burning","","1992/12/02 00:00:00+00","337","2100","0.1","A","38.71568917","-79.31837968","PRIVATE","WV","Pendleton","54071","Pendleton County"
"-79.134686309","39.002850205","1325138","1805186","SFO-1992WVDOF1992-3566","NONFED","ST-NASF","ST/C&L","USWVWVS","West Virginia Division of Forestry","WVDOF","West Virginia Division of Forestry","","1992-3566","","RT. 55","","","","","","1992","1992/10/08 00:00:00+00","282","1411","Human","Misuse of fire by a minor","Minor","1992/10/08 00:00:00+00","282","1411","0.2","A","39.00285793","-79.13468926","PRIVATE","WV","Grant","54023","Grant County"
"-78.251481931","39.622539967","1325139","1805187","SFO-1992WVDOF1992-3567","NONFED","ST-NASF","ST/C&L","USWVWVS","West Virginia Division of Forestry","WVDOF","West Virginia Division of Forestry","","1992-3567","","GREAT CACAPON","","","","","","1992","1992/11/15 00:00:00+00","320","0315","Human","Smoking","","1992/11/15 00:00:00+00","320","0341","1.9","B","39.62254785","-78.25148465","PRIVATE","WV","Morgan","54065","Morgan County"
"-80.89593255","38.557024885","1325140","1805188","SFO-1992WVDOF1992-3568","NONFED","ST-NASF","ST/C&L","USWVWVS","West Virginia Division of Forestry","WVDOF","West Virginia Division of Forestry","","1992-3568","","STRANGE CREEK","","","","","","1992","1992/10/26 00:00:00+00","300","1530","Human","Arson/incendiarism","","1992/10/26 00:00:00+00","300","1530","1","B","38.55703245","-80.89593601","PRIVATE","WV","Braxton","54007","Braxton County"
"-80.877085656","38.551049655","1325141","1805189","SFO-1992WVDOF1992-3569","NONFED","ST-NASF","ST/C&L","USWVWVS","West Virginia Division of Forestry","WVDOF","West Virginia Division of Forestry","","1992-3569","","LOWER HILL RUN ROAD","","","","","","1992","1992/10/26 00:00:00+00","300","1630","Human","Arson/incendiarism","","1992/10/26 00:00:00+00","300","1630","6","B","38.55105722","-80.87708911","PRIVATE","WV","Braxton","54007","Braxton County"
"-80.892745311","38.554714935","1325142","1805190","SFO-1992WVDOF1992-3570","NONFED","ST-NASF","ST/C&L","USWVWVS","West Virginia Division of Forestry","WVDOF","West Virginia Division of Forestry","","1992-3570","","STRANGE CREEK","","","","","","1992","1992/10/29 00:00:00+00","303","1430","Human","Arson/incendiarism","","1992/10/29 00:00:00+00","303","1430","0.2","A","38.5547225","-80.89274877","PRIVATE","WV","Braxton","54007","Braxton County"
"-80.879002466","38.544040277","1325143","1805191","SFO-1992WVDOF1992-3571","NONFED","ST-NASF","ST/C&L","USWVWVS","West Virginia Division of Forestry","WVDOF","West Virginia Division of Forestry","","1992-3571","","STRANGE CREEK","","","","","","1992","1992/10/29 00:00:00+00","303","1630","Human","Arson/incendiarism","","1992/10/29 00:00:00+00","303","1630","0.2","A","38.54404784","-80.87900592","PRIVATE","WV","Braxton","54007","Braxton County"
"-80.876246947","38.551598515","1325144","1805192","SFO-1992WVDOF1992-3572","NONFED","ST-NASF","ST/C&L","USWVWVS","West Virginia Division of Forestry","WVDOF","West Virginia Division of Forestry","","1992-3572","","STRANGE CREEK","","","","","","1992","1992/10/29 00:00:00+00","303","1700","Human","Arson/incendiarism","","1992/10/29 00:00:00+00","303","1700","5","B","38.55160608","-80.8762504","PRIVATE","WV","Braxton","54007","Braxton County"
"-80.657028993","38.698082537","1325145","1805193","SFO-1992WVDOF1992-3573","NONFED","ST-NASF","ST/C&L","USWVWVS","West Virginia Division of Forestry","WVDOF","West Virginia Division of Forestry","","1992-3573","","FLATWOODS EXIT I-79","","","","","","1992","1992/11/20 00:00:00+00","325","1330","Human","Power generation/transmission/distribution","","1992/11/20 00:00:00+00","325","1330","0.1","A","38.69809014","-80.65703239","PRIVATE","WV","Braxton","54007","Braxton County"
"-81.094128756","38.465920891","1325146","1805194","SFO-1992WVDOF1992-3575","NONFED","ST-NASF","ST/C&L","USWVWVS","West Virginia Division of Forestry","WVDOF","West Virginia Division of Forestry","","1992-3575","","CLAY","","","","","","1992","1992/10/27 00:00:00+00","301","1730","Human","Arson/incendiarism","","1992/10/27 00:00:00+00","301","1730","0.1","A","38.46592843","-81.09413227","PRIVATE","WV","Clay","54015","Clay County"
"-81.116079208","38.336547998","1325147","1805195","SFO-1992WVDOF1992-3576","NONFED","ST-NASF","ST/C&L","USWVWVS","West Virginia Division of Forestry","WVDOF","West Virginia Division of Forestry","","1992-3576","","SYCAMORE CREEK","","","","","","1992","1992/11/03 00:00:00+00","308","1645","Human","Fireworks","","1992/11/03 00:00:00+00","308","1645","10","C","38.33655551","-81.11608272","PRIVATE","WV","Clay","54015","Clay County"
"-81.230655066","38.445850781","1325148","1805196","SFO-1992WVDOF1992-3577","NONFED","ST-NASF","ST/C&L","USWVWVS","West Virginia Division of Forestry","WVDOF","West Virginia Division of Forestry","","1992-3577","","GLEN","","","","","","1992","1992/11/13 00:00:00+00","318","1345","Human","Equipment and vehicle use","","1992/11/13 00:00:00+00","318","1345","0.1","A","38.44585831","-81.23065862","PRIVATE","WV","Clay","54015","Clay County"
"-80.9497174","38.322039654","1325149","1805197","SFO-1992WVDOF1992-3578","NONFED","ST-NASF","ST/C&L","USWVWVS","West Virginia Division of Forestry","WVDOF","West Virginia Division of Forestry","","1992-3578","","HUTTERSON CREEK","","","","","","1992","1992/10/21 00:00:00+00","295","1000","Human","Fireworks","","1992/10/21 00:00:00+00","295","1000","1","B","38.32204717","-80.94972086","PRIVATE","WV","Nicholas","54067","Nicholas County"
"-80.197368347","38.944230999","1325150","1805198","SFO-1992WVDOF1992-3579","NONFED","ST-NASF","ST/C&L","USWVWVS","West Virginia Division of Forestry","WVDOF","West Virginia Division of Forestry","","1992-3579","","LITTLE SAND RUN","","","","","","1992","1992/09/01 00:00:00+00","245","1210","Human","Misuse of fire by a minor","Minor","1992/09/01 00:00:00+00","245","1210","0.1","A","38.94423867","-80.19737162","PRIVATE","WV","Upshur","54097","Upshur County"
"-80.183409806","39.018269224","1325151","1805199","SFO-1992WVDOF1992-3580","NONFED","ST-NASF","ST/C&L","USWVWVS","West Virginia Division of Forestry","WVDOF","West Virginia Division of Forestry","","1992-3580","","HALL ROAD","","","","","","1992","1992/10/05 00:00:00+00","279","1400","Human","Equipment and vehicle use","","1992/10/05 00:00:00+00","279","1400","0.1","A","39.01827691","-80.18341308","PRIVATE","WV","Upshur","54097","Upshur County"
"-80.233829154","38.974510585","1325152","1805200","SFO-1992WVDOF1992-3581","NONFED","ST-NASF","ST/C&L","USWVWVS","West Virginia Division of Forestry","WVDOF","West Virginia Division of Forestry","","1992-3581","","GILBERT STREET","","","","","","1992","1992/10/22 00:00:00+00","296","2335","Human","Fireworks","","1992/10/22 00:00:00+00","296","2335","0.1","A","38.97451826","-80.23383244","MISSING/NOT SPECIFIED","WV","Upshur","54097","Upshur County"
"-80.152086814","39.037293409","1325153","1805201","SFO-1992WVDOF1992-3582","NONFED","ST-NASF","ST/C&L","USWVWVS","West Virginia Division of Forestry","WVDOF","West Virginia Division of Forestry","","1992-3582","","OLD ROCK QUARRY","","","","","","1992","1992/10/27 00:00:00+00","301","2015","Human","Smoking","","1992/10/27 00:00:00+00","301","2015","0.1","A","39.0373011","-80.15209008","STATE","WV","Upshur","54097","Upshur County"
"-80.154056615","39.025196792","1325154","1805202","SFO-1992WVDOF1992-3583","NONFED","ST-NASF","ST/C&L","USWVWVS","West Virginia Division of Forestry","WVDOF","West Virginia Division of Forestry","","1992-3583","","OLD ROCK QUARRY","","","","","","1992","1992/10/29 00:00:00+00","303","2130","Human","Smoking","","1992/10/29 00:00:00+00","303","2130","0.1","A","39.02520448","-80.15405988","STATE","WV","Upshur","54097","Upshur County"
"-81.486387717","37.416711678","1325155","1805203","SFO-1992WVDOF1992-3584","NONFED","ST-NASF","ST/C&L","USWVWVS","West Virginia Division of Forestry","WVDOF","West Virginia Division of Forestry","","1992-3584","","BIG BRANCH","","","","","","1992","1992/11/14 00:00:00+00","319","1000","Human","Misuse of fire by a minor","Minor","1992/11/14 00:00:00+00","319","1000","6","B","37.41671899","-81.48639128","PRIVATE","WV","McDowell","54047","McDowell County"
"-81.586233076","37.434448228","1325156","1805204","SFO-1992WVDOF1992-3585","NONFED","ST-NASF","ST/C&L","USWVWVS","West Virginia Division of Forestry","WVDOF","West Virginia Division of Forestry","","1992-3585","","WELCH","","","","","","1992","1992/11/06 00:00:00+00","311","0650","Human","Other causes","","1992/11/06 00:00:00+00","311","1500","40","C","37.43445554","-81.58623667","PRIVATE","WV","McDowell","54047","McDowell County"
"-81.079054264","38.11717735","1325157","1805205","SFO-1992WVDOF1992-3586","NONFED","ST-NASF","ST/C&L","USWVWVS","West Virginia Division of Forestry","WVDOF","West Virginia Division of Forestry","","1992-3586","","OSBORNE CIRCLE","","","","","","1992","1992/10/02 00:00:00+00","276","1730","Human","Arson/incendiarism","","1992/10/02 00:00:00+00","276","1730","0.2","A","38.11718482","-81.07905775","STATE","WV","Fayette","54019","Fayette County"
"-81.149510405","37.926577011","1325158","1805206","SFO-1992WVDOF1992-3587","NONFED","ST-NASF","ST/C&L","USWVWVS","West Virginia Division of Forestry","WVDOF","West Virginia Division of Forestry","","1992-3587","","GLEN JEAN","","","","","","1992","1992/10/14 00:00:00+00","288","1430","Human","Misuse of fire by a minor","Minor","1992/10/14 00:00:00+00","288","1430","0.6","B","37.92658444","-81.1495139","STATE","WV","Fayette","54019","Fayette County"
"-81.290699666","38.181374816","1325159","1805207","SFO-1992WVDOF1992-3588","NONFED","ST-NASF","ST/C&L","USWVWVS","West Virginia Division of Forestry","WVDOF","West Virginia Division of Forestry","","1992-3588","","CARBANDALE","","","","","","1992","1992/11/10 00:00:00+00","315","1600","Human","Fireworks","","1992/11/11 00:00:00+00","316","1600","20","C","38.18138229","-81.29070322","PRIVATE","WV","Fayette","54019","Fayette County"
"-81.325299899","38.130813368","1325160","1805208","SFO-1992WVDOF1992-3589","NONFED","ST-NASF","ST/C&L","USWVWVS","West Virginia Division of Forestry","WVDOF","West Virginia Division of Forestry","","1992-3589","","KIMBERLY","","","","","","1992","1992/10/14 00:00:00+00","288","1115","Human","Fireworks","","1992/10/14 00:00:00+00","288","1115","11","C","38.13082083","-81.32530346","PRIVATE","WV","Fayette","54019","Fayette County"
"-81.246313844","37.95237157","1325161","1805209","SFO-1992WVDOF1992-3590","NONFED","ST-NASF","ST/C&L","USWVWVS","West Virginia Division of Forestry","WVDOF","West Virginia Division of Forestry","","1992-3590","","PLUM ORCHARD","","","","","","1992","1992/11/18 00:00:00+00","323","1100","Human","Equipment and vehicle use","","1992/11/18 00:00:00+00","323","1100","0.1","A","37.952379","-81.24631737","PRIVATE","WV","Fayette","54019","Fayette County"
"-80.849227459","37.87258726","1325162","1805210","SFO-1992WVDOF1992-3591","NONFED","ST-NASF","ST/C&L","USWVWVS","West Virginia Division of Forestry","WVDOF","West Virginia Division of Forestry","","1992-3591","","MEADOW CREEK","","","","","","1992","1992/11/19 00:00:00+00","324","1400","Human","Arson/incendiarism","","1992/11/19 00:00:00+00","324","1400","2","B","37.87259469","-80.84923086","PRIVATE","WV","Fayette","54019","Fayette County"
"-81.174925131","38.183136501","1325163","1805211","SFO-1992WVDOF1992-3592","NONFED","ST-NASF","ST/C&L","USWVWVS","West Virginia Division of Forestry","WVDOF","West Virginia Division of Forestry","","1992-3592","","SAND BRANCH","","","","","","1992","1992/11/19 00:00:00+00","324","1610","Human","Fireworks","","1992/11/20 00:00:00+00","325","1610","13","C","38.18314398","-81.17492865","PRIVATE","WV","Fayette","54019","Fayette County"
"-81.333604915","37.999924784","1325164","1805212","SFO-1992WVDOF1992-3593","NONFED","ST-NASF","ST/C&L","USWVWVS","West Virginia Division of Forestry","WVDOF","West Virginia Division of Forestry","","1992-3593","","SPRING BRANCH","","","","","","1992","1992/11/17 00:00:00+00","322","1545","Human","Fireworks","","1992/11/17 00:00:00+00","322","1545","0.1","A","37.99993222","-81.33360847","PRIVATE","WV","Fayette","54019","Fayette County"
"-80.334983532","37.91756446","1325165","1805213","SFO-1992WVDOF1992-3594","NONFED","ST-NASF","ST/C&L","USWVWVS","West Virginia Division of Forestry","WVDOF","West Virginia Division of Forestry","","1992-3594","","COLEMAN CLIFFS","","","","","","1992","1992/10/24 00:00:00+00","298","1445","Human","Arson/incendiarism","","1992/10/24 00:00:00+00","298","1445","2","B","37.91757192","-80.33498678","PRIVATE","WV","Greenbrier","54025","Greenbrier County"
"-80.617874754","37.796146296","1325166","1805214","SFO-1992WVDOF1992-3595","NONFED","ST-NASF","ST/C&L","USWVWVS","West Virginia Division of Forestry","WVDOF","West Virginia Division of Forestry","","1992-3595","","MUDDY CREEK","","","","","","1992","1992/10/24 00:00:00+00","298","2015","Natural","Natural","","1992/10/24 00:00:00+00","298","2015","0.1","A","37.79615372","-80.61787808","PRIVATE","WV","Greenbrier","54025","Greenbrier County"
"-80.367444836","37.697500416","1325167","1805215","SFO-1992WVDOF1992-3596","NONFED","ST-NASF","ST/C&L","USWVWVS","West Virginia Division of Forestry","WVDOF","West Virginia Division of Forestry","","1992-3596","","HARTS RUN","","","","","","1992","1992/11/14 00:00:00+00","319","1600","Human","Arson/incendiarism","","1992/11/14 00:00:00+00","319","1600","12","C","37.69750783","-80.36744808","PRIVATE","WV","Greenbrier","54025","Greenbrier County"
"-81.537037892","37.410363101","1325168","1805216","SFO-1992WVDOF1992-3597","NONFED","ST-NASF","ST/C&L","USWVWVS","West Virginia Division of Forestry","WVDOF","West Virginia Division of Forestry","","1992-3597","","ELKHORN CREEK","","","","","","1992","1992/08/25 00:00:00+00","238","1600","Human","Debris and open burning","","1992/08/25 00:00:00+00","238","1600","3","B","37.41037041","-81.53704147","PRIVATE","WV","McDowell","54047","McDowell County"
"-81.55210361","37.366099411","1325169","1805217","SFO-1992WVDOF1992-3598","NONFED","ST-NASF","ST/C&L","USWVWVS","West Virginia Division of Forestry","WVDOF","West Virginia Division of Forestry","","1992-3598","","TUG FORK","","","","","","1992","1992/10/17 00:00:00+00","291","1637","Human","Arson/incendiarism","","1992/10/17 00:00:00+00","291","1637","2","B","37.36610671","-81.55210719","PRIVATE","WV","McDowell","54047","McDowell County"
"-81.810101387","37.453757554","1325170","1805218","SFO-1992WVDOF1992-3599","NONFED","ST-NASF","ST/C&L","USWVWVS","West Virginia Division of Forestry","WVDOF","West Virginia Division of Forestry","","1992-3599","","IAEGAR","","","","","","1992","1992/10/19 00:00:00+00","293","1545","Human","Arson/incendiarism","","1992/10/19 00:00:00+00","293","1545","2","B","37.45376486","-81.81010505","PRIVATE","WV","McDowell","54047","McDowell County"
"-81.577615028","37.435292868","1325171","1805219","SFO-1992WVDOF1992-3600","NONFED","ST-NASF","ST/C&L","USWVWVS","West Virginia Division of Forestry","WVDOF","West Virginia Division of Forestry","","1992-3600","","WELCH","","","","","","1992","1992/10/22 00:00:00+00","296","1128","Human","Debris and open burning","","1992/10/22 00:00:00+00","296","1128","0.5","B","37.43530018","-81.57761862","STATE","WV","McDowell","54047","McDowell County"
"-81.588170195","37.434988428","1325172","1805220","SFO-1992WVDOF1992-3602","NONFED","ST-NASF","ST/C&L","USWVWVS","West Virginia Division of Forestry","WVDOF","West Virginia Division of Forestry","","1992-3602","","WELCH","","","","","","1992","1992/10/26 00:00:00+00","300","1327","Human","Smoking","","1992/10/26 00:00:00+00","300","1327","0.5","B","37.43499574","-81.58817379","PRIVATE","WV","McDowell","54047","McDowell County"
"-81.813231419","37.409713973","1325173","1805221","SFO-1992WVDOF1992-3603","NONFED","ST-NASF","ST/C&L","USWVWVS","West Virginia Division of Forestry","WVDOF","West Virginia Division of Forestry","","1992-3603","","GRAPEVINE BRANCH","","","","","","1992","1992/10/26 00:00:00+00","300","2030","Human","Equipment and vehicle use","","1992/10/26 00:00:00+00","300","2030","0.5","B","37.40972127","-81.81323508","PRIVATE","WV","McDowell","54047","McDowell County"
"-81.676739663","37.207890238","1325174","1805222","SFO-1992WVDOF1992-3604","NONFED","ST-NASF","ST/C&L","USWVWVS","West Virginia Division of Forestry","WVDOF","West Virginia Division of Forestry","","1992-3604","","31 HOLLOW","","","","","","1992","1992/10/28 00:00:00+00","302","1730","Human","Fireworks","","1992/10/28 00:00:00+00","302","1730","0.5","B","37.2078975","-81.67674327","PRIVATE","WV","McDowell","54047","McDowell County"
"-81.638237422","37.23933727","1325175","1805223","SFO-1992WVDOF1992-3605","NONFED","ST-NASF","ST/C&L","USWVWVS","West Virginia Division of Forestry","WVDOF","West Virginia Division of Forestry","","1992-3605","","DRY FORK RIVER","","","","","","1992","1992/11/03 00:00:00+00","308","2155","Human","Fireworks","","1992/11/04 00:00:00+00","309","2155","10","C","37.23934454","-81.63824102","PRIVATE","WV","McDowell","54047","McDowell County"
"-81.814421098","37.42357763","1325176","1805224","SFO-1992WVDOF1992-3606","NONFED","ST-NASF","ST/C&L","USWVWVS","West Virginia Division of Forestry","WVDOF","West Virginia Division of Forestry","","1992-3606","","PINE KNOB","","","","","","1992","1992/11/10 00:00:00+00","315","1755","Human","Arson/incendiarism","","1992/11/10 00:00:00+00","315","1755","1","B","37.42358493","-81.81442476","PRIVATE","WV","McDowell","54047","McDowell County"
"-81.865937856","37.517032263","1325177","1805225","SFO-1992WVDOF1992-3607","NONFED","ST-NASF","ST/C&L","USWVWVS","West Virginia Division of Forestry","WVDOF","West Virginia Division of Forestry","","1992-3607","","ROCKY POPLOR HOLLOW","","","","","","1992","1992/11/10 00:00:00+00","315","2000","Human","Fireworks","","1992/11/10 00:00:00+00","315","2000","33","C","37.51703958","-81.86594154","PRIVATE","WV","McDowell","54047","McDowell County"
"-81.628047952","37.448384777","1325178","1805226","SFO-1992WVDOF1992-3608","NONFED","ST-NASF","ST/C&L","USWVWVS","West Virginia Division of Forestry","WVDOF","West Virginia Division of Forestry","","1992-3608","","TUG FORK RIVER","","","","","","1992","1992/11/11 00:00:00+00","316","1455","Human","Arson/incendiarism","","1992/11/11 00:00:00+00","316","1455","4","B","37.44839209","-81.62805156","PRIVATE","WV","McDowell","54047","McDowell County"
"-81.649842338","37.256842227","1325179","1805227","SFO-1992WVDOF1992-3609","NONFED","ST-NASF","ST/C&L","USWVWVS","West Virginia Division of Forestry","WVDOF","West Virginia Division of Forestry","","1992-3609","","BERWIND","","","","","","1992","1992/11/11 00:00:00+00","316","2230","Human","Arson/incendiarism","","1992/11/11 00:00:00+00","316","2230","0.3","B","37.2568495","-81.64984594","PRIVATE","WV","McDowell","54047","McDowell County"
"-81.692523401","37.470468245","1325180","1805228","SFO-1992WVDOF1992-3610","NONFED","ST-NASF","ST/C&L","USWVWVS","West Virginia Division of Forestry","WVDOF","West Virginia Division of Forestry","","1992-3610","","BEE BRANCH","","","","","","1992","1992/11/16 00:00:00+00","321","1600","Human","Arson/incendiarism","","1992/11/16 00:00:00+00","321","1600","0.5","B","37.47047556","-81.69252703","PRIVATE","WV","McDowell","54047","McDowell County"
"-81.624047419","37.364119174","1325181","1805229","SFO-1992WVDOF1992-3611","NONFED","ST-NASF","ST/C&L","USWVWVS","West Virginia Division of Forestry","WVDOF","West Virginia Division of Forestry","","1992-3611","","PERRY CAMP BRANCH","","","","","","1992","1992/11/17 00:00:00+00","322","1130","Human","Arson/incendiarism","","1992/11/17 00:00:00+00","322","1130","27","C","37.36412647","-81.62405102","PRIVATE","WV","McDowell","54047","McDowell County"
"-81.628748657","37.364526934","1325182","1805230","SFO-1992WVDOF1992-3612","NONFED","ST-NASF","ST/C&L","USWVWVS","West Virginia Division of Forestry","WVDOF","West Virginia Division of Forestry","","1992-3612","","COALWOOD","","","","","","1992","1992/11/18 00:00:00+00","323","1200","Human","Arson/incendiarism","","1992/11/19 00:00:00+00","324","1200","34","C","37.36453423","-81.62875226","PRIVATE","WV","McDowell","54047","McDowell County"
"-81.580888596","37.449338095","1325183","1805231","SFO-1992WVDOF1992-3613","NONFED","ST-NASF","ST/C&L","USWVWVS","West Virginia Division of Forestry","WVDOF","West Virginia Division of Forestry","","1992-3613","","UPPER SHANNON","","","","","","1992","1992/11/18 00:00:00+00","323","1900","Human","Arson/incendiarism","","1992/11/18 00:00:00+00","323","1900","5","B","37.44934541","-81.58089219","PRIVATE","WV","McDowell","54047","McDowell County"
"-81.529010284","37.417727429","1325184","1805232","SFO-1992WVDOF1992-3614","NONFED","ST-NASF","ST/C&L","USWVWVS","West Virginia Division of Forestry","WVDOF","West Virginia Division of Forestry","","1992-3614","","ELKHORN CREEK","","","","","","1992","1992/11/19 00:00:00+00","324","1500","Human","Equipment and vehicle use","","1992/11/19 00:00:00+00","324","1500","0.1","A","37.41773474","-81.52901386","PRIVATE","WV","McDowell","54047","McDowell County"
"-81.88726324","37.363455625","1325185","1805233","SFO-1992WVDOF1992-3615","NONFED","ST-NASF","ST/C&L","USWVWVS","West Virginia Division of Forestry","WVDOF","West Virginia Division of Forestry","","1992-3615","","BAKER RIDGE","","","","","","1992","1992/11/20 00:00:00+00","325","1930","Human","Arson/incendiarism","","1992/11/20 00:00:00+00","325","1930","12","C","37.36346291","-81.88726692","PRIVATE","WV","McDowell","54047","McDowell County"
"-81.150004701","37.365391015","1325186","1805234","SFO-1992WVDOF1992-3616","NONFED","ST-NASF","ST/C&L","USWVWVS","West Virginia Division of Forestry","WVDOF","West Virginia Division of Forestry","","1992-3616","","RT. 19","","","","","","1992","1992/10/28 00:00:00+00","302","1625","Human","Smoking","","1992/10/28 00:00:00+00","302","1625","0.1","A","37.36539833","-81.15000816","PRIVATE","WV","Mercer","54055","Mercer County"
"-81.268884361","37.269191289","1325187","1805235","SFO-1992WVDOF1992-3617","NONFED","ST-NASF","ST/C&L","USWVWVS","West Virginia Division of Forestry","WVDOF","West Virginia Division of Forestry","","1992-3617","","BRUSHFORK","","","","","","1992","1992/11/03 00:00:00+00","308","1845","Human","Arson/incendiarism","","1992/11/03 00:00:00+00","308","1845","0.2","A","37.26919858","-81.26888785","PRIVATE","WV","Mercer","54055","Mercer County"
"-81.120613424","37.297919407","1325188","1805236","SFO-1992WVDOF1992-3618","NONFED","ST-NASF","ST/C&L","USWVWVS","West Virginia Division of Forestry","WVDOF","West Virginia Division of Forestry","","1992-3618","","JUGNECK ROAD","","","","","","1992","1992/11/19 00:00:00+00","324","1643","Human","Railroad operations and maintenance","","1992/11/19 00:00:00+00","324","1643","0.5","B","37.29792671","-81.12061687","PRIVATE","WV","Mercer","54055","Mercer County"
"-80.984972449","37.386045774","1325189","1805237","SFO-1992WVDOF1992-3619","NONFED","ST-NASF","ST/C&L","USWVWVS","West Virginia Division of Forestry","WVDOF","West Virginia Division of Forestry","","1992-3619","","ELGOOD","","","","","","1992","1992/11/20 00:00:00+00","325","2230","Human","Fireworks","","1992/11/20 00:00:00+00","325","2230","0.1","A","37.3860531","-80.98497586","PRIVATE","WV","Mercer","54055","Mercer County"
"-80.621578472","37.653234815","1325190","1805238","SFO-1992WVDOF1992-3620","NONFED","ST-NASF","ST/C&L","USWVWVS","West Virginia Division of Forestry","WVDOF","West Virginia Division of Forestry","","1992-3620","","WOLF CREEK","","","","","","1992","1992/10/28 00:00:00+00","302","1345","Human","Equipment and vehicle use","","1992/10/28 00:00:00+00","302","1345","0.1","A","37.65324221","-80.62158179","PRIVATE","WV","Monroe","54063","Monroe County"
"-80.818695953","37.803954242","1325191","1805239","SFO-1992WVDOF1992-3621","NONFED","ST-NASF","ST/C&L","USWVWVS","West Virginia Division of Forestry","WVDOF","West Virginia Division of Forestry","","1992-3621","","MEADOW  BRIDGE","","","","","","1992","1992/07/22 00:00:00+00","204","1030","Human","Debris and open burning","","1992/07/22 00:00:00+00","204","1030","0.1","A","37.80396166","-80.81869934","PRIVATE","WV","Summers","54089","Summers County"
"-80.806150947","37.648725153","1325192","1805240","SFO-1992WVDOF1992-3622","NONFED","ST-NASF","ST/C&L","USWVWVS","West Virginia Division of Forestry","WVDOF","West Virginia Division of Forestry","","1992-3622","","CLUB ROAD","","","","","","1992","1992/10/16 00:00:00+00","290","1045","Human","Debris and open burning","","1992/10/16 00:00:00+00","290","1045","0.1","A","37.64873254","-80.80615432","PRIVATE","WV","Summers","54089","Summers County"
"-80.730195678","37.681204344","1325193","1805241","SFO-1992WVDOF1992-3623","NONFED","ST-NASF","ST/C&L","USWVWVS","West Virginia Division of Forestry","WVDOF","West Virginia Division of Forestry","","1992-3623","","CLAYTON ROAD","","","","","","1992","1992/10/21 00:00:00+00","295","1610","Human","Arson/incendiarism","","1992/10/21 00:00:00+00","295","1610","1","B","37.68121174","-80.73019903","PRIVATE","WV","Summers","54089","Summers County"
"-80.667707923","37.731879901","1325194","1805242","SFO-1992WVDOF1992-3624","NONFED","ST-NASF","ST/C&L","USWVWVS","West Virginia Division of Forestry","WVDOF","West Virginia Division of Forestry","","1992-3624","","BIG BRANCH ROAD","","","","","","1992","1992/10/23 00:00:00+00","297","1520","Human","Arson/incendiarism","","1992/10/23 00:00:00+00","297","1520","0.1","A","37.73188731","-80.66771126","PRIVATE","WV","Summers","54089","Summers County"
"-80.976447932","37.55279805","1325195","1805243","SFO-1992WVDOF1992-3625","NONFED","ST-NASF","ST/C&L","USWVWVS","West Virginia Division of Forestry","WVDOF","West Virginia Division of Forestry","","1992-3625","","CANYON RUN COURT","","","","","","1992","1992/11/17 00:00:00+00","322","1900","Human","Equipment and vehicle use","","1992/11/17 00:00:00+00","322","1900","0.8","B","37.55280541","-80.97645135","PRIVATE","WV","Summers","54089","Summers County"
"-81.363525083","37.587132078","1325196","1805244","SFO-1992WVDOF1992-3626","NONFED","ST-NASF","ST/C&L","USWVWVS","West Virginia Division of Forestry","WVDOF","West Virginia Division of Forestry","","1992-3626","","BLACKEAGLE","","","","","","1992","1992/08/06 00:00:00+00","219","1605","Human","Arson/incendiarism","","1992/08/06 00:00:00+00","219","1605","0.1","A","37.58713943","-81.36352862","PRIVATE","WV","Wyoming","54109","Wyoming County"
"-81.342302139","37.592756856","1325197","1805245","SFO-1992WVDOF1992-3628","NONFED","ST-NASF","ST/C&L","USWVWVS","West Virginia Division of Forestry","WVDOF","West Virginia Division of Forestry","","1992-3628","","BLACKEAGLE","","","","","","1992","1992/10/17 00:00:00+00","291","0620","Human","Arson/incendiarism","","1992/10/17 00:00:00+00","291","0755","0.1","A","37.59276421","-81.34230567","PRIVATE","WV","Wyoming","54109","Wyoming County"
"-81.379134073","37.660947984","1325198","1805246","SFO-1992WVDOF1992-3630","NONFED","ST-NASF","ST/C&L","USWVWVS","West Virginia Division of Forestry","WVDOF","West Virginia Division of Forestry","","1992-3630","","PEIRPOINT","","","","","","1992","1992/10/20 00:00:00+00","294","1930","Human","Arson/incendiarism","","1992/10/20 00:00:00+00","294","1930","0.2","A","37.66095535","-81.37913762","PRIVATE","WV","Wyoming","54109","Wyoming County"
"-81.69572838","37.634151002","1325199","1805247","SFO-1992WVDOF1992-3631","NONFED","ST-NASF","ST/C&L","USWVWVS","West Virginia Division of Forestry","WVDOF","West Virginia Division of Forestry","","1992-3631","","CEADER CREEK","","","","","","1992","1992/10/22 00:00:00+00","296","1435","Human","Fireworks","","1992/10/22 00:00:00+00","296","1435","35","C","37.63415835","-81.69573202","PRIVATE","WV","Wyoming","54109","Wyoming County"
"-81.325384323","37.450678364","1325200","1805248","SFO-1992WVDOF1992-3632","NONFED","ST-NASF","ST/C&L","USWVWVS","West Virginia Division of Forestry","WVDOF","West Virginia Division of Forestry","","1992-3632","","HERNDON","","","","","","1992","1992/11/10 00:00:00+00","315","1445","Human","Arson/incendiarism","","1992/11/10 00:00:00+00","315","1445","3","B","37.45068569","-81.32538784","PRIVATE","WV","Wyoming","54109","Wyoming County"
"-81.601738554","37.539855918","1325201","1805249","SFO-1992WVDOF1992-3633","NONFED","ST-NASF","ST/C&L","USWVWVS","West Virginia Division of Forestry","WVDOF","West Virginia Division of Forestry","","1992-3633","","INDIAN CREEK","","","","","","1992","1992/11/18 00:00:00+00","323","1212","Human","Arson/incendiarism","","1992/11/18 00:00:00+00","323","1212","7","B","37.53986325","-81.60174216","PRIVATE","WV","Wyoming","54109","Wyoming County"
"-81.551393351","37.669227699","1325202","1805250","SFO-1992WVDOF1992-3634","NONFED","ST-NASF","ST/C&L","USWVWVS","West Virginia Division of Forestry","WVDOF","West Virginia Division of Forestry","","1992-3634","","JESSIE","","","","","","1992","1992/11/18 00:00:00+00","323","1731","Human","Arson/incendiarism","","1992/11/18 00:00:00+00","323","1731","6","B","37.66923506","-81.55139695","PRIVATE","WV","Wyoming","54109","Wyoming County"
"-81.765502951","37.6103474","1325203","1805251","SFO-1992WVDOF1992-3635","NONFED","ST-NASF","ST/C&L","USWVWVS","West Virginia Division of Forestry","WVDOF","West Virginia Division of Forestry","","1992-3635","","MILL BRANCH","","","","","","1992","1992/11/18 00:00:00+00","323","1757","Human","Arson/incendiarism","","1992/11/18 00:00:00+00","323","1757","21","C","37.61035474","-81.76550661","PRIVATE","WV","Wyoming","54109","Wyoming County"
"-81.760403002","37.614652689","1325204","1805252","SFO-1992WVDOF1992-3636","NONFED","ST-NASF","ST/C&L","USWVWVS","West Virginia Division of Forestry","WVDOF","West Virginia Division of Forestry","","1992-3636","","BIG BRANCH","","","","","","1992","1992/11/20 00:00:00+00","325","1739","Human","Arson/incendiarism","","1992/11/21 00:00:00+00","326","1739","23","C","37.61466003","-81.76040666","PRIVATE","WV","Wyoming","54109","Wyoming County"
"-81.704980572","38.158078368","1325205","1805253","SFO-1992WVDOF1992-3637","NONFED","ST-NASF","ST/C&L","USWVWVS","West Virginia Division of Forestry","WVDOF","West Virginia Division of Forestry","","1992-3637","","BRIER BRANCH","","","","","","1992","1992/11/10 00:00:00+00","315","1335","Human","Railroad operations and maintenance","","1992/11/10 00:00:00+00","315","1335","0.5","B","38.15808582","-81.70498425","PRIVATE","WV","Boone","54005","Boone County"
"-81.645570731","38.005187226","1325206","1805254","SFO-1992WVDOF1992-3639","NONFED","ST-NASF","ST/C&L","USWVWVS","West Virginia Division of Forestry","WVDOF","West Virginia Division of Forestry","","1992-3639","","LEFT FORK LOTS BRANCH","","","","","","1992","1992/11/17 00:00:00+00","322","1530","Human","Fireworks","","1992/11/17 00:00:00+00","322","1530","5","B","38.00519465","-81.64557438","PRIVATE","WV","Boone","54005","Boone County"
"-82.178120701","38.440540532","1325207","1805255","SFO-1992WVDOF1992-3640","NONFED","ST-NASF","ST/C&L","USWVWVS","West Virginia Division of Forestry","WVDOF","West Virginia Division of Forestry","","1992-3640","","MALCOLM SPRINGS","","","","","","1992","1992/10/12 00:00:00+00","286","1735","Human","Debris and open burning","","1992/10/12 00:00:00+00","286","1735","0.2","A","38.44054802","-82.17812454","PRIVATE","WV","Cabell","54011","Cabell County"
"-82.398245389","38.374153775","1325208","1805256","SFO-1992WVDOF1992-3641","NONFED","ST-NASF","ST/C&L","USWVWVS","West Virginia Division of Forestry","WVDOF","West Virginia Division of Forestry","","1992-3641","","FOUR POLE ROAD","","","","","","1992","1992/10/12 00:00:00+00","286","2134","Human","Arson/incendiarism","","1992/10/12 00:00:00+00","286","2134","0.2","A","38.37416124","-82.39824929","PRIVATE","WV","Cabell","54011","Cabell County"
"-82.398774979","38.374904435","1325209","1805257","SFO-1992WVDOF1992-3642","NONFED","ST-NASF","ST/C&L","USWVWVS","West Virginia Division of Forestry","WVDOF","West Virginia Division of Forestry","","1992-3642","","FOUR POLE ROAD","","","","","","1992","1992/10/13 00:00:00+00","287","2130","Human","Arson/incendiarism","","1992/10/13 00:00:00+00","287","2130","0.1","A","38.3749119","-82.39877888","PRIVATE","WV","Cabell","54011","Cabell County"
"-82.347809201","38.420488473","1325210","1805258","SFO-1992WVDOF1992-3643","NONFED","ST-NASF","ST/C&L","USWVWVS","West Virginia Division of Forestry","WVDOF","West Virginia Division of Forestry","","1992-3643","","JOHNSON HOLLOW","","","","","","1992","1992/10/25 00:00:00+00","299","0049","Human","Misuse of fire by a minor","Minor","1992/10/25 00:00:00+00","299","0240","2","B","38.42049595","-82.34781309","PRIVATE","WV","Cabell","54011","Cabell County"
"-82.347809201","38.420488473","1325211","1805259","SFO-1992WVDOF1992-3644","NONFED","ST-NASF","ST/C&L","USWVWVS","West Virginia Division of Forestry","WVDOF","West Virginia Division of Forestry","","1992-3644","","JOHNSON HOLLOW","","","","","","1992","1992/10/25 00:00:00+00","299","2347","Human","Misuse of fire by a minor","Minor","1992/10/26 00:00:00+00","300","2347","3","B","38.42049595","-82.34781309","PRIVATE","WV","Cabell","54011","Cabell County"
"-82.185810627","38.464434188","1325212","1805260","SFO-1992WVDOF1992-3645","NONFED","ST-NASF","ST/C&L","USWVWVS","West Virginia Division of Forestry","WVDOF","West Virginia Division of Forestry","","1992-3645","","MCCOMMAS BRANCH","","","","","","1992","1992/10/25 00:00:00+00","299","1903","Human","Arson/incendiarism","","1992/10/26 00:00:00+00","300","1903","4","B","38.46444168","-82.18581447","PRIVATE","WV","Cabell","54011","Cabell County"
"-82.331712455","38.43344222","1325213","1805261","SFO-1992WVDOF1992-3646","NONFED","ST-NASF","ST/C&L","USWVWVS","West Virginia Division of Forestry","WVDOF","West Virginia Division of Forestry","","1992-3646","","3 MILE CREEK","","","","","","1992","1992/10/28 00:00:00+00","302","1737","Human","Arson/incendiarism","","1992/10/28 00:00:00+00","302","1737","0.1","A","38.4334497","-82.33171634","PRIVATE","WV","Cabell","54011","Cabell County"
"-82.331880435","38.43385484","1325214","1805263","SFO-1992WVDOF1992-3648","NONFED","ST-NASF","ST/C&L","USWVWVS","West Virginia Division of Forestry","WVDOF","West Virginia Division of Forestry","","1992-3648","","3 MILE CREEK","","","","","","1992","1992/10/28 00:00:00+00","302","1750","Human","Arson/incendiarism","","1992/10/28 00:00:00+00","302","1750","0.1","A","38.43386232","-82.33188432","PRIVATE","WV","Cabell","54011","Cabell County"
"-82.363499728","38.403896537","1325215","1805264","SFO-1992WVDOF1992-3650","NONFED","ST-NASF","ST/C&L","USWVWVS","West Virginia Division of Forestry","WVDOF","West Virginia Division of Forestry","","1992-3650","","WILSON HEIGHTS ROAD","","","","","","1992","1992/11/20 00:00:00+00","325","1221","Human","Debris and open burning","","1992/11/20 00:00:00+00","325","1221","1","B","38.40390401","-82.36350362","PRIVATE","WV","Cabell","54011","Cabell County"
"-82.088541451","38.387192019","1325216","1805265","SFO-1992WVDOF1992-3651","NONFED","ST-NASF","ST/C&L","USWVWVS","West Virginia Division of Forestry","WVDOF","West Virginia Division of Forestry","","1992-3651","","CHARLES CREEK","","","","","","1992","1992/11/20 00:00:00+00","325","1608","Human","Debris and open burning","","1992/11/20 00:00:00+00","325","1608","0.2","A","38.3871995","-82.08854526","PRIVATE","WV","Cabell","54011","Cabell County"
"-81.439491501","38.174441154","1325217","1805266","SFO-1992WVDOF1992-3653","NONFED","ST-NASF","ST/C&L","USWVWVS","West Virginia Division of Forestry","WVDOF","West Virginia Division of Forestry","","1992-3653","","BIGHORN","","","","","","1992","1992/10/19 00:00:00+00","293","2000","Human","Fireworks","","1992/10/19 00:00:00+00","293","2000","0.5","B","38.17444862","-81.4394951","PRIVATE","WV","Kanawha","54039","Kanawha County"
"-81.619153212","38.254716185","1325218","1805267","SFO-1992WVDOF1992-3654","NONFED","ST-NASF","ST/C&L","USWVWVS","West Virginia Division of Forestry","WVDOF","West Virginia Division of Forestry","","1992-3654","","CONNELL ROAD","","","","","","1992","1992/10/23 00:00:00+00","297","1320","Human","Arson/incendiarism","","1992/10/23 00:00:00+00","297","1320","0.3","B","38.25472366","-81.61915687","PRIVATE","WV","Kanawha","54039","Kanawha County"
"-81.729553759","38.393284542","1325219","1805268","SFO-1992WVDOF1992-3655","NONFED","ST-NASF","ST/C&L","USWVWVS","West Virginia Division of Forestry","WVDOF","West Virginia Division of Forestry","","1992-3655","","BIG TYLER ROAD","","","","","","1992","1992/10/26 00:00:00+00","300","1341","Human","Debris and open burning","","1992/10/26 00:00:00+00","300","1341","10","C","38.39329204","-81.72955746","PRIVATE","WV","Kanawha","54039","Kanawha County"
"-81.441257912","38.151182058","1325220","1805269","SFO-1992WVDOF1992-3656","NONFED","ST-NASF","ST/C&L","USWVWVS","West Virginia Division of Forestry","WVDOF","West Virginia Division of Forestry","","1992-3656","","PAINT BRANCH","","","","","","1992","1992/10/26 00:00:00+00","300","2230","Human","Arson/incendiarism","","1992/10/27 00:00:00+00","301","2230","70","C","38.15118952","-81.44126151","PRIVATE","WV","Kanawha","54039","Kanawha County"
"-81.479459194","38.543652752","1325221","1805270","SFO-1992WVDOF1992-3657","NONFED","ST-NASF","ST/C&L","USWVWVS","West Virginia Division of Forestry","WVDOF","West Virginia Division of Forestry","","1992-3657","","POCA FORK","","","","","","1992","1992/10/27 00:00:00+00","301","1414","Human","Misuse of fire by a minor","Minor","1992/10/27 00:00:00+00","301","1414","0.5","B","38.54366029","-81.47946283","PRIVATE","WV","Kanawha","54039","Kanawha County"
