"ï»¿X","Y","OBJECTID","FOD_ID","FPA_ID","SOURCE_SYSTEM_TYPE","SOURCE_SYSTEM","NWCG_REPORTING_AGENCY","NWCG_REPORTING_UNIT_ID","NWCG_REPORTING_UNIT_NAME","SOURCE_REPORTING_UNIT","SOURCE_REPORTING_UNIT_NAME","LOCAL_FIRE_REPORT_ID","LOCAL_INCIDENT_ID","FIRE_CODE","FIRE_NAME","ICS_209_PLUS_INCIDENT_JOIN_ID","ICS_209_PLUS_COMPLEX_JOIN_ID","MTBS_ID","MTBS_FIRE_NAME","COMPLEX_NAME","FIRE_YEAR","DISCOVERY_DATE","DISCOVERY_DOY","DISCOVERY_TIME","NWCG_CAUSE_CLASSIFICATION","NWCG_GENERAL_CAUSE","NWCG_CAUSE_AGE_CATEGORY","CONT_DATE","CONT_DOY","CONT_TIME","FIRE_SIZE","FIRE_SIZE_CLASS","LATITUDE","LONGITUDE","OWNER_DESCR","STATE","COUNTY","FIPS_CODE","FIPS_NAME"
"-121.522926254","42.542764616","1145001","1396631","ODF-9254","NONFED","ST-ORORS","ST/C&L","USOR981S","Klamath Unit","ORODF-981","Klamath Unit","254","9254","","REED","","","","","","1994","1994/07/22 00:00:00+00","203","","Natural","Natural","","1994/07/22 00:00:00+00","203","","0.1","A","42.54277","-121.52294","PRIVATE","OR","18","41035","Klamath County"
"-121.950656227","42.302674671","1145002","1396632","ODF-9255","NONFED","ST-ORORS","ST/C&L","USOR981S","Klamath Unit","ORODF-981","Klamath Unit","255","9255","","MOO","","","","","","1994","1994/07/22 00:00:00+00","203","","Natural","Natural","","1994/07/23 00:00:00+00","204","","0.1","A","42.30268","-121.95067","PRIVATE","OR","18","41035","Klamath County"
"-123.571236011","42.12387483","1145003","1396634","ODF-10353","NONFED","ST-ORORS","ST/C&L","USOR712S","Grants Pass Unit","ORODF-712","Grants Pass Unit","A10","10353","","HOLLAND LOOP","","","","","","1995","1995/07/15 00:00:00+00","196","","Human","Missing data/not specified/undetermined","","1995/07/15 00:00:00+00","196","","0.01","A","42.12388","-123.57125","COUNTY","OR","33","41033","Josephine County"
"-123.634305976","42.277174826","1145004","1396635","ODF-10354","NONFED","ST-ORORS","ST/C&L","USOR712S","Grants Pass Unit","ORODF-712","Grants Pass Unit","A11","10354","","ILLINOIS RIVER ROAD","","","","","","1995","1995/07/16 00:00:00+00","197","","Human","Equipment and vehicle use","","1995/07/16 00:00:00+00","197","","0.01","A","42.27718","-123.63432","COUNTY","OR","33","41033","Josephine County"
"-123.472656015","42.185334817","1145005","1396636","ODF-10355","NONFED","ST-ORORS","ST/C&L","USOR712S","Grants Pass Unit","ORODF-712","Grants Pass Unit","A12","10355","","LITTLE GRAYBACK CREEK","","","","","","1995","1995/07/19 00:00:00+00","200","","Natural","Natural","","1995/07/19 00:00:00+00","200","","0.01","A","42.18534","-123.47267","BLM","OR","33","41033","Josephine County"
"-123.256835973","42.628284769","1145006","1396638","ODF-10357","NONFED","ST-ORORS","ST/C&L","USOR712S","Grants Pass Unit","ORODF-712","Grants Pass Unit","A14","10357","","DAISEY CUT-OFF","","","","","","1995","1995/07/19 00:00:00+00","200","","Natural","Natural","","1995/07/19 00:00:00+00","200","","0.01","A","42.62829","-123.25685","BLM","OR","33","41033","Josephine County"
"-123.300116008","42.384434788","1145007","1396639","ODF-10358","NONFED","ST-ORORS","ST/C&L","USOR712S","Grants Pass Unit","ORODF-712","Grants Pass Unit","A15","10358","","BOARD SHANTY","","","","","","1995","1995/07/19 00:00:00+00","200","","Natural","Natural","","1995/07/19 00:00:00+00","200","","0.01","A","42.38444","-123.30013","PRIVATE","OR","33","41033","Josephine County"
"-123.433576001","42.308864806","1145008","1396640","ODF-10359","NONFED","ST-ORORS","ST/C&L","USOR712S","Grants Pass Unit","ORODF-712","Grants Pass Unit","A16","10359","","MANZANITA LOOKOUT","","","","","","1995","1995/07/19 00:00:00+00","200","","Natural","Natural","","1995/07/19 00:00:00+00","200","","0.01","A","42.30887","-123.43359","COUNTY","OR","33","41033","Josephine County"
"-123.256945967","42.668424766","1145009","1396641","ODF-10360","NONFED","ST-ORORS","ST/C&L","USOR712S","Grants Pass Unit","ORODF-712","Grants Pass Unit","A17","10360","","CLARK CREEK","","","","","","1995","1995/07/19 00:00:00+00","200","","Natural","Natural","","1995/07/19 00:00:00+00","200","","0.01","A","42.66843","-123.25696","BLM","OR","33","41033","Josephine County"
"-123.242196","42.486304777","1145010","1396643","ODF-10362","NONFED","ST-ORORS","ST/C&L","USOR712S","Grants Pass Unit","ORODF-712","Grants Pass Unit","A19","10362","","SAVAGE CREEK","","","","","","1995","1995/07/19 00:00:00+00","200","","Natural","Natural","","1995/07/19 00:00:00+00","200","","0.01","A","42.48631","-123.24221","COUNTY","OR","33","41033","Josephine County"
"-123.237205972","42.653844765","1145011","1396644","ODF-10363","NONFED","ST-ORORS","ST/C&L","USOR712S","Grants Pass Unit","ORODF-712","Grants Pass Unit","A20","10363","","BOULDER CREEK","","","","","","1995","1995/07/19 00:00:00+00","200","","Natural","Natural","","1995/07/19 00:00:00+00","200","","0.01","A","42.65385","-123.23722","PRIVATE","OR","33","41033","Josephine County"
"-123.644255997","42.142234836","1145012","1396645","ODF-10365","NONFED","ST-ORORS","ST/C&L","USOR712S","Grants Pass Unit","ORODF-712","Grants Pass Unit","A22","10365","","ROCKYDALE ROAD III","","","","","","1995","1995/07/20 00:00:00+00","201","","Human","Other causes","","1995/07/20 00:00:00+00","201","","0.01","A","42.14224","-123.64427","PRIVATE","OR","33","41033","Josephine County"
"-123.276746034","42.249164795","1145013","1396646","ODF-10366","NONFED","ST-ORORS","ST/C&L","USOR712S","Grants Pass Unit","ORODF-712","Grants Pass Unit","A23","10366","","WATERGAP ROAD","","","","","","1995","1995/07/21 00:00:00+00","202","","Human","Missing data/not specified/undetermined","","1995/07/21 00:00:00+00","202","","0.01","A","42.24917","-123.27676","PRIVATE","OR","33","41033","Josephine County"
"-123.256876029","42.29712479","1145014","1396648","ODF-10368","NONFED","ST-ORORS","ST/C&L","USOR712S","Grants Pass Unit","ORODF-712","Grants Pass Unit","A25","10368","","WATERGAP ROAD II","","","","","","1995","1995/07/23 00:00:00+00","204","","Human","Fireworks","","1995/07/23 00:00:00+00","204","","0.1","A","42.29713","-123.25689","COUNTY","OR","33","41033","Josephine County"
"-123.389115952","42.63923478","1145015","1396649","ODF-10369","NONFED","ST-ORORS","ST/C&L","USOR712S","Grants Pass Unit","ORODF-712","Grants Pass Unit","A26","10369","","I-5 MP 72","","","","","","1995","1995/07/25 00:00:00+00","206","","Human","Equipment and vehicle use","","1995/07/25 00:00:00+00","206","","0.01","A","42.63924","-123.38913","STATE","OR","33","41033","Josephine County"
"-123.545985975","42.365134812","1145016","1396650","ODF-10370","NONFED","ST-ORORS","ST/C&L","USOR712S","Grants Pass Unit","ORODF-712","Grants Pass Unit","A27","10370","","WATERS CREEK","","","","","","1995","1995/07/25 00:00:00+00","206","","Natural","Natural","","1995/07/25 00:00:00+00","206","","0.01","A","42.36514","-123.546","PRIVATE","OR","33","41033","Josephine County"
"-123.286346026","42.285504794","1145017","1396651","ODF-10371","NONFED","ST-ORORS","ST/C&L","USOR712S","Grants Pass Unit","ORODF-712","Grants Pass Unit","A28","10371","","GLENLYN","","","","","","1995","1995/07/25 00:00:00+00","206","","Natural","Natural","","1995/07/25 00:00:00+00","206","","0.01","A","42.28551","-123.28636","PRIVATE","OR","33","41033","Josephine County"
"-123.580305967","42.379364814","1145018","1396652","ODF-10372","NONFED","ST-ORORS","ST/C&L","USOR712S","Grants Pass Unit","ORODF-712","Grants Pass Unit","A29","10372","","ROOT SPRINGS","","","","","","1995","1995/07/25 00:00:00+00","206","","Natural","Natural","","1995/07/25 00:00:00+00","206","","0.01","A","42.37937","-123.58032","PRIVATE","OR","33","41033","Josephine County"
"-123.64495592","42.606314806","1145019","1396653","ODF-10373","NONFED","ST-ORORS","ST/C&L","USOR712S","Grants Pass Unit","ORODF-712","Grants Pass Unit","A30","10373","","PEAVINE LOOKOUT","","","","","","1995","1995/07/25 00:00:00+00","206","","Natural","Natural","","1995/07/25 00:00:00+00","206","","0.01","A","42.60632","-123.64497","BLM","OR","33","41033","Josephine County"
"-123.228135974","42.649594765","1145020","1396654","ODF-10374","NONFED","ST-ORORS","ST/C&L","USOR712S","Grants Pass Unit","ORODF-712","Grants Pass Unit","A31","10374","","UPPER GRAVE CREEK","","","","","","1995","1995/07/25 00:00:00+00","206","","Natural","Natural","","1995/07/25 00:00:00+00","206","","0.01","A","42.6496","-123.22815","PRIVATE","OR","29","41029","Jackson County"
"-123.516505978","42.372384809","1145021","1396655","ODF-10375","NONFED","ST-ORORS","ST/C&L","USOR712S","Grants Pass Unit","ORODF-712","Grants Pass Unit","A32","10375","","WONDER MOUNTAIN","","","","","","1995","1995/07/25 00:00:00+00","206","","Natural","Natural","","1995/07/25 00:00:00+00","206","","0.1","A","42.37239","-123.51652","COUNTY","OR","33","41033","Josephine County"
"-123.221696014","42.420744779","1145022","1396657","ODF-10377","NONFED","ST-ORORS","ST/C&L","USOR712S","Grants Pass Unit","ORODF-712","Grants Pass Unit","A34","10377","","I-5 MP 51","","","","","","1995","1995/07/27 00:00:00+00","208","","Human","Equipment and vehicle use","","1995/07/27 00:00:00+00","208","","0.01","A","42.42075","-123.22171","STATE","OR","29","41029","Jackson County"
"-123.237655978","42.617384768","1145023","1396658","ODF-10378","NONFED","ST-ORORS","ST/C&L","USOR712S","Grants Pass Unit","ORODF-712","Grants Pass Unit","A35","10378","","DAISEY MINE","","","","","","1995","1995/07/27 00:00:00+00","208","","Natural","Natural","","1995/07/27 00:00:00+00","208","","0.01","A","42.61739","-123.23767","BLM","OR","33","41033","Josephine County"
"-123.491905959","42.507914798","1145024","1396659","ODF-10379","NONFED","ST-ORORS","ST/C&L","USOR712S","Grants Pass Unit","ORODF-712","Grants Pass Unit","A36","10379","","CLIFFSIDE","","","","","","1995","1995/07/27 00:00:00+00","208","","Human","Missing data/not specified/undetermined","","1995/07/27 00:00:00+00","208","","0.25","A","42.50792","-123.49192","PRIVATE","OR","33","41033","Josephine County"
"-123.359266002","42.366474795","1145025","1396660","ODF-10380","NONFED","ST-ORORS","ST/C&L","USOR712S","Grants Pass Unit","ORODF-712","Grants Pass Unit","A37","10380","","DETRICK DRIVE","","","","","","1995","1995/07/27 00:00:00+00","208","","Human","Smoking","","1995/07/27 00:00:00+00","208","","0.1","A","42.36648","-123.35928","PRIVATE","OR","33","41033","Josephine County"
"-123.595055982","42.277084822","1145026","1396661","ODF-10382","NONFED","ST-ORORS","ST/C&L","USOR712S","Grants Pass Unit","ORODF-712","Grants Pass Unit","A39","10382","","DEER CREEK","","","","","","1995","1995/07/29 00:00:00+00","210","","Human","Other causes","","1995/07/29 00:00:00+00","210","","0.1","A","42.27709","-123.59507","PRIVATE","OR","33","41033","Josephine County"
"-123.629075975","42.291914825","1145027","1396662","ODF-10384","NONFED","ST-ORORS","ST/C&L","USOR712S","Grants Pass Unit","ORODF-712","Grants Pass Unit","A41","10384","","ILLINOIS RIVER RD. #2","","","","","","1995","1995/08/01 00:00:00+00","213","","Human","Misuse of fire by a minor","Minor","1995/08/01 00:00:00+00","213","","0.01","A","42.29192","-123.62909","PRIVATE","OR","33","41033","Josephine County"
"-123.252056045","42.202074796","1145028","1396663","ODF-10385","NONFED","ST-ORORS","ST/C&L","USOR712S","Grants Pass Unit","ORODF-712","Grants Pass Unit","A42","10385","","PANTHER GULCH","","","","","","1995","1995/08/02 00:00:00+00","214","","Human","Equipment and vehicle use","","1995/08/02 00:00:00+00","214","","1","B","42.20208","-123.25207","PRIVATE","OR","33","41033","Josephine County"
"-123.615176","42.149444832","1145029","1396664","ODF-10386","NONFED","ST-ORORS","ST/C&L","USOR712S","Grants Pass Unit","ORODF-712","Grants Pass Unit","A43","10386","","JEANNIE WAY","","","","","","1995","1995/08/05 00:00:00+00","217","","Human","Debris and open burning","","1995/08/05 00:00:00+00","217","","0.01","A","42.14945","-123.61519","PRIVATE","OR","33","41033","Josephine County"
"-123.232096019","42.380974783","1145030","1396665","ODF-10387","NONFED","ST-ORORS","ST/C&L","USOR712S","Grants Pass Unit","ORODF-712","Grants Pass Unit","A44","10387","","SAVAGE CREEK II","","","","","","1995","1995/08/06 00:00:00+00","218","","Human","Other causes","","1995/08/06 00:00:00+00","218","","0.01","A","42.38098","-123.23211","PRIVATE","OR","29","41029","Jackson County"
"-123.453095971","42.471464797","1145031","1396666","ODF-10388","NONFED","ST-ORORS","ST/C&L","USOR712S","Grants Pass Unit","ORODF-712","Grants Pass Unit","A45","10388","","PINE DELL LANE","","","","","","1995","1995/08/07 00:00:00+00","219","","Human","Equipment and vehicle use","","1995/08/07 00:00:00+00","219","","0.01","A","42.47147","-123.45311","PRIVATE","OR","33","41033","Josephine County"
"-123.364255981","42.489354788","1145032","1396667","ODF-10389","NONFED","ST-ORORS","ST/C&L","USOR712S","Grants Pass Unit","ORODF-712","Grants Pass Unit","A46","10389","","CHEROKEE LANE","","","","","","1995","1995/08/07 00:00:00+00","219","","Human","Smoking","","1995/08/07 00:00:00+00","219","","0.01","A","42.48936","-123.36427","PRIVATE","OR","33","41033","Josephine County"
"-123.648985994","42.156814835","1145033","1396668","ODF-10390","NONFED","ST-ORORS","ST/C&L","USOR712S","Grants Pass Unit","ORODF-712","Grants Pass Unit","A47","10390","","FORKS PARK","","","","","","1995","1995/08/08 00:00:00+00","220","","Human","Recreation and ceremony","","1995/08/08 00:00:00+00","220","","0.01","A","42.15682","-123.649","STATE","OR","33","41033","Josephine County"
"-123.554996027","42.040594834","1145034","1396669","ODF-10391","NONFED","ST-ORORS","ST/C&L","USOR712S","Grants Pass Unit","ORODF-712","Grants Pass Unit","A48","10391","","HOLLAND LOOP #2","","","","","","1995","1995/08/09 00:00:00+00","221","","Human","Arson/incendiarism","","1995/08/09 00:00:00+00","221","","0.1","A","42.0406","-123.55501","COUNTY","OR","33","41033","Josephine County"
"-123.554996027","42.040594834","1145035","1396670","ODF-10392","NONFED","ST-ORORS","ST/C&L","USOR712S","Grants Pass Unit","ORODF-712","Grants Pass Unit","A49","10392","","HOLLAND LOOP #3","","","","","","1995","1995/08/09 00:00:00+00","221","","Human","Arson/incendiarism","","1995/08/09 00:00:00+00","221","","0.1","A","42.0406","-123.55501","COUNTY","OR","33","41033","Josephine County"
"-123.369415979","42.496844788","1145036","1396671","ODF-10393","NONFED","ST-ORORS","ST/C&L","USOR712S","Grants Pass Unit","ORODF-712","Grants Pass Unit","A50","10393","","MONUMENT DRIVE #2","","","","","","1995","1995/08/10 00:00:00+00","222","","Human","Equipment and vehicle use","","1995/08/10 00:00:00+00","222","","0.01","A","42.49685","-123.36943","PRIVATE","OR","33","41033","Josephine County"
"-123.35496601","42.323114798","1145037","1396672","ODF-10394","NONFED","ST-ORORS","ST/C&L","USOR712S","Grants Pass Unit","ORODF-712","Grants Pass Unit","A51","10394","","MURPHY CREEK ROAD","","","","","","1995","1995/08/12 00:00:00+00","224","","Human","Other causes","","1995/08/12 00:00:00+00","224","","0.01","A","42.32312","-123.35498","PRIVATE","OR","33","41033","Josephine County"
"-123.673845994","42.134484839","1145038","1396673","ODF-10395","NONFED","ST-ORORS","ST/C&L","USOR712S","Grants Pass Unit","ORODF-712","Grants Pass Unit","A52","10395","","WESTSIDE ROAD","","","","","","1995","1995/08/12 00:00:00+00","224","","Human","Other causes","","1995/08/12 00:00:00+00","224","","0.1","A","42.13449","-123.67386","PRIVATE","OR","33","41033","Josephine County"
"-123.319966012","42.344834793","1145039","1396674","ODF-10396","NONFED","ST-ORORS","ST/C&L","USOR712S","Grants Pass Unit","ORODF-712","Grants Pass Unit","A53","10396","","NORTH APPLEGATE ROAD","","","","","","1995","1995/08/13 00:00:00+00","225","","Human","Debris and open burning","","1995/08/13 00:00:00+00","225","","0.01","A","42.34484","-123.31998","PRIVATE","OR","33","41033","Josephine County"
"-123.262116043","42.209074797","1145040","1396675","ODF-10397","NONFED","ST-ORORS","ST/C&L","USOR712S","Grants Pass Unit","ORODF-712","Grants Pass Unit","A54","10397","","BROWNS ROAD","","","","","","1995","1995/08/15 00:00:00+00","227","","Human","Equipment and vehicle use","","1995/08/15 00:00:00+00","227","","0.25","A","42.20908","-123.26213","PRIVATE","OR","33","41033","Josephine County"
"-123.350096","42.388174793","1145041","1396676","ODF-10398","NONFED","ST-ORORS","ST/C&L","USOR712S","Grants Pass Unit","ORODF-712","Grants Pass Unit","A55","10398","","WILLIAMS HIGHWAY II","","","","","","1995","1995/08/16 00:00:00+00","228","","Human","Misuse of fire by a minor","Minor","1995/08/16 00:00:00+00","228","","0.75","B","42.38818","-123.35011","PRIVATE","OR","33","41033","Josephine County"
"-123.624725995","42.171324832","1145042","1396677","ODF-10399","NONFED","ST-ORORS","ST/C&L","USOR712S","Grants Pass Unit","ORODF-712","Grants Pass Unit","A56","10399","","LAUREL ROAD","","","","","","1995","1995/08/17 00:00:00+00","229","","Human","Equipment and vehicle use","","1995/08/17 00:00:00+00","229","","0.01","A","42.17133","-123.62474","PRIVATE","OR","33","41033","Josephine County"
"-123.673445988","42.174844836","1145043","1396678","ODF-10400","NONFED","ST-ORORS","ST/C&L","USOR712S","Grants Pass Unit","ORODF-712","Grants Pass Unit","A57","10400","","WESTSIDE II","","","","","","1995","1995/08/17 00:00:00+00","229","","Human","Misuse of fire by a minor","Minor","1995/08/17 00:00:00+00","229","","0.01","A","42.17485","-123.67346","PRIVATE","OR","33","41033","Josephine County"
"-123.359946006","42.344844797","1145044","1396679","ODF-10401","NONFED","ST-ORORS","ST/C&L","USOR712S","Grants Pass Unit","ORODF-712","Grants Pass Unit","A58","10401","","NEW HOPE ROAD","","","","","","1995","1995/08/17 00:00:00+00","229","","Human","Other causes","","1995/08/17 00:00:00+00","229","","0.01","A","42.34485","-123.35996","PRIVATE","OR","33","41033","Josephine County"
"-123.467605983","42.387724804","1145045","1396680","ODF-10402","NONFED","ST-ORORS","ST/C&L","USOR712S","Grants Pass Unit","ORODF-712","Grants Pass Unit","A59","10402","","REDWOOD HIGHWAY MP 8","","","","","","1995","1995/08/19 00:00:00+00","231","","Human","Missing data/not specified/undetermined","","1995/08/19 00:00:00+00","231","","0.01","A","42.38773","-123.46762","STATE","OR","33","41033","Josephine County"
"-123.585626005","42.14932483","1145046","1396681","ODF-10403","NONFED","ST-ORORS","ST/C&L","USOR712S","Grants Pass Unit","ORODF-712","Grants Pass Unit","A60","10403","","PP D-710","","","","","","1995","1995/08/19 00:00:00+00","231","","Human","Power generation/transmission/distribution","","1995/08/19 00:00:00+00","231","","0.01","A","42.14933","-123.58564","COUNTY","OR","33","41033","Josephine County"
"-123.369706016","42.274214802","1145047","1396682","ODF-10405","NONFED","ST-ORORS","ST/C&L","USOR712S","Grants Pass Unit","ORODF-712","Grants Pass Unit","A62","10405","","SPENCER CREEK","","","","","","1995","1995/08/19 00:00:00+00","231","","Human","Smoking","","1995/08/19 00:00:00+00","231","","0.01","A","42.27422","-123.36972","BLM","OR","33","41033","Josephine County"
"-123.609395981","42.273674824","1145048","1396683","ODF-10406","NONFED","ST-ORORS","ST/C&L","USOR712S","Grants Pass Unit","ORODF-712","Grants Pass Unit","A63","10406","","LAKESHORE DRIVE","","","","","","1995","1995/08/20 00:00:00+00","232","","Human","Misuse of fire by a minor","Minor","1995/08/20 00:00:00+00","232","","0.01","A","42.27368","-123.60941","PRIVATE","OR","33","41033","Josephine County"
"-123.78012595","42.306524837","1145049","1396684","ODF-10407","NONFED","ST-ORORS","ST/C&L","USOR712S","Grants Pass Unit","ORODF-712","Grants Pass Unit","A64","10407","","MCCALEB RANCH","","","","","","1995","1995/08/21 00:00:00+00","233","","Human","Recreation and ceremony","","1995/08/21 00:00:00+00","233","","1","B","42.30653","-123.78014","PRIVATE","OR","33","41033","Josephine County"
"-123.683225992","42.138134839","1145050","1396685","ODF-10408","NONFED","ST-ORORS","ST/C&L","USOR712S","Grants Pass Unit","ORODF-712","Grants Pass Unit","A65","10408","","WESTSIDE III","","","","","","1995","1995/08/21 00:00:00+00","233","","Human","Misuse of fire by a minor","Minor","1995/08/21 00:00:00+00","233","","0.75","B","42.13814","-123.68324","PRIVATE","OR","33","41033","Josephine County"
"-123.334946007","42.355964794","1145051","1396686","ODF-10409","NONFED","ST-ORORS","ST/C&L","USOR712S","Grants Pass Unit","ORODF-712","Grants Pass Unit","A66","10409","","WILLIAMS HIGHWAY III","","","","","","1995","1995/08/22 00:00:00+00","234","","Human","Debris and open burning","","1995/08/22 00:00:00+00","234","","0.1","A","42.35597","-123.33496","PRIVATE","OR","33","41033","Josephine County"
"-123.237706035","42.27888479","1145052","1396687","ODF-10410","NONFED","ST-ORORS","ST/C&L","USOR712S","Grants Pass Unit","ORODF-712","Grants Pass Unit","A67","10410","","WILLIAMS HIGHWAY IV","","","","","","1995","1995/08/24 00:00:00+00","236","","Human","Other causes","","1995/08/24 00:00:00+00","236","","0.01","A","42.27889","-123.23772","PRIVATE","OR","33","41033","Josephine County"
"-123.610576013","42.076444837","1145053","1396688","ODF-10411","NONFED","ST-ORORS","ST/C&L","USOR712S","Grants Pass Unit","ORODF-712","Grants Pass Unit","A68","10411","","POWER POLE #D3952","","","","","","1995","1995/08/24 00:00:00+00","236","","Human","Power generation/transmission/distribution","","1995/08/24 00:00:00+00","236","","0.01","A","42.07645","-123.61059","COUNTY","OR","33","41033","Josephine County"
"-123.364745994","42.412964793","1145054","1396689","ODF-10412","NONFED","ST-ORORS","ST/C&L","USOR712S","Grants Pass Unit","ORODF-712","Grants Pass Unit","A69","10412","","DOWELL ROAD","","","","","","1995","1995/08/26 00:00:00+00","238","","Human","Smoking","","1995/08/26 00:00:00+00","238","","0.1","A","42.41297","-123.36476","PRIVATE","OR","33","41033","Josephine County"
"-123.393975999","42.352224799","1145055","1396690","ODF-10413","NONFED","ST-ORORS","ST/C&L","USOR712S","Grants Pass Unit","ORODF-712","Grants Pass Unit","A70","10413","","P P B-11723","","","","","","1995","1995/08/27 00:00:00+00","239","","Human","Power generation/transmission/distribution","","1995/08/27 00:00:00+00","239","","0.01","A","42.35223","-123.39399","PRIVATE","OR","33","41033","Josephine County"
"-123.334946007","42.355964794","1145056","1396691","ODF-10414","NONFED","ST-ORORS","ST/C&L","USOR712S","Grants Pass Unit","ORODF-712","Grants Pass Unit","A71","10414","","PP B-3278","","","","","","1995","1995/08/29 00:00:00+00","241","","Human","Power generation/transmission/distribution","","1995/08/29 00:00:00+00","241","","0.1","A","42.35597","-123.33496","PRIVATE","OR","33","41033","Josephine County"
"-123.261806034","42.260204793","1145057","1396692","ODF-10415","NONFED","ST-ORORS","ST/C&L","USOR712S","Grants Pass Unit","ORODF-712","Grants Pass Unit","A72","10415","","POWER POLE C813","","","","","","1995","1995/08/31 00:00:00+00","243","","Human","Power generation/transmission/distribution","","1995/08/31 00:00:00+00","243","","0.01","A","42.26021","-123.26182","PRIVATE","OR","33","41033","Josephine County"
"-123.168735992","42.598584763","1145058","1396693","ODF-10416","NONFED","ST-ORORS","ST/C&L","USOR712S","Grants Pass Unit","ORODF-712","Grants Pass Unit","A73","10416","","PLEASANT CREEK","","","","","","1995","1995/09/02 00:00:00+00","245","","Human","Other causes","","1995/09/02 00:00:00+00","245","","0.01","A","42.59859","-123.16875","PRIVATE","OR","29","41029","Jackson County"
"-123.379256002","42.352204798","1145059","1396694","ODF-10417","NONFED","ST-ORORS","ST/C&L","USOR712S","Grants Pass Unit","ORODF-712","Grants Pass Unit","A74","10417","","HEMRICH DRIVE","","","","","","1995","1995/09/03 00:00:00+00","246","","Human","Debris and open burning","","1995/09/03 00:00:00+00","246","","0.1","A","42.35221","-123.37927","PRIVATE","OR","33","41033","Josephine County"
"-123.413405965","42.540434789","1145060","1396695","ODF-10418","NONFED","ST-ORORS","ST/C&L","USOR712S","Grants Pass Unit","ORODF-712","Grants Pass Unit","A75","10418","","SUGARPINE DRIVE","","","","","","1995","1995/09/07 00:00:00+00","250","","Human","Other causes","","1995/09/07 00:00:00+00","250","","0.01","A","42.54044","-123.41342","PRIVATE","OR","33","41033","Josephine County"
"-123.654035993","42.160294835","1145061","1396696","ODF-10419","NONFED","ST-ORORS","ST/C&L","USOR712S","Grants Pass Unit","ORODF-712","Grants Pass Unit","A76","10419","","FORKS PARK #2","","","","","","1995","1995/09/09 00:00:00+00","252","","Human","Smoking","","1995/09/09 00:00:00+00","252","","0.1","A","42.1603","-123.65405","STATE","OR","33","41033","Josephine County"
"-123.251655996","42.496984777","1145062","1396697","ODF-10420","NONFED","ST-ORORS","ST/C&L","USOR712S","Grants Pass Unit","ORODF-712","Grants Pass Unit","A77","10420","","CALIFORNIA STREET","","","","","","1995","1995/09/12 00:00:00+00","255","","Human","Equipment and vehicle use","","1995/09/12 00:00:00+00","255","","0.01","A","42.49699","-123.25167","COUNTY","OR","33","41033","Josephine County"
"-123.364486","42.373584795","1145063","1396698","ODF-10421","NONFED","ST-ORORS","ST/C&L","USOR712S","Grants Pass Unit","ORODF-712","Grants Pass Unit","A78","10421","","NEW HOPE ROAD","","","","","","1995","1995/09/15 00:00:00+00","258","","Human","Other causes","","1995/09/15 00:00:00+00","258","","0.1","A","42.37359","-123.3645","PRIVATE","OR","33","41033","Josephine County"
"-123.178006001","42.536734767","1145064","1396699","ODF-10422","NONFED","ST-ORORS","ST/C&L","USOR712S","Grants Pass Unit","ORODF-712","Grants Pass Unit","A79","10422","","QUEENS BRANCH ROAD","","","","","","1995","1995/09/17 00:00:00+00","260","","Human","Equipment and vehicle use","","1995/09/17 00:00:00+00","260","","0.01","A","42.53674","-123.17802","PRIVATE","OR","29","41029","Jackson County"
"-123.373685965","42.573484783","1145065","1396700","ODF-10423","NONFED","ST-ORORS","ST/C&L","USOR712S","Grants Pass Unit","ORODF-712","Grants Pass Unit","A80","10423","","I-5 MP 66","","","","","","1995","1995/09/18 00:00:00+00","261","","Human","Smoking","","1995/09/18 00:00:00+00","261","","0.01","A","42.57349","-123.3737","STATE","OR","33","41033","Josephine County"
"-123.722536002","42.044004849","1145066","1396701","ODF-10424","NONFED","ST-ORORS","ST/C&L","USOR712S","Grants Pass Unit","ORODF-712","Grants Pass Unit","A81","10424","","ARROWHEAD DRIVE","","","","","","1995","1995/09/26 00:00:00+00","269","","Human","Equipment and vehicle use","","1995/09/26 00:00:00+00","269","","0.01","A","42.04401","-123.72255","PRIVATE","OR","33","41033","Josephine County"
"-123.546465954","42.489804804","1145067","1396702","ODF-10425","NONFED","ST-ORORS","ST/C&L","USOR712S","Grants Pass Unit","ORODF-712","Grants Pass Unit","A82","10425","","WEST PICKETT #2","","","","","","1995","1995/10/03 00:00:00+00","276","","Human","Arson/incendiarism","","1995/10/03 00:00:00+00","276","","0.1","A","42.48981","-123.54648","COUNTY","OR","33","41033","Josephine County"
"-123.741755998","42.04727485","1145068","1396703","ODF-10426","NONFED","ST-ORORS","ST/C&L","USOR712S","Grants Pass Unit","ORODF-712","Grants Pass Unit","A83","10426","","LONE MOUNTAIN","","","","","","1995","1995/10/05 00:00:00+00","278","","Human","Recreation and ceremony","","1995/10/05 00:00:00+00","278","","0.3","B","42.04728","-123.74177","PRIVATE","OR","33","41033","Josephine County"
"-123.291396038","42.209304799","1145069","1396704","ODF-10427","NONFED","ST-ORORS","ST/C&L","USOR712S","Grants Pass Unit","ORODF-712","Grants Pass Unit","A84","10427","","CEDAR FLAT","","","","","","1995","1995/10/06 00:00:00+00","279","","Human","Misuse of fire by a minor","Minor","1995/10/06 00:00:00+00","279","","0.1","A","42.20931","-123.29141","PRIVATE","OR","33","41033","Josephine County"
"-123.374135979","42.493104788","1145070","1396705","ODF-10428","NONFED","ST-ORORS","ST/C&L","USOR712S","Grants Pass Unit","ORODF-712","Grants Pass Unit","A85","10428","","CAMP JOY ROAD","","","","","","1995","1995/10/06 00:00:00+00","279","","Human","Smoking","","1995/10/06 00:00:00+00","279","","0.01","A","42.49311","-123.37415","COUNTY","OR","33","41033","Josephine County"
"-122.37092563","45.206244522","1145071","1396706","ODF-70955","NONFED","ST-ORORS","ST/C&L","USOR581S","Molalla Unit","ORODF-581","Molalla Unit","055","70955","","UPHILL FIRE","","","","","","2004","2004/08/22 00:00:00+00","235","","Human","Debris and open burning","","2004/08/22 00:00:00+00","235","","0.03","A","45.20625","-122.37094","PRIVATE","OR","5","41005","Clackamas County"
"-122.391525634","45.170244527","1145072","1396707","ODF-71087","NONFED","ST-ORORS","ST/C&L","USOR581S","Molalla Unit","ORODF-581","Molalla Unit","061","71087","","SCHEIFFER ROAD FIRE","","","","","","2004","2004/08/30 00:00:00+00","243","","Human","Debris and open burning","","2004/08/30 00:00:00+00","243","","0.01","A","45.17025","-122.39154","PRIVATE","OR","5","41005","Clackamas County"
"-122.494945616","45.181454536","1145073","1396708","ODF-71208","NONFED","ST-ORORS","ST/C&L","USOR581S","Molalla Unit","ORODF-581","Molalla Unit","067","71208","","BEAVERCREEK BURN","","","","","","2004","2004/09/08 00:00:00+00","252","","Human","Debris and open burning","","2004/09/08 00:00:00+00","252","","0.1","A","45.18146","-122.49496","PRIVATE","OR","5","41005","Clackamas County"
"-122.540825603","45.20685454","1145074","1396709","ODF-71272","NONFED","ST-ORORS","ST/C&L","USOR581S","Molalla Unit","ORODF-581","Molalla Unit","069","71272","","BOULDER DRIVE FIRE","","","","","","2004","2004/09/12 00:00:00+00","256","","Human","Power generation/transmission/distribution","","2004/09/12 00:00:00+00","256","","0.1","A","45.20686","-122.54084","PRIVATE","OR","5","41005","Clackamas County"
"-123.379375859","43.186934745","1145075","1396710","ODF-69721","NONFED","ST-ORORS","ST/C&L","USOR730S","Douglas Forest Protective Association","ORODF-732","Douglas South","214","69721","","MCCLAIN AVE. # 2","","","","","","2004","2004/07/07 00:00:00+00","189","","Human","Recreation and ceremony","","2004/07/07 00:00:00+00","189","","0.75","B","43.18694","-123.37939","COUNTY","OR","10","41019","Douglas County"
"-123.215075871","43.255774725","1145076","1396711","ODF-70234","NONFED","ST-ORORS","ST/C&L","USOR730S","Douglas Forest Protective Association","ORODF-732","Douglas South","250","70234","","N. UMPQUA HWY","","","","","","2004","2004/07/26 00:00:00+00","208","","Human","Equipment and vehicle use","","2004/07/26 00:00:00+00","208","","0.01","A","43.25578","-123.21509","PRIVATE","OR","10","41019","Douglas County"
"-123.885485705","43.626324766","1145077","1396712","ODF-73789","NONFED","ST-ORORS","ST/C&L","USOR721S","Coos Forest Protective Association","ORODF-721","Coos Bay","042","73789","","LUCHSINGER CR #2","","","","","","2005","2005/10/16 00:00:00+00","289","","Human","Debris and open burning","","2005/10/17 00:00:00+00","290","","0.01","A","43.62633","-123.8855","PRIVATE","OR","10","41019","Douglas County"
"-122.772655668","44.705324593","1145078","1396713","ODF-72750","NONFED","ST-ORORS","ST/C&L","USOR582S","Santiam Unit","ORODF-582","Santiam Unit","205","72750","","BROKEDOWN","","","","","","2005","2005/08/19 00:00:00+00","231","","Human","Equipment and vehicle use","","2005/08/19 00:00:00+00","231","","0.25","A","44.70533","-122.77267","PRIVATE","OR","22","41043","Linn County"
"-123.635486005","42.099994837","1145079","1396714","ODF-73708","NONFED","ST-ORORS","ST/C&L","USOR712S","Grants Pass Unit","ORODF-712","Grants Pass Unit","290","73708","","SHERIER ROAD","","","","","","2005","2005/10/11 00:00:00+00","284","","Human","Arson/incendiarism","","2005/10/11 00:00:00+00","284","","0.01","A","42.1","-123.6355","BLM","OR","33","41033","Josephine County"
"-121.516095947","44.276384496","1145080","1396715","ODF-85164","NONFED","ST-ORORS","ST/C&L","USOR955S","Sisters Unit","ORODF-955","Sisters Unit","033","85164","","JORDAN ROAD","","","","","","2009","2009/08/26 00:00:00+00","238","","Human","Missing data/not specified/undetermined","","2009/08/26 00:00:00+00","238","","0.05","A","44.27639","-121.51611","PRIVATE","OR","17","41017","Deschutes County"
"-117.83859638","45.276664065","1145081","1396716","ODF-84243","NONFED","ST-ORORS","ST/C&L","USOR971S","LaGrande District","ORODF-971","LaGrande District","035","84243","","PHYS POINT","","","","","","2009","2009/06/29 00:00:00+00","180","","Human","Missing data/not specified/undetermined","","2009/06/29 00:00:00+00","180","","220","D","45.27667","-117.83861","PRIVATE","OR","61","41061","Union County"
"-123.457435965","42.500244795","1145082","1396717","ODF-7011","NONFED","ST-ORORS","ST/C&L","USOR712S","Grants Pass Unit","ORODF-712","Grants Pass Unit","B50","7011","","ROBERTSON BRIDGE III","","","","","","1994","1994/07/04 00:00:00+00","185","","Human","Fireworks","","1994/07/04 00:00:00+00","185","","0.01","A","42.50025","-123.45745","COUNTY","OR","33","41033","Josephine County"
"-123.330475989","42.471554786","1145083","1396718","ODF-7012","NONFED","ST-ORORS","ST/C&L","USOR712S","Grants Pass Unit","ORODF-712","Grants Pass Unit","B51","7012","","SCOVILLE ROAD","","","","","","1994","1994/07/04 00:00:00+00","185","","Human","Missing data/not specified/undetermined","","1994/07/04 00:00:00+00","185","","0.75","B","42.47156","-123.33049","PRIVATE","OR","33","41033","Josephine County"
"-123.295706015","42.344864791","1145084","1396719","ODF-7013","NONFED","ST-ORORS","ST/C&L","USOR712S","Grants Pass Unit","ORODF-712","Grants Pass Unit","B52","7013","","BOARD SHANTY RD.","","","","","","1994","1994/07/04 00:00:00+00","185","","Human","Smoking","","1994/07/04 00:00:00+00","185","","0.01","A","42.34487","-123.29572","PRIVATE","OR","33","41033","Josephine County"
"-123.285896002","42.431434784","1145085","1396720","ODF-7015","NONFED","ST-ORORS","ST/C&L","USOR712S","Grants Pass Unit","ORODF-712","Grants Pass Unit","B54","7015","","TOM PEARCE ROAD","","","","","","1994","1994/07/05 00:00:00+00","186","","Human","Fireworks","","1994/07/05 00:00:00+00","186","","0.01","A","42.43144","-123.28591","COUNTY","OR","33","41033","Josephine County"
"-123.207406016","42.416904778","1145086","1396721","ODF-7016","NONFED","ST-ORORS","ST/C&L","USOR712S","Grants Pass Unit","ORODF-712","Grants Pass Unit","B55","7016","","ROGUE RIVER HWY.","","","","","","1994","1994/07/05 00:00:00+00","186","","Human","Smoking","","1994/07/05 00:00:00+00","186","","0.01","A","42.41691","-123.20742","COUNTY","OR","29","41029","Jackson County"
"-123.452665963","42.514954794","1145087","1396722","ODF-7017","NONFED","ST-ORORS","ST/C&L","USOR712S","Grants Pass Unit","ORODF-712","Grants Pass Unit","B56","7017","","ABEGG RD.","","","","","","1994","1994/07/04 00:00:00+00","185","","Human","Fireworks","","1994/07/04 00:00:00+00","185","","0.01","A","42.51496","-123.45268","COUNTY","OR","33","41033","Josephine County"
"-123.522355948","42.547314798","1145088","1396723","ODF-7018","NONFED","ST-ORORS","ST/C&L","USOR712S","Grants Pass Unit","ORODF-712","Grants Pass Unit","B57","7018","","HELLGATE # I","","","","","","1994","1994/07/05 00:00:00+00","186","","Human","Fireworks","","1994/07/05 00:00:00+00","186","","0.01","A","42.54732","-123.52237","BLM","OR","33","41033","Josephine County"
"-123.353955984","42.478744787","1145089","1396724","ODF-7019","NONFED","ST-ORORS","ST/C&L","USOR712S","Grants Pass Unit","ORODF-712","Grants Pass Unit","B58","7019","","HIGHLAND AVE.","","","","","","1994","1994/07/05 00:00:00+00","186","","Human","Fireworks","","1994/07/05 00:00:00+00","186","","0.01","A","42.47875","-123.35397","COUNTY","OR","33","41033","Josephine County"
"-123.300676003","42.413394787","1145090","1396725","ODF-7020","NONFED","ST-ORORS","ST/C&L","USOR712S","Grants Pass Unit","ORODF-712","Grants Pass Unit","B59","7020","","HAMILTON LANE","","","","","","1994","1994/07/06 00:00:00+00","187","","Human","Fireworks","Minor","1994/07/06 00:00:00+00","187","","0.01","A","42.4134","-123.30069","COUNTY","OR","33","41033","Josephine County"
"-123.364036004","42.348574797","1145091","1396726","ODF-7021","NONFED","ST-ORORS","ST/C&L","USOR712S","Grants Pass Unit","ORODF-712","Grants Pass Unit","B60","7021","","NEWHOPE ROAD","","","","","","1994","1994/07/06 00:00:00+00","187","","Human","Fireworks","Minor","1994/07/06 00:00:00+00","187","","0.01","A","42.34858","-123.36405","PRIVATE","OR","33","41033","Josephine County"
"-123.692925994","42.116084842","1145092","1396727","ODF-7022","NONFED","ST-ORORS","ST/C&L","USOR712S","Grants Pass Unit","ORODF-712","Grants Pass Unit","B61","7022","","ROUGH AND READY","","","","","","1994","1994/07/07 00:00:00+00","188","","Human","Smoking","","1994/07/07 00:00:00+00","188","","0.1","A","42.11609","-123.69294","PRIVATE","OR","33","41033","Josephine County"
"-123.438225985","42.3985348","1145093","1396728","ODF-7023","NONFED","ST-ORORS","ST/C&L","USOR712S","Grants Pass Unit","ORODF-712","Grants Pass Unit","B62","7023","","HELMS ROAD","","","","","","1994","1994/07/08 00:00:00+00","189","","Human","Equipment and vehicle use","","1994/07/08 00:00:00+00","189","","0.25","A","42.39854","-123.43824","PRIVATE","OR","33","41033","Josephine County"
"-123.413575995","42.359314801","1145094","1396729","ODF-7024","NONFED","ST-ORORS","ST/C&L","USOR712S","Grants Pass Unit","ORODF-712","Grants Pass Unit","B63","7024","","TRILLER LANE","","","","","","1994","1994/07/08 00:00:00+00","189","","Human","Misuse of fire by a minor","Minor","1994/07/08 00:00:00+00","189","","0.01","A","42.35932","-123.41359","COUNTY","OR","33","41033","Josephine County"
"-123.13856603","42.395144773","1145095","1396730","ODF-7025","NONFED","ST-ORORS","ST/C&L","USOR712S","Grants Pass Unit","ORODF-712","Grants Pass Unit","B64","7025","","FOOTS CREEK","","","","","","1994","1994/07/08 00:00:00+00","189","","Human","Other causes","","1994/07/08 00:00:00+00","189","","0.01","A","42.39515","-123.13858","PRIVATE","OR","29","41029","Jackson County"
"-123.63958598","42.251024828","1145096","1396731","ODF-7026","NONFED","ST-ORORS","ST/C&L","USOR712S","Grants Pass Unit","ORODF-712","Grants Pass Unit","B65","7026","","GOLD CANYON","","","","","","1994","1994/07/08 00:00:00+00","189","","Human","Missing data/not specified/undetermined","","1994/07/08 00:00:00+00","189","","0.01","A","42.25103","-123.6396","PRIVATE","OR","33","41033","Josephine County"
"-123.261496007","42.424474782","1145097","1396732","ODF-7027","NONFED","ST-ORORS","ST/C&L","USOR712S","Grants Pass Unit","ORODF-712","Grants Pass Unit","B66","7027","","POWER POLE B544","","","","","","1994","1994/07/09 00:00:00+00","190","","Human","Power generation/transmission/distribution","","1994/07/09 00:00:00+00","190","","0.01","A","42.42448","-123.26151","PRIVATE","OR","33","41033","Josephine County"
"-123.285926","42.445934783","1145098","1396733","ODF-7028","NONFED","ST-ORORS","ST/C&L","USOR712S","Grants Pass Unit","ORODF-712","Grants Pass Unit","B67","7028","","I-5, MP 56","","","","","","1994","1994/07/10 00:00:00+00","191","","Human","Equipment and vehicle use","","1994/07/10 00:00:00+00","191","","10","C","42.44594","-123.28594","STATE","OR","33","41033","Josephine County"
"-123.462065958","42.536474794","1145099","1396734","ODF-7029","NONFED","ST-ORORS","ST/C&L","USOR712S","Grants Pass Unit","ORODF-712","Grants Pass Unit","B68","7029","","CROW ROAD","","","","","","1994","1994/07/11 00:00:00+00","192","","Human","Misuse of fire by a minor","Minor","1994/07/11 00:00:00+00","192","","0.5","B","42.53648","-123.46208","PRIVATE","OR","33","41033","Josephine County"
"-123.358845983","42.478624788","1145100","1396735","ODF-7030","NONFED","ST-ORORS","ST/C&L","USOR712S","Grants Pass Unit","ORODF-712","Grants Pass Unit","B69","7030","","PONY LANE","","","","","","1994","1994/07/12 00:00:00+00","193","","Human","Smoking","","1994/07/12 00:00:00+00","193","","0.01","A","42.47863","-123.35886","PRIVATE","OR","33","41033","Josephine County"
"-123.339766009","42.341144795","1145101","1396736","ODF-7031","NONFED","ST-ORORS","ST/C&L","USOR712S","Grants Pass Unit","ORODF-712","Grants Pass Unit","B70","7031","","SOUTH SIDE ROAD","","","","","","1994","1994/07/12 00:00:00+00","193","","Human","Smoking","","1994/07/12 00:00:00+00","193","","0.01","A","42.34115","-123.33978","PRIVATE","OR","33","41033","Josephine County"
"-123.452545966","42.500374795","1145102","1396737","ODF-7032","NONFED","ST-ORORS","ST/C&L","USOR712S","Grants Pass Unit","ORODF-712","Grants Pass Unit","B71","7032","","ROBERTSON BRIDGE #4","","","","","","1994","1994/07/14 00:00:00+00","195","","Human","Smoking","Minor","1994/07/14 00:00:00+00","195","","0.01","A","42.50038","-123.45256","PRIVATE","OR","33","41033","Josephine County"
"-123.222105989","42.569584769","1145103","1396738","ODF-7033","NONFED","ST-ORORS","ST/C&L","USOR712S","Grants Pass Unit","ORODF-712","Grants Pass Unit","B72","7033","","W. EVANS CREEK ROAD","","","","","","1994","1994/07/17 00:00:00+00","198","","Human","Smoking","","1994/07/17 00:00:00+00","198","","0.01","A","42.56959","-123.22212","PRIVATE","OR","29","41029","Jackson County"
"-123.32574599","42.467574785","1145104","1396739","ODF-7034","NONFED","ST-ORORS","ST/C&L","USOR712S","Grants Pass Unit","ORODF-712","Grants Pass Unit","B73","7034","","B STREET","","","","","","1994","1994/07/18 00:00:00+00","199","","Human","Fireworks","Minor","1994/07/18 00:00:00+00","199","","0.1","A","42.46758","-123.32576","MUNICIPAL/LOCAL","OR","33","41033","Josephine County"
"-123.610706015","42.065474837","1145105","1396740","ODF-7035","NONFED","ST-ORORS","ST/C&L","USOR712S","Grants Pass Unit","ORODF-712","Grants Pass Unit","B74","7035","","PP D6353","","","","","","1994","1994/07/19 00:00:00+00","200","","Human","Equipment and vehicle use","","1994/07/19 00:00:00+00","200","","0.01","A","42.06548","-123.61072","PRIVATE","OR","33","41033","Josephine County"
"-123.128906026","42.42773477","1145106","1396741","ODF-7036","NONFED","ST-ORORS","ST/C&L","USOR712S","Grants Pass Unit","ORODF-712","Grants Pass Unit","B75","7036","","N RIVER ROAD #2","","","","","","1994","1994/07/16 00:00:00+00","197","","Human","Equipment and vehicle use","","1994/07/16 00:00:00+00","197","","0.01","A","42.42774","-123.12892","COUNTY","OR","29","41029","Jackson County"
"-123.314586014","42.334104793","1145107","1396742","ODF-7037","NONFED","ST-ORORS","ST/C&L","USOR712S","Grants Pass Unit","ORODF-712","Grants Pass Unit","B76","7037","","WILLIAMS HIGHWAY","","","","","","1994","1994/07/19 00:00:00+00","200","","Human","Equipment and vehicle use","","1994/07/19 00:00:00+00","200","","0.01","A","42.33411","-123.3146","STATE","OR","33","41033","Josephine County"
"-123.364145997","42.391404794","1145108","1396744","ODF-7039","NONFED","ST-ORORS","ST/C&L","USOR712S","Grants Pass Unit","ORODF-712","Grants Pass Unit","B78","7039","","LONNON ROAD","","","","","","1994","1994/07/19 00:00:00+00","200","","Human","Misuse of fire by a minor","Minor","1994/07/19 00:00:00+00","200","","0.25","A","42.39141","-123.36416","PRIVATE","OR","33","41033","Josephine County"
"-123.266296029","42.289634792","1145109","1396745","ODF-7040","NONFED","ST-ORORS","ST/C&L","USOR712S","Grants Pass Unit","ORODF-712","Grants Pass Unit","B79","7040","","WATER GAP ROAD","","","","","","1994","1994/07/21 00:00:00+00","202","","Human","Other causes","","1994/07/21 00:00:00+00","202","","0.01","A","42.28964","-123.26631","PRIVATE","OR","33","41033","Josephine County"
"-123.281415971","42.620154772","1145110","1396747","ODF-7042","NONFED","ST-ORORS","ST/C&L","USOR712S","Grants Pass Unit","ORODF-712","Grants Pass Unit","B81","7042","","MCCOY CREEK","","","","","","1994","1994/07/21 00:00:00+00","202","","Natural","Natural","","1994/07/23 00:00:00+00","204","","0.75","B","42.62016","-123.28143","BLM","OR","33","41033","Josephine County"
"-123.75641591","42.566174819","1145111","1396749","ODF-7044","NONFED","ST-ORORS","ST/C&L","USOR712S","Grants Pass Unit","ORODF-712","Grants Pass Unit","B83","7044","","SOUR GRASS CREEK","","","","","","1994","1994/07/21 00:00:00+00","202","","Natural","Natural","","1994/07/22 00:00:00+00","203","","0.25","A","42.56618","-123.75643","BLM","OR","33","41033","Josephine County"
"-123.242005995","42.514254775","1145112","1396753","ODF-7048","NONFED","ST-ORORS","ST/C&L","USOR712S","Grants Pass Unit","ORODF-712","Grants Pass Unit","B87","7048","","WARDS CREEK","","","","","","1994","1994/07/22 00:00:00+00","203","","Natural","Natural","","1994/07/25 00:00:00+00","206","","6","B","42.51426","-123.24202","PRIVATE","OR","29","41029","Jackson County"
"-123.301105969","42.617064774","1145113","1396755","ODF-7050","NONFED","ST-ORORS","ST/C&L","USOR712S","Grants Pass Unit","ORODF-712","Grants Pass Unit","B89","7050","","CARRIE STREET","","","","","","1994","1994/07/22 00:00:00+00","203","","Natural","Natural","","1994/07/25 00:00:00+00","206","","0.1","A","42.61707","-123.30112","PRIVATE","OR","33","41033","Josephine County"
"-123.624975982","42.251444827","1145114","1396756","ODF-7051","NONFED","ST-ORORS","ST/C&L","USOR712S","Grants Pass Unit","ORODF-712","Grants Pass Unit","B90","7051","","WILD PARK LANE","","","","","","1994","1994/07/30 00:00:00+00","211","","Human","Other causes","","1994/07/30 00:00:00+00","211","","0.01","A","42.25145","-123.62499","PRIVATE","OR","33","41033","Josephine County"
"-123.634556015","42.039734841","1145115","1396757","ODF-7052","NONFED","ST-ORORS","ST/C&L","USOR712S","Grants Pass Unit","ORODF-712","Grants Pass Unit","B91","7052","","TAKILMA ROAD","","","","","","1994","1994/07/22 00:00:00+00","203","","Human","Misuse of fire by a minor","Minor","1994/07/22 00:00:00+00","203","","0.01","A","42.03974","-123.63457","PRIVATE","OR","33","41033","Josephine County"
"-123.256936006","42.431834781","1145116","1396758","ODF-7053","NONFED","ST-ORORS","ST/C&L","USOR712S","Grants Pass Unit","ORODF-712","Grants Pass Unit","B92","7053","","DEARING LANE","","","","","","1994","1994/07/21 00:00:00+00","202","","Human","Debris and open burning","","1994/07/21 00:00:00+00","202","","0.01","A","42.43184","-123.25695","PRIVATE","OR","33","41033","Josephine County"
"-123.755266002","42.010694854","1145117","1396759","ODF-7054","NONFED","ST-ORORS","ST/C&L","USOR712S","Grants Pass Unit","ORODF-712","Grants Pass Unit","B93","7054","","WESTFORK","","","","","","1994","1994/07/23 00:00:00+00","204","","Natural","Natural","","1994/07/24 00:00:00+00","205","","3","B","42.0107","-123.75528","BLM","OR","33","41033","Josephine County"
"-123.649305996","42.145714836","1145118","1396760","ODF-7056","NONFED","ST-ORORS","ST/C&L","USOR712S","Grants Pass Unit","ORODF-712","Grants Pass Unit","B95","7056","","PINEWOOD WAY","","","","","","1994","1994/07/26 00:00:00+00","207","","Human","Misuse of fire by a minor","Minor","1994/07/26 00:00:00+00","207","","0.01","A","42.14572","-123.64932","PRIVATE","OR","33","41033","Josephine County"
"-123.270946003","42.439064782","1145119","1396761","ODF-7057","NONFED","ST-ORORS","ST/C&L","USOR712S","Grants Pass Unit","ORODF-712","Grants Pass Unit","B96","7057","","FOOTHILL BLVD #2","","","","","","1994","1994/07/26 00:00:00+00","207","","Human","Other causes","","1994/07/26 00:00:00+00","207","","0.01","A","42.43907","-123.27096","PRIVATE","OR","33","41033","Josephine County"
"-123.664125995","42.134764838","1145120","1396762","ODF-7058","NONFED","ST-ORORS","ST/C&L","USOR712S","Grants Pass Unit","ORODF-712","Grants Pass Unit","B97","7058","","REDWOOD HIGHWAY","","","","","","1994","1994/07/27 00:00:00+00","208","","Human","Other causes","","1994/07/27 00:00:00+00","208","","0.1","A","42.13477","-123.66414","PRIVATE","OR","33","41033","Josephine County"
"-123.472825936","42.657204787","1145121","1396763","ODF-7059","NONFED","ST-ORORS","ST/C&L","USOR712S","Grants Pass Unit","ORODF-712","Grants Pass Unit","B98","7059","","LOWER WOLF CREEK ROAD","","","","","","1994","1994/07/25 00:00:00+00","206","","Human","Smoking","","1994/07/25 00:00:00+00","206","","0.01","A","42.65721","-123.47284","COUNTY","OR","33","41033","Josephine County"
"-123.639615911","42.660804802","1145122","1396764","ODF-7060","NONFED","ST-ORORS","ST/C&L","USOR712S","Grants Pass Unit","ORODF-712","Grants Pass Unit","B99","7060","","WHISKY CREEK","","","","","","1994","1994/08/01 00:00:00+00","213","","Human","Recreation and ceremony","","1994/08/01 00:00:00+00","213","","0.01","A","42.66081","-123.63963","BLM","OR","33","41033","Josephine County"
"-123.168835996","42.569574764","1145123","1396765","ODF-7061","NONFED","ST-ORORS","ST/C&L","USOR712S","Grants Pass Unit","ORODF-712","Grants Pass Unit","C01","7061","","FORD ROAD","","","","","","1994","1994/08/02 00:00:00+00","214","","Human","Debris and open burning","","1994/08/02 00:00:00+00","214","","0.01","A","42.56958","-123.16885","PRIVATE","OR","29","41029","Jackson County"
"-123.291095998","42.453554783","1145124","1396766","ODF-7062","NONFED","ST-ORORS","ST/C&L","USOR712S","Grants Pass Unit","ORODF-712","Grants Pass Unit","C02","7062","","W JONES CREEK #2","","","","","","1994","1994/08/02 00:00:00+00","214","","Human","Misuse of fire by a minor","Minor","1994/08/02 00:00:00+00","214","","0.1","A","42.45356","-123.29111","PRIVATE","OR","33","41033","Josephine County"
"-123.383135965","42.565994784","1145125","1396767","ODF-7063","NONFED","ST-ORORS","ST/C&L","USOR712S","Grants Pass Unit","ORODF-712","Grants Pass Unit","C03","7063","","OXYOKE ROAD # 2","","","","","","1994","1994/08/02 00:00:00+00","214","","Human","Misuse of fire by a minor","Minor","1994/08/02 00:00:00+00","214","","0.01","A","42.566","-123.38315","PRIVATE","OR","33","41033","Josephine County"
"-123.290716","42.438994784","1145126","1396768","ODF-7064","NONFED","ST-ORORS","ST/C&L","USOR712S","Grants Pass Unit","ORODF-712","Grants Pass Unit","C04","7064","","I 5 MP 56 #2","","","","","","1994","1994/08/03 00:00:00+00","215","","Human","Smoking","","1994/08/03 00:00:00+00","215","","0.25","A","42.439","-123.29073","STATE","OR","33","41033","Josephine County"
"-123.173306003","42.525944768","1145127","1396769","ODF-7065","NONFED","ST-ORORS","ST/C&L","USOR712S","Grants Pass Unit","ORODF-712","Grants Pass Unit","C05","7065","","PINEGROVE ROAD","","","","","","1994","1994/08/03 00:00:00+00","215","","Human","Misuse of fire by a minor","Minor","1994/08/03 00:00:00+00","215","","0.01","A","42.52595","-123.17332","COUNTY","OR","33","41033","Josephine County"
"-123.265926008","42.413714783","1145128","1396770","ODF-7066","NONFED","ST-ORORS","ST/C&L","USOR712S","Grants Pass Unit","ORODF-712","Grants Pass Unit","C06","7066","","GREENS CREEK ROAD","","","","","","1994","1994/08/03 00:00:00+00","215","","Human","Misuse of fire by a minor","Minor","1994/08/03 00:00:00+00","215","","0.01","A","42.41372","-123.26594","PRIVATE","OR","29","41029","Jackson County"
"-123.261906027","42.30061479","1145129","1396771","ODF-7067","NONFED","ST-ORORS","ST/C&L","USOR712S","Grants Pass Unit","ORODF-712","Grants Pass Unit","C07","7067","","WATERGAP #2","","","","","","1994","1994/08/04 00:00:00+00","216","","Human","Equipment and vehicle use","","1994/08/04 00:00:00+00","216","","7","B","42.30062","-123.26192","PRIVATE","OR","33","41033","Josephine County"
"-123.575916011","42.120124831","1145130","1396772","ODF-7068","NONFED","ST-ORORS","ST/C&L","USOR712S","Grants Pass Unit","ORODF-712","Grants Pass Unit","C08","7068","","DICK GEORGE ROAD","","","","","","1994","1994/08/07 00:00:00+00","219","","Human","Equipment and vehicle use","","1994/08/07 00:00:00+00","219","","0.01","A","42.12013","-123.57593","PRIVATE","OR","33","41033","Josephine County"
"-123.133996005","42.551554762","1145131","1396774","ODF-7070","NONFED","ST-ORORS","ST/C&L","USOR712S","Grants Pass Unit","ORODF-712","Grants Pass Unit","C10","7070","","E. EVANS CREEK ROAD # 2","","","","","","1994","1994/08/07 00:00:00+00","219","","Human","Misuse of fire by a minor","Minor","1994/08/07 00:00:00+00","219","","0.01","A","42.55156","-123.13401","PRIVATE","OR","29","41029","Jackson County"
"-123.358845983","42.478624788","1145132","1396775","ODF-7071","NONFED","ST-ORORS","ST/C&L","USOR712S","Grants Pass Unit","ORODF-712","Grants Pass Unit","C11","7071","","I-5 MP 61","","","","","","1994","1994/08/10 00:00:00+00","222","","Human","Equipment and vehicle use","","1994/08/10 00:00:00+00","222","","0.01","A","42.47863","-123.35886","STATE","OR","33","41033","Josephine County"
"-123.319946015","42.322834794","1145133","1396776","ODF-7072","NONFED","ST-ORORS","ST/C&L","USOR712S","Grants Pass Unit","ORODF-712","Grants Pass Unit","C12","7072","","GRAYS CREEK ROAD","","","","","","1994","1994/08/11 00:00:00+00","223","","Human","Other causes","","1994/08/11 00:00:00+00","223","","0.25","A","42.32284","-123.31996","PRIVATE","OR","33","41033","Josephine County"
"-123.678586004","42.072434843","1145134","1396777","ODF-7073","NONFED","ST-ORORS","ST/C&L","USOR712S","Grants Pass Unit","ORODF-712","Grants Pass Unit","C13","7073","","WALDO ROAD","","","","","","1994","1994/08/12 00:00:00+00","224","","Human","Equipment and vehicle use","","1994/08/12 00:00:00+00","224","","0.01","A","42.07244","-123.6786","COUNTY","OR","33","41033","Josephine County"
"-123.163076022","42.424284773","1145135","1396778","ODF-7074","NONFED","ST-ORORS","ST/C&L","USOR712S","Grants Pass Unit","ORODF-712","Grants Pass Unit","C14","7074","","I-5 MP 50","","","","","","1994","1994/08/16 00:00:00+00","228","","Human","Equipment and vehicle use","","1994/08/16 00:00:00+00","228","","0.01","A","42.42429","-123.16309","STATE","OR","29","41029","Jackson County"
"-123.629805996","42.160554833","1145136","1396779","ODF-7075","NONFED","ST-ORORS","ST/C&L","USOR712S","Grants Pass Unit","ORODF-712","Grants Pass Unit","C15","7075","","LAUREL ROAD","","","","","","1994","1994/08/16 00:00:00+00","228","","Human","Arson/incendiarism","","1994/08/16 00:00:00+00","228","","0.05","A","42.16056","-123.62982","PRIVATE","OR","33","41033","Josephine County"
"-123.403565958","42.591434785","1145137","1396780","ODF-7076","NONFED","ST-ORORS","ST/C&L","USOR712S","Grants Pass Unit","ORODF-712","Grants Pass Unit","C16","7076","","HITCHING POST ROAD","","","","","","1994","1994/08/17 00:00:00+00","229","","Human","Smoking","","1994/08/17 00:00:00+00","229","","0.25","A","42.59144","-123.40358","PRIVATE","OR","33","41033","Josephine County"
"-123.457545981","42.405774802","1145138","1396781","ODF-7077","NONFED","ST-ORORS","ST/C&L","USOR712S","Grants Pass Unit","ORODF-712","Grants Pass Unit","C17","7077","","RIVERBANKS RD. # 2","","","","","","1994","1994/08/18 00:00:00+00","230","","Human","Missing data/not specified/undetermined","","1994/08/18 00:00:00+00","230","","0.5","B","42.40578","-123.45756","PRIVATE","OR","33","41033","Josephine County"
"-123.163146024","42.413204774","1145139","1396782","ODF-7078","NONFED","ST-ORORS","ST/C&L","USOR712S","Grants Pass Unit","ORODF-712","Grants Pass Unit","C18","7078","","SCHIEFFELIN GULCH","","","","","","1994","1994/08/20 00:00:00+00","232","","Human","Other causes","","1994/08/20 00:00:00+00","232","","0.1","A","42.41321","-123.16316","PRIVATE","OR","29","41029","Jackson County"
"-123.266456028","42.293254791","1145140","1396783","ODF-7079","NONFED","ST-ORORS","ST/C&L","USOR712S","Grants Pass Unit","ORODF-712","Grants Pass Unit","C19","7079","","PENNINGTON CREEK ROAD","","","","","","1994","1994/08/21 00:00:00+00","233","","Human","Smoking","","1994/08/21 00:00:00+00","233","","0.01","A","42.29326","-123.26647","PRIVATE","OR","33","41033","Josephine County"
"-123.355215989","42.44605479","1145141","1396784","ODF-7080","NONFED","ST-ORORS","ST/C&L","USOR712S","Grants Pass Unit","ORODF-712","Grants Pass Unit","C20","7080","","RR MP 20","","","","","","1994","1994/08/22 00:00:00+00","234","","Human","Railroad operations and maintenance","","1994/08/22 00:00:00+00","234","","0.01","A","42.44606","-123.35523","PRIVATE","OR","33","41033","Josephine County"
"-123.374265976","42.511304787","1145142","1396785","ODF-7081","NONFED","ST-ORORS","ST/C&L","USOR712S","Grants Pass Unit","ORODF-712","Grants Pass Unit","C21","7081","","ACORN STREET","","","","","","1994","1994/08/25 00:00:00+00","237","","Human","Smoking","Minor","1994/08/25 00:00:00+00","237","","0.01","A","42.51131","-123.37428","PRIVATE","OR","33","41033","Josephine County"
"-123.129036028","42.416854771","1145143","1396786","ODF-7082","NONFED","ST-ORORS","ST/C&L","USOR712S","Grants Pass Unit","ORODF-712","Grants Pass Unit","C22","7082","","I-5 MP 45","","","","","","1994","1994/08/25 00:00:00+00","237","","Human","Smoking","","1994/08/28 00:00:00+00","240","","0.25","A","42.41686","-123.12905","STATE","OR","29","41029","Jackson County"
"-123.349816033","42.190604806","1145144","1396787","ODF-7083","NONFED","ST-ORORS","ST/C&L","USOR712S","Grants Pass Unit","ORODF-712","Grants Pass Unit","C23","7083","","CEDAR FLAT ROAD","","","","","","1994","1994/08/27 00:00:00+00","239","","Human","Arson/incendiarism","","1994/08/27 00:00:00+00","239","","0.01","A","42.19061","-123.34983","BLM","OR","33","41033","Josephine County"
"-123.639815998","42.138094835","1145145","1396789","ODF-7085","NONFED","ST-ORORS","ST/C&L","USOR712S","Grants Pass Unit","ORODF-712","Grants Pass Unit","C25","7085","","PINE CONE DRIVE","","","","","","1994","1994/08/27 00:00:00+00","239","","Human","Missing data/not specified/undetermined","","1994/08/27 00:00:00+00","239","","0.25","A","42.1381","-123.63983","PRIVATE","OR","33","41033","Josephine County"
"-123.315066001","42.409964788","1145146","1396790","ODF-7086","NONFED","ST-ORORS","ST/C&L","USOR712S","Grants Pass Unit","ORODF-712","Grants Pass Unit","C26","7086","","GLEN CREST WAY","","","","","","1994","1994/08/27 00:00:00+00","239","","Human","Misuse of fire by a minor","Minor","1994/08/27 00:00:00+00","239","","0.25","A","42.40997","-123.31508","PRIVATE","OR","33","41033","Josephine County"
"-123.153326043","42.30458478","1145147","1396791","ODF-7087","NONFED","ST-ORORS","ST/C&L","USOR712S","Grants Pass Unit","ORODF-712","Grants Pass Unit","C27","7087","","SLAGLE CREEK ROAD","","","","","","1994","1994/08/29 00:00:00+00","241","","Human","Recreation and ceremony","","1994/08/29 00:00:00+00","241","","0.25","A","42.30459","-123.15334","PRIVATE","OR","29","41029","Jackson County"
"-123.314896002","42.406344788","1145148","1396792","ODF-7088","NONFED","ST-ORORS","ST/C&L","USOR712S","Grants Pass Unit","ORODF-712","Grants Pass Unit","C28","7088","","GAFFNEY WAY","","","","","","1994","1994/09/01 00:00:00+00","244","","Human","Debris and open burning","","1994/09/01 00:00:00+00","244","","0.01","A","42.40635","-123.31491","PRIVATE","OR","33","41033","Josephine County"
"-123.144366052","42.256644783","1145149","1396793","ODF-7089","NONFED","ST-ORORS","ST/C&L","USOR712S","Grants Pass Unit","ORODF-712","Grants Pass Unit","C29","7089","","POWER POLE # 8-21","","","","","","1994","1994/09/02 00:00:00+00","245","","Human","Power generation/transmission/distribution","","1994/09/02 00:00:00+00","245","","0.01","A","42.25665","-123.14438","PRIVATE","OR","29","41029","Jackson County"
"-123.678475999","42.101494841","1145150","1396794","ODF-7090","NONFED","ST-ORORS","ST/C&L","USOR712S","Grants Pass Unit","ORODF-712","Grants Pass Unit","C30","7090","","REDWOOD HWY. MP 33","","","","","","1994","1994/09/07 00:00:00+00","250","","Human","Smoking","","1994/09/07 00:00:00+00","250","","0.01","A","42.1015","-123.67849","PRIVATE","OR","33","41033","Josephine County"
"-123.138876029","42.402384773","1145151","1396795","ODF-7091","NONFED","ST-ORORS","ST/C&L","USOR712S","Grants Pass Unit","ORODF-712","Grants Pass Unit","C31","7091","","POWER POLE #R5436","","","","","","1994","1994/09/07 00:00:00+00","250","","Human","Power generation/transmission/distribution","","1994/09/07 00:00:00+00","250","","0.01","A","42.40239","-123.13889","PRIVATE","OR","29","41029","Jackson County"
"-123.168595989","42.613134762","1145152","1396796","ODF-7092","NONFED","ST-ORORS","ST/C&L","USOR712S","Grants Pass Unit","ORODF-712","Grants Pass Unit","C32","7092","","PINE GROVE ROAD #2","","","","","","1994","1994/09/09 00:00:00+00","252","","Human","Smoking","Minor","1994/09/09 00:00:00+00","252","","0.01","A","42.61314","-123.16861","PRIVATE","OR","29","41029","Jackson County"
"-123.271726028","42.285874792","1145153","1396797","ODF-7093","NONFED","ST-ORORS","ST/C&L","USOR712S","Grants Pass Unit","ORODF-712","Grants Pass Unit","C33","7093","","GLENLYN DRIVE","","","","","","1994","1994/09/10 00:00:00+00","253","","Human","Smoking","","1994/09/10 00:00:00+00","253","","0.25","A","42.28588","-123.27174","PRIVATE","OR","33","41033","Josephine County"
"-123.644125995","42.156954835","1145154","1396798","ODF-7094","NONFED","ST-ORORS","ST/C&L","USOR712S","Grants Pass Unit","ORODF-712","Grants Pass Unit","C34","7094","","FARRIS ROAD","","","","","","1994","1994/09/16 00:00:00+00","259","","Human","Smoking","","1994/09/16 00:00:00+00","259","","0.01","A","42.15696","-123.64414","PRIVATE","OR","33","41033","Josephine County"
"-123.295186014","42.35193479","1145155","1396799","ODF-7095","NONFED","ST-ORORS","ST/C&L","USOR712S","Grants Pass Unit","ORODF-712","Grants Pass Unit","C35","7095","","BOARD SHANTY #2","","","","","","1994","1994/09/17 00:00:00+00","260","","Human","Misuse of fire by a minor","Minor","1994/09/17 00:00:00+00","260","","0.01","A","42.35194","-123.2952","PRIVATE","OR","33","41033","Josephine County"
"-123.60489598","42.281054823","1145156","1396800","ODF-7096","NONFED","ST-ORORS","ST/C&L","USOR712S","Grants Pass Unit","ORODF-712","Grants Pass Unit","C36","7096","","DEER CREEK ROAD","","","","","","1994","1994/09/17 00:00:00+00","260","","Human","Misuse of fire by a minor","Minor","1994/09/17 00:00:00+00","260","","0.01","A","42.28106","-123.60491","PRIVATE","OR","33","41033","Josephine County"
"-123.295626018","42.330314792","1145157","1396801","ODF-7097","NONFED","ST-ORORS","ST/C&L","USOR712S","Grants Pass Unit","ORODF-712","Grants Pass Unit","C37","7097","","POWER POLE # C3896","","","","","","1994","1994/09/18 00:00:00+00","261","","Human","Power generation/transmission/distribution","","1994/09/18 00:00:00+00","261","","0.01","A","42.33032","-123.29564","STATE","OR","33","41033","Josephine County"
"-123.28637596","42.679054768","1145158","1396802","ODF-7098","NONFED","ST-ORORS","ST/C&L","USOR712S","Grants Pass Unit","ORODF-712","Grants Pass Unit","C38","7098","","COYOTE CREEK ROAD","","","","","","1994","1994/09/19 00:00:00+00","262","","Human","Smoking","","1994/09/19 00:00:00+00","262","","0.01","A","42.67906","-123.28639","BLM","OR","33","41033","Josephine County"
"-123.471985959","42.522214795","1145159","1396803","ODF-7099","NONFED","ST-ORORS","ST/C&L","USOR712S","Grants Pass Unit","ORODF-712","Grants Pass Unit","C39","7099","","MERLIN GALICE ROAD","","","","","","1994","1994/09/19 00:00:00+00","262","","Human","Equipment and vehicle use","","1994/09/19 00:00:00+00","262","","0.25","A","42.52222","-123.472","COUNTY","OR","33","41033","Josephine County"
"-123.344816011","42.326374796","1145160","1396804","ODF-7100","NONFED","ST-ORORS","ST/C&L","USOR712S","Grants Pass Unit","ORODF-712","Grants Pass Unit","C40","7100","","POWER POLE # C-2661","","","","","","1994","1994/09/26 00:00:00+00","269","","Human","Power generation/transmission/distribution","","1994/09/26 00:00:00+00","269","","0.01","A","42.32638","-123.34483","PRIVATE","OR","33","41033","Josephine County"
"-123.334596005","42.370094793","1145161","1396805","ODF-7101","NONFED","ST-ORORS","ST/C&L","USOR712S","Grants Pass Unit","ORODF-712","Grants Pass Unit","C41","7101","","WILLIAMS HIGHWAY # 3","","","","","","1994","1994/09/23 00:00:00+00","266","","Human","Smoking","","1994/09/23 00:00:00+00","266","","0.01","A","42.3701","-123.33461","PRIVATE","OR","33","41033","Josephine County"
"-123.658525981","42.229604831","1145162","1396806","ODF-7102","NONFED","ST-ORORS","ST/C&L","USOR712S","Grants Pass Unit","ORODF-712","Grants Pass Unit","C42","7102","","REDWOOD HIGHWAY #2","","","","","","1994","1994/09/23 00:00:00+00","266","","Human","Smoking","","1994/09/23 00:00:00+00","266","","0.1","A","42.22961","-123.65854","PRIVATE","OR","33","41033","Josephine County"
"-123.30509602","42.307994794","1145163","1396807","ODF-7103","NONFED","ST-ORORS","ST/C&L","USOR712S","Grants Pass Unit","ORODF-712","Grants Pass Unit","C43","7103","","CRYSTAL DRIVE","","","","","","1994","1994/09/27 00:00:00+00","270","","Human","Other causes","","1994/09/27 00:00:00+00","270","","0.25","A","42.308","-123.30511","PRIVATE","OR","33","41033","Josephine County"
"-123.187616017","42.427784775","1145164","1396808","ODF-7104","NONFED","ST-ORORS","ST/C&L","USOR712S","Grants Pass Unit","ORODF-712","Grants Pass Unit","C44","7104","","ROGUE RIVER HWY #2","","","","","","1994","1994/09/28 00:00:00+00","271","","Human","Other causes","","1994/09/28 00:00:00+00","271","","0.1","A","42.42779","-123.18763","PRIVATE","OR","33","41033","Josephine County"
"-123.23185606","42.129884799","1145165","1396809","ODF-7105","NONFED","ST-ORORS","ST/C&L","USOR712S","Grants Pass Unit","ORODF-712","Grants Pass Unit","C45","7105","","THOMPSON CREEK","","","","","","1994","1994/09/28 00:00:00+00","271","","Natural","Natural","","1994/09/28 00:00:00+00","271","","1.5","B","42.12989","-123.23187","PRIVATE","OR","33","41033","Josephine County"
"-123.692805986","42.166964838","1145166","1396810","ODF-7106","NONFED","ST-ORORS","ST/C&L","USOR712S","Grants Pass Unit","ORODF-712","Grants Pass Unit","C46","7106","","WOODCOCK MT.","","","","","","1994","1994/09/28 00:00:00+00","271","","Natural","Natural","","1994/09/28 00:00:00+00","271","","0.01","A","42.16697","-123.69282","BLM","OR","33","41033","Josephine County"
"-123.688276007","42.043944846","1145167","1396811","ODF-7107","NONFED","ST-ORORS","ST/C&L","USOR712S","Grants Pass Unit","ORODF-712","Grants Pass Unit","C47","7107","","LEUIZENGER CREEK","","","","","","1994","1994/09/28 00:00:00+00","271","","Natural","Natural","","1994/09/28 00:00:00+00","271","","0.25","A","42.04395","-123.68829","PRIVATE","OR","33","41033","Josephine County"
"-123.664305995","42.138374838","1145168","1396812","ODF-7108","NONFED","ST-ORORS","ST/C&L","USOR712S","Grants Pass Unit","ORODF-712","Grants Pass Unit","C48","7108","","KEN ROSE III","","","","","","1994","1994/09/28 00:00:00+00","271","","Natural","Natural","","1994/09/29 00:00:00+00","272","","0.01","A","42.13838","-123.66432","PRIVATE","OR","33","41033","Josephine County"
"-123.158516041","42.31170478","1145169","1396813","ODF-7109","NONFED","ST-ORORS","ST/C&L","USOR712S","Grants Pass Unit","ORODF-712","Grants Pass Unit","C49","7109","","OLD BLUE MT.","","","","","","1994","1994/09/28 00:00:00+00","271","","Natural","Natural","","1994/09/28 00:00:00+00","271","","0.01","A","42.31171","-123.15853","PRIVATE","OR","33","41033","Josephine County"
"-123.850985872","42.711494819","1145170","1396817","ODF-7113","NONFED","ST-ORORS","ST/C&L","USOR712S","Grants Pass Unit","ORODF-712","Grants Pass Unit","C53","7113","","QUAIL CREEK","","","","","","1994","1994/09/28 00:00:00+00","271","","Natural","Natural","","1994/09/28 00:00:00+00","271","","0.01","A","42.7115","-123.851","BLM","OR","33","41033","Josephine County"
"-123.851045877","42.68245482","1145171","1396819","ODF-7115","NONFED","ST-ORORS","ST/C&L","USOR712S","Grants Pass Unit","ORODF-712","Grants Pass Unit","C55","7115","","LONG GULCH","","","","","","1994","1994/09/30 00:00:00+00","273","","Natural","Natural","","1994/09/30 00:00:00+00","273","","0.01","A","42.68246","-123.85106","BLM","OR","33","41033","Josephine County"
"-123.625316005","42.109484836","1145172","1396821","ODF-7117","NONFED","ST-ORORS","ST/C&L","USOR712S","Grants Pass Unit","ORODF-712","Grants Pass Unit","C57","7117","","CUTS FIRE","","","","","","1994","1994/09/28 00:00:00+00","271","","Natural","Natural","","1994/09/28 00:00:00+00","271","","0.01","A","42.10949","-123.62533","PRIVATE","OR","33","41033","Josephine County"
"-123.678325995","42.12710484","1145173","1396822","ODF-7118","NONFED","ST-ORORS","ST/C&L","USOR712S","Grants Pass Unit","ORODF-712","Grants Pass Unit","C58","7118","","PILLER PLACE","","","","","","1994","1994/09/28 00:00:00+00","271","","Natural","Natural","","1994/09/29 00:00:00+00","272","","0.01","A","42.12711","-123.67834","PRIVATE","OR","33","41033","Josephine County"
"-123.560905979","42.328204816","1145174","1396823","ODF-7119","NONFED","ST-ORORS","ST/C&L","USOR712S","Grants Pass Unit","ORODF-712","Grants Pass Unit","C59","7119","","INDIAN HILL ROAD","","","","","","1994","1994/09/28 00:00:00+00","271","","Natural","Natural","","1994/09/28 00:00:00+00","271","","0.01","A","42.32821","-123.56092","BLM","OR","33","41033","Josephine County"
"-123.364695986","42.46019479","1145175","1396825","ODF-7121","NONFED","ST-ORORS","ST/C&L","USOR712S","Grants Pass Unit","ORODF-712","Grants Pass Unit","C61","7121","","DOLLAR MT. #2","","","","","","1994","1994/09/28 00:00:00+00","271","","Natural","Natural","","1994/09/28 00:00:00+00","271","","0.01","A","42.4602","-123.36471","PRIVATE","OR","33","41033","Josephine County"
"-123.639895914","42.642544803","1145176","1396826","ODF-7122","NONFED","ST-ORORS","ST/C&L","USOR712S","Grants Pass Unit","ORODF-712","Grants Pass Unit","C62","7122","","RUM CREEK # 2","","","","","","1994","1994/09/28 00:00:00+00","271","","Natural","Natural","","1994/09/29 00:00:00+00","272","","0.01","A","42.64255","-123.63991","BLM","OR","33","41033","Josephine County"
"-123.757555885","42.71137481","1145177","1396828","ODF-7124","NONFED","ST-ORORS","ST/C&L","USOR712S","Grants Pass Unit","ORODF-712","Grants Pass Unit","C64","7124","","KELSEY CANYON #2","","","","","","1994","1994/09/28 00:00:00+00","271","","Natural","Natural","","1994/09/28 00:00:00+00","271","","0.01","A","42.71138","-123.75757","BLM","OR","33","41033","Josephine County"
"-123.772455887","42.689764813","1145178","1396829","ODF-7125","NONFED","ST-ORORS","ST/C&L","USOR712S","Grants Pass Unit","ORODF-712","Grants Pass Unit","C65","7125","","JENNY BREAKS","","","","","","1994","1994/09/28 00:00:00+00","271","","Natural","Natural","","1994/09/29 00:00:00+00","272","","0.01","A","42.68977","-123.77247","BLM","OR","33","41033","Josephine County"
"-123.748205876","42.773664805","1145179","1396830","ODF-7126","NONFED","ST-ORORS","ST/C&L","USOR712S","Grants Pass Unit","ORODF-712","Grants Pass Unit","C66","7126","","CALVERT PEAK","","","","","","1994","1994/09/28 00:00:00+00","271","","Natural","Natural","","1994/09/28 00:00:00+00","271","","0.01","A","42.77367","-123.74822","BLM","OR","33","41033","Josephine County"
"-123.723435882","42.759314804","1145180","1396835","ODF-7132","NONFED","ST-ORORS","ST/C&L","USOR712S","Grants Pass Unit","ORODF-712","Grants Pass Unit","C72","7132","","KELSEY CREEK","","","","","","1994","1994/09/28 00:00:00+00","271","","Natural","Natural","","1994/09/30 00:00:00+00","273","","25","C","42.75932","-123.72345","BLM","OR","33","41033","Josephine County"
"-123.738175888","42.714904808","1145181","1396836","ODF-7133","NONFED","ST-ORORS","ST/C&L","USOR712S","Grants Pass Unit","ORODF-712","Grants Pass Unit","C73","7133","","DUTCH HENRY","","","","","","1994","1994/09/29 00:00:00+00","272","","Natural","Natural","","1994/09/29 00:00:00+00","272","","0.25","A","42.71491","-123.73819","BLM","OR","33","41033","Josephine County"
"-123.354796018","42.274134801","1145182","1396838","ODF-7135","NONFED","ST-ORORS","ST/C&L","USOR712S","Grants Pass Unit","ORODF-712","Grants Pass Unit","C75","7135","","SPENCER CREEK","","","","","","1994","1994/09/29 00:00:00+00","272","","Natural","Natural","","1994/09/29 00:00:00+00","272","","0.1","A","42.27414","-123.35481","PRIVATE","OR","33","41033","Josephine County"
"-123.178746035","42.330184781","1145183","1396839","ODF-7136","NONFED","ST-ORORS","ST/C&L","USOR712S","Grants Pass Unit","ORODF-712","Grants Pass Unit","C76","7136","","SLAGLE CREEK","","","","","","1994","1994/09/29 00:00:00+00","272","","Natural","Natural","","1994/09/29 00:00:00+00","272","","0.1","A","42.33019","-123.17876","PRIVATE","OR","33","41033","Josephine County"
"-123.659365901","42.704224801","1145184","1396842","ODF-7139","NONFED","ST-ORORS","ST/C&L","USOR712S","Grants Pass Unit","ORODF-712","Grants Pass Unit","C79","7139","","WHISKEY CREEK","","","","","","1994","1994/09/29 00:00:00+00","272","","Natural","Natural","","1994/09/29 00:00:00+00","272","","0.01","A","42.70423","-123.65938","BLM","OR","33","41033","Josephine County"
"-123.208126049","42.220284791","1145185","1396843","ODF-7140","NONFED","ST-ORORS","ST/C&L","USOR712S","Grants Pass Unit","ORODF-712","Grants Pass Unit","C80","7140","","THOMPSON CREEK #2","","","","","","1994","1994/09/29 00:00:00+00","272","","Natural","Natural","","1994/09/30 00:00:00+00","273","","0.01","A","42.22029","-123.20814","PRIVATE","OR","33","41033","Josephine County"
"-123.580125968","42.375744815","1145186","1396845","ODF-7142","NONFED","ST-ORORS","ST/C&L","USOR712S","Grants Pass Unit","ORODF-712","Grants Pass Unit","C82","7142","","ROOT SPRINGS","","","","","","1994","1994/10/01 00:00:00+00","274","","Natural","Natural","","1994/10/01 00:00:00+00","274","","0.1","A","42.37575","-123.58014","PRIVATE","OR","33","41033","Josephine County"
"-123.634115977","42.273554826","1145187","1396846","ODF-7143","NONFED","ST-ORORS","ST/C&L","USOR712S","Grants Pass Unit","ORODF-712","Grants Pass Unit","C83","7143","","WILSON ROAD","","","","","","1994","1994/10/02 00:00:00+00","275","","Human","Other causes","","1994/10/02 00:00:00+00","275","","0.1","A","42.27356","-123.63413","PRIVATE","OR","33","41033","Josephine County"
"-123.153246004","42.536934765","1145188","1396848","ODF-7145","NONFED","ST-ORORS","ST/C&L","USOR712S","Grants Pass Unit","ORODF-712","Grants Pass Unit","C85","7145","","COVERED BRIDGE RD # 2","","","","","","1994","1994/10/03 00:00:00+00","276","","Human","Other causes","","1994/10/03 00:00:00+00","276","","0.01","A","42.53694","-123.15326","PRIVATE","OR","29","41029","Jackson County"
"-123.576226008","42.13832483","1145189","1396849","ODF-7146","NONFED","ST-ORORS","ST/C&L","USOR712S","Grants Pass Unit","ORODF-712","Grants Pass Unit","C86","7146","","GARNER ROAD","","","","","","1994","1994/10/03 00:00:00+00","276","","Human","Missing data/not specified/undetermined","","1994/10/03 00:00:00+00","276","","0.01","A","42.13833","-123.57624","PRIVATE","OR","33","41033","Josephine County"
"-123.639815998","42.138094835","1145190","1396851","ODF-7148","NONFED","ST-ORORS","ST/C&L","USOR712S","Grants Pass Unit","ORODF-712","Grants Pass Unit","C88","7148","","ROCKYDALE ROAD","","","","","","1994","1994/10/07 00:00:00+00","280","","Human","Debris and open burning","","1994/10/07 00:00:00+00","280","","0.01","A","42.1381","-123.63983","PRIVATE","OR","33","41033","Josephine County"
"-123.138906022","42.44261477","1145191","1396852","ODF-7149","NONFED","ST-ORORS","ST/C&L","USOR712S","Grants Pass Unit","ORODF-712","Grants Pass Unit","C89","7149","","WARDS CREEK","","","","","","1994","1994/10/09 00:00:00+00","282","","Human","Missing data/not specified/undetermined","","1994/10/09 00:00:00+00","282","","0.1","A","42.44262","-123.13892","PRIVATE","OR","29","41029","Jackson County"
"-123.388755959","42.595684783","1145192","1396853","ODF-7150","NONFED","ST-ORORS","ST/C&L","USOR712S","Grants Pass Unit","ORODF-712","Grants Pass Unit","C90","7150","","OXYOKE RD. # 3","","","","","","1994","1994/10/09 00:00:00+00","282","","Human","Equipment and vehicle use","","1994/10/09 00:00:00+00","282","","0.5","B","42.59569","-123.38877","PRIVATE","OR","33","41033","Josephine County"
"-123.163456014","42.47115477","1145193","1396854","ODF-7151","NONFED","ST-ORORS","ST/C&L","USOR712S","Grants Pass Unit","ORODF-712","Grants Pass Unit","C91","7151","","EAST EVANS #3","","","","","","1994","1994/10/10 00:00:00+00","283","","Human","Other causes","","1994/10/10 00:00:00+00","283","","0.1","A","42.47116","-123.16347","PRIVATE","OR","29","41029","Jackson County"
"-123.344225982","42.500394785","1145194","1396855","ODF-7152","NONFED","ST-ORORS","ST/C&L","USOR712S","Grants Pass Unit","ORODF-712","Grants Pass Unit","C92","7152","","ERIC WAY","","","","","","1994","1994/10/10 00:00:00+00","283","","Human","Smoking","","1994/10/10 00:00:00+00","283","","0.01","A","42.5004","-123.34424","PRIVATE","OR","33","41033","Josephine County"
"-123.644685993","42.167804834","1145195","1396856","ODF-7153","NONFED","ST-ORORS","ST/C&L","USOR712S","Grants Pass Unit","ORODF-712","Grants Pass Unit","C93","7153","","SOUTH JUNCTION AVE.","","","","","","1994","1994/10/13 00:00:00+00","286","","Human","Smoking","Minor","1994/10/13 00:00:00+00","286","","0.01","A","42.16781","-123.6447","COUNTY","OR","33","41033","Josephine County"
"-123.620676016","42.050354839","1145196","1396857","ODF-7154","NONFED","ST-ORORS","ST/C&L","USOR712S","Grants Pass Unit","ORODF-712","Grants Pass Unit","C94","7154","","TAKILMA ROAD # 2","","","","","","1994","1994/10/15 00:00:00+00","288","","Human","Recreation and ceremony","","1994/10/15 00:00:00+00","288","","0.1","A","42.05036","-123.62069","PRIVATE","OR","33","41033","Josephine County"
"-123.398915981","42.456734793","1145197","1396858","ODF-7155","NONFED","ST-ORORS","ST/C&L","USOR712S","Grants Pass Unit","ORODF-712","Grants Pass Unit","C95","7155","","WEST HILLS DRIVE","","","","","","1994","1994/10/17 00:00:00+00","290","","Human","Smoking","","1994/10/17 00:00:00+00","290","","0.1","A","42.45674","-123.39893","PRIVATE","OR","33","41033","Josephine County"
"-123.535925991","42.277204817","1145198","1396859","ODF-7156","NONFED","ST-ORORS","ST/C&L","USOR712S","Grants Pass Unit","ORODF-712","Grants Pass Unit","C96","7156","","UPPER DEER CREEK ROAD","","","","","","1994","1994/10/19 00:00:00+00","292","","Human","Other causes","","1994/10/19 00:00:00+00","292","","0.01","A","42.27721","-123.53594","PRIVATE","OR","33","41033","Josephine County"
"-123.281046","42.446054783","1145199","1396860","ODF-7157","NONFED","ST-ORORS","ST/C&L","USOR712S","Grants Pass Unit","ORODF-712","Grants Pass Unit","C97","7157","","GLENOAK LANE","","","","","","1994","1994/10/22 00:00:00+00","295","","Human","Recreation and ceremony","","1994/10/22 00:00:00+00","295","","0.01","A","42.44606","-123.28106","PRIVATE","OR","33","41033","Josephine County"
"-123.71190599","42.126944843","1145200","1396861","ODF-7158","NONFED","ST-ORORS","ST/C&L","USOR712S","Grants Pass Unit","ORODF-712","Grants Pass Unit","C98","7158","","WOODCOCK MT. # 2","","","","","","1994","1994/07/22 00:00:00+00","203","","Human","Smoking","","1994/07/22 00:00:00+00","203","","1.5","B","42.12695","-123.71192","STATE","OR","33","41033","Josephine County"
"-123.371105603","44.568254661","1145201","1396862","ODF-6374","NONFED","ST-ORORS","ST/C&L","USOR551S","Philomath Unit","ORODF-551","Philomath Unit","P13","6374","","NEWTON CREEK","","","","","","1994","1994/09/15 00:00:00+00","258","","Human","Missing data/not specified/undetermined","","1994/09/15 00:00:00+00","258","","8","B","44.56826","-123.37112","COUNTY","OR","2","41003","Benton County"
"-123.493715555","44.721784664","1145202","1396863","ODF-6381","NONFED","ST-ORORS","ST/C&L","USOR551S","Philomath Unit","ORODF-551","Philomath Unit","P20","6381","","LUCKIAMUTE #1","","","","","","1994","1994/10/01 00:00:00+00","274","","Human","Debris and open burning","","1994/10/01 00:00:00+00","274","","0.02","A","44.72179","-123.49373","PRIVATE","OR","2","41003","Benton County"
"-124.020945528","44.456734732","1145203","1396864","ODF-6453","NONFED","ST-ORORS","ST/C&L","USOR553S","Toledo Unit","ORODF-553","Toledo Unit","T16","6453","","COZY ACRES","","","","","","1994","1994/09/01 00:00:00+00","244","","Human","Debris and open burning","","1994/09/01 00:00:00+00","244","","0.01","A","44.45674","-124.02096","PRIVATE","OR","21","41041","Lincoln County"
"-122.299125611","45.355004506","1145204","1396865","ODF-10077","NONFED","ST-ORORS","ST/C&L","USOR581S","Molalla Unit","ORODF-581","Molalla Unit","052","10077","","BRONZE RD.","","","","","","1995","1995/09/17 00:00:00+00","260","","Human","Debris and open burning","","1995/09/17 00:00:00+00","260","","0.02","A","45.35501","-122.29914","PRIVATE","OR","5","41005","Clackamas County"
"-122.411495588","45.383694516","1145205","1396866","ODF-10082","NONFED","ST-ORORS","ST/C&L","USOR581S","Molalla Unit","ORODF-581","Molalla Unit","060","10082","","BARTON BRIDGE","","","","","","1995","1995/09/21 00:00:00+00","264","","Human","Arson/incendiarism","","1995/09/21 00:00:00+00","264","","0.01","A","45.3837","-122.41151","MISSING/NOT SPECIFIED","OR","5","41005","Clackamas County"
"-123.875365255","45.902154638","1145206","1396867","ODF-9768","NONFED","ST-ORORS","ST/C&L","USOR520S","Astoria District","ORODF-521","Astoria District","139","9768","","ARC 26","","","","","","1995","1995/06/27 00:00:00+00","178","","Human","Power generation/transmission/distribution","","1995/06/27 00:00:00+00","178","","0.01","A","45.90216","-123.87538","STATE","OR","4","41007","Clatsop County"
"-121.538246071","43.585994544","1145207","1396868","ODF-12030","NONFED","ST-ORORS","ST/C&L","USORGILN","Gilchrist Fire Department","ORODF-991","Gilchrist","221","12030","","221","","","","","","1995","1995/06/07 00:00:00+00","158","","Human","Debris and open burning","","1995/06/07 00:00:00+00","158","","0.1","A","43.586","-121.53826","PRIVATE","OR","18","41035","Klamath County"
"-121.701336068","43.455784569","1145208","1396869","ODF-12120","NONFED","ST-ORORS","ST/C&L","USORGILN","Gilchrist Fire Department","ORODF-991","Gilchrist","323","12120","","KAEHN","","","","","","1995","1995/10/20 00:00:00+00","293","","Human","Recreation and ceremony","","1995/10/20 00:00:00+00","293","","0.01","A","43.45579","-121.70135","PRIVATE","OR","18","41035","Klamath County"
"-121.918416182","42.600764648","1145209","1396870","ODF-11933","NONFED","ST-ORORS","ST/C&L","USOR981S","Klamath Unit","ORODF-981","Klamath Unit","437","11933","","I-TEST","","","","","","1995","1995/04/25 00:00:00+00","115","","Human","Debris and open burning","","1995/04/25 00:00:00+00","115","","0.5","B","42.60077","-121.91843","PRIVATE","OR","18","41035","Klamath County"
"-121.312506291","42.519934598","1145210","1396871","ODF-11935","NONFED","ST-ORORS","ST/C&L","USOR981S","Klamath Unit","ORODF-981","Klamath Unit","439","11935","","TWIN RUN","","","","","","1995","1995/05/22 00:00:00+00","142","","Human","Recreation and ceremony","","1995/05/22 00:00:00+00","142","","0.92","B","42.51994","-121.31252","PRIVATE","OR","18","41035","Klamath County"
"-121.724376254","42.350104648","1145211","1396872","ODF-11946","NONFED","ST-ORORS","ST/C&L","USOR981S","Klamath Unit","ORODF-981","Klamath Unit","450","11946","","SWAN","","","","","","1995","1995/06/02 00:00:00+00","153","","Natural","Natural","","1995/06/03 00:00:00+00","154","","0.1","A","42.35011","-121.72439","PRIVATE","OR","18","41035","Klamath County"
"-123.359985944","42.708524773","1145212","1396873","ODF-10348","NONFED","ST-ORORS","ST/C&L","USOR712S","Grants Pass Unit","ORODF-712","Grants Pass Unit","A05","10348","","SPEAKER ROAD","","","","","","1995","1995/07/07 00:00:00+00","188","","Human","Equipment and vehicle use","","1995/07/07 00:00:00+00","188","","3","B","42.70853","-123.36","PRIVATE","OR","33","41033","Josephine County"
"-123.654255989","42.182034834","1145213","1396875","ODF-10350","NONFED","ST-ORORS","ST/C&L","USOR712S","Grants Pass Unit","ORODF-712","Grants Pass Unit","A07","10350","","WALDOMAR ROAD","","","","","","1995","1995/07/07 00:00:00+00","188","","Human","Other causes","","1995/07/07 00:00:00+00","188","","0.01","A","42.18204","-123.65427","PRIVATE","OR","33","41033","Josephine County"
"-123.275826002","42.438934783","1145214","1396876","ODF-10351","NONFED","ST-ORORS","ST/C&L","USOR712S","Grants Pass Unit","ORODF-712","Grants Pass Unit","A08","10351","","FOOTHILL BLVD.","","","","","","1995","1995/07/12 00:00:00+00","193","","Human","Debris and open burning","","1995/07/12 00:00:00+00","193","","0.01","A","42.43894","-123.27584","PRIVATE","OR","33","41033","Josephine County"
"-123.438155978","42.442224797","1145215","1396877","ODF-10352","NONFED","ST-ORORS","ST/C&L","USOR712S","Grants Pass Unit","ORODF-712","Grants Pass Unit","A09","10352","","STEWART RD.","","","","","","1995","1995/07/14 00:00:00+00","195","","Human","Smoking","","1995/07/14 00:00:00+00","195","","0.01","A","42.44223","-123.43817","BLM","OR","33","41033","Josephine County"
"-123.37464595","42.664474777","1145216","1396878","ODF-10429","NONFED","ST-ORORS","ST/C&L","USOR712S","Grants Pass Unit","ORODF-712","Grants Pass Unit","A86","10429","","I-5, MP 74","","","","","","1995","1995/10/06 00:00:00+00","279","","Human","Recreation and ceremony","","1995/10/06 00:00:00+00","279","","0.01","A","42.66448","-123.37466","STATE","OR","33","41033","Josephine County"
"-123.359725979","42.504014786","1145217","1396879","ODF-10430","NONFED","ST-ORORS","ST/C&L","USOR712S","Grants Pass Unit","ORODF-712","Grants Pass Unit","A87","10430","","MONUMENT DRIVE III","","","","","","1995","1995/10/06 00:00:00+00","279","","Human","Misuse of fire by a minor","Minor","1995/10/06 00:00:00+00","279","","0.01","A","42.50402","-123.35974","PRIVATE","OR","33","41033","Josephine County"
"-123.310176002","42.410084788","1145218","1396880","ODF-10431","NONFED","ST-ORORS","ST/C&L","USOR712S","Grants Pass Unit","ORODF-712","Grants Pass Unit","A88","10431","","CLOVERLAWN DRIVE","","","","","","1995","1995/10/07 00:00:00+00","280","","Human","Misuse of fire by a minor","Minor","1995/10/07 00:00:00+00","280","","0.01","A","42.41009","-123.31019","PRIVATE","OR","33","41033","Josephine County"
"-123.168346013","42.471034771","1145219","1396881","ODF-10432","NONFED","ST-ORORS","ST/C&L","USOR712S","Grants Pass Unit","ORODF-712","Grants Pass Unit","A89","10432","","EAST EVANS CREEK ROAD","","","","","","1995","1995/10/07 00:00:00+00","280","","Human","Equipment and vehicle use","","1995/10/07 00:00:00+00","280","","0.01","A","42.47104","-123.16836","PRIVATE","OR","29","41029","Jackson County"
"-123.619505978","42.280644824","1145220","1396882","ODF-10433","NONFED","ST-ORORS","ST/C&L","USOR712S","Grants Pass Unit","ORODF-712","Grants Pass Unit","A90","10433","","REDWOOD HIGHWAY M.P. 20","","","","","","1995","1995/10/13 00:00:00+00","286","","Human","Debris and open burning","","1995/10/13 00:00:00+00","286","","0.01","A","42.28065","-123.61952","PRIVATE","OR","33","41033","Josephine County"
"-123.184766054","42.209544789","1145221","1396883","ODF-10434","NONFED","ST-ORORS","ST/C&L","USOR712S","Grants Pass Unit","ORODF-712","Grants Pass Unit","A91","10434","","HOGAN ROAD","","","","","","1995","1995/10/14 00:00:00+00","287","","Human","Debris and open burning","","1995/10/14 00:00:00+00","287","","0.1","A","42.20955","-123.18478","PRIVATE","OR","29","41029","Jackson County"
"-123.168236009","42.496564769","1145222","1396884","ODF-10435","NONFED","ST-ORORS","ST/C&L","USOR712S","Grants Pass Unit","ORODF-712","Grants Pass Unit","A92","10435","","EAST EVANS CREEK #2","","","","","","1995","1995/10/15 00:00:00+00","288","","Human","Recreation and ceremony","","1995/10/15 00:00:00+00","288","","0.01","A","42.49657","-123.16825","COUNTY","OR","29","41029","Jackson County"
"-123.272016036","42.238214795","1145223","1396885","ODF-10436","NONFED","ST-ORORS","ST/C&L","USOR712S","Grants Pass Unit","ORODF-712","Grants Pass Unit","A93","10436","","HORIZON HILLS","","","","","","1995","1995/10/16 00:00:00+00","289","","Human","Debris and open burning","","1995/10/16 00:00:00+00","289","","1.5","B","42.23822","-123.27203","PRIVATE","OR","33","41033","Josephine County"
"-123.678545996","42.11957484","1145224","1396886","ODF-10437","NONFED","ST-ORORS","ST/C&L","USOR712S","Grants Pass Unit","ORODF-712","Grants Pass Unit","A94","10437","","WESTSIDE RD. #4","","","","","","1995","1995/10/16 00:00:00+00","289","","Human","Debris and open burning","","1995/10/16 00:00:00+00","289","","5","B","42.11958","-123.67856","PRIVATE","OR","33","41033","Josephine County"
"-123.477345974","42.427634802","1145225","1396887","ODF-10438","NONFED","ST-ORORS","ST/C&L","USOR712S","Grants Pass Unit","ORODF-712","Grants Pass Unit","A95","10438","","DOUGLAS DRIVE","","","","","","1995","1995/10/18 00:00:00+00","291","","Human","Debris and open burning","","1995/10/18 00:00:00+00","291","","0.01","A","42.42764","-123.47736","PRIVATE","OR","33","41033","Josephine County"
"-123.188675995","42.561984767","1145226","1396888","ODF-10439","NONFED","ST-ORORS","ST/C&L","USOR712S","Grants Pass Unit","ORODF-712","Grants Pass Unit","A96","10439","","WEST EVANS CREEK","","","","","","1995","1995/10/18 00:00:00+00","291","","Human","Debris and open burning","","1995/10/18 00:00:00+00","291","","0.01","A","42.56199","-123.18869","PRIVATE","OR","29","41029","Jackson County"
"-123.610316001","42.149584832","1145227","1396889","ODF-10440","NONFED","ST-ORORS","ST/C&L","USOR712S","Grants Pass Unit","ORODF-712","Grants Pass Unit","A97","10440","","ROCKYDALE V","","","","","","1995","1995/10/19 00:00:00+00","292","","Human","Debris and open burning","","1995/10/19 00:00:00+00","292","","0.25","A","42.14959","-123.61033","PRIVATE","OR","33","41033","Josephine County"
"-123.173416004","42.518564768","1145228","1396890","ODF-10441","NONFED","ST-ORORS","ST/C&L","USOR712S","Grants Pass Unit","ORODF-712","Grants Pass Unit","A98","10441","","PINE GROVE ROAD","","","","","","1995","1995/10/21 00:00:00+00","294","","Human","Debris and open burning","","1995/10/21 00:00:00+00","294","","1","B","42.51857","-123.17343","PRIVATE","OR","29","41029","Jackson County"
"-123.276016","42.453524782","1145229","1396891","ODF-10442","NONFED","ST-ORORS","ST/C&L","USOR712S","Grants Pass Unit","ORODF-712","Grants Pass Unit","A99","10442","","RANCHO VISTA ROAD","","","","","","1995","1995/10/21 00:00:00+00","294","","Human","Debris and open burning","","1995/10/21 00:00:00+00","294","","0.25","A","42.45353","-123.27603","PRIVATE","OR","33","41033","Josephine County"
"-123.374105967","42.562404784","1145230","1396892","ODF-10444","NONFED","ST-ORORS","ST/C&L","USOR712S","Grants Pass Unit","ORODF-712","Grants Pass Unit","B02","10444","","CANYON OAK DRIVE","","","","","","1995","1995/10/22 00:00:00+00","295","","Human","Debris and open burning","","1995/10/22 00:00:00+00","295","","2.5","B","42.56241","-123.37412","PRIVATE","OR","33","41033","Josephine County"
"-123.373345967","42.566254783","1145231","1396893","ODF-10445","NONFED","ST-ORORS","ST/C&L","USOR712S","Grants Pass Unit","ORODF-712","Grants Pass Unit","B03","10445","","MONUMENT DRIVE IV","","","","","","1995","1995/10/24 00:00:00+00","297","","Human","Equipment and vehicle use","","1995/10/24 00:00:00+00","297","","0.1","A","42.56626","-123.37336","COUNTY","OR","33","41033","Josephine County"
"-123.600115983","42.269424823","1145232","1396894","ODF-10447","NONFED","ST-ORORS","ST/C&L","USOR712S","Grants Pass Unit","ORODF-712","Grants Pass Unit","B05","10447","","LAKESHORE DR. # 2","","","","","","1995","1995/10/29 00:00:00+00","302","","Human","Equipment and vehicle use","","1995/10/29 00:00:00+00","302","","0.25","A","42.26943","-123.60013","COUNTY","OR","33","41033","Josephine County"
"-123.535795982","42.332234813","1145233","1396896","ODF-10448","NONFED","ST-ORORS","ST/C&L","USOR712S","Grants Pass Unit","ORODF-712","Grants Pass Unit","B06","10448","","ELLIOTT CREEK","","","","","","1995","1995/11/05 00:00:00+00","309","","Human","Recreation and ceremony","","1995/11/06 00:00:00+00","310","","0.01","A","42.33224","-123.53581","BLM","OR","33","41033","Josephine County"
"-123.516375959","42.485894802","1145234","1396897","ODF-10449","NONFED","ST-ORORS","ST/C&L","USOR712S","Grants Pass Unit","ORODF-712","Grants Pass Unit","B07","10449","","WEST PICKET CREEK #3","","","","","","1995","1995/11/04 00:00:00+00","308","","Human","Smoking","","1995/11/05 00:00:00+00","309","","0.01","A","42.4859","-123.51639","PRIVATE","OR","33","41033","Josephine County"
"-123.364485996","42.398644793","1145235","1396899","ODF-10451","NONFED","ST-ORORS","ST/C&L","USOR712S","Grants Pass Unit","ORODF-712","Grants Pass Unit","C99","10451","","LONNON ROAD","","","","","","1995","1995/05/22 00:00:00+00","142","","Human","Debris and open burning","","1995/05/22 00:00:00+00","142","","0.5","B","42.39865","-123.3645","PRIVATE","OR","33","41033","Josephine County"
"-123.619906003","42.130974834","1145236","1396900","ODF-10452","NONFED","ST-ORORS","ST/C&L","USOR712S","Grants Pass Unit","ORODF-712","Grants Pass Unit","D01","10452","","PINE CONE DRIVE","","","","","","1995","1995/05/20 00:00:00+00","140","","Human","Recreation and ceremony","","1995/05/20 00:00:00+00","140","","3","B","42.13098","-123.61992","COUNTY","OR","33","41033","Josephine County"
"-123.379255955","42.63171478","1145237","1396901","ODF-10453","NONFED","ST-ORORS","ST/C&L","USOR712S","Grants Pass Unit","ORODF-712","Grants Pass Unit","D02","10453","","OLD HWY 99 NORTH","","","","","","1995","1995/05/23 00:00:00+00","143","","Human","Debris and open burning","","1995/05/23 00:00:00+00","143","","0.1","A","42.63172","-123.37927","PRIVATE","OR","33","41033","Josephine County"
"-123.678475999","42.101494841","1145238","1396902","ODF-10454","NONFED","ST-ORORS","ST/C&L","USOR712S","Grants Pass Unit","ORODF-712","Grants Pass Unit","D03","10454","","REDWOOD HWY. MP 31.5","","","","","","1995","1995/05/27 00:00:00+00","147","","Human","Smoking","","1995/05/27 00:00:00+00","147","","0.01","A","42.1015","-123.67849","PRIVATE","OR","33","41033","Josephine County"
"-123.644445997","42.145854835","1145239","1396903","ODF-10455","NONFED","ST-ORORS","ST/C&L","USOR712S","Grants Pass Unit","ORODF-712","Grants Pass Unit","D04","10455","","ROCKYDALE RD. II","","","","","","1995","1995/05/28 00:00:00+00","148","","Human","Smoking","","1995/05/28 00:00:00+00","148","","0.25","A","42.14586","-123.64446","COUNTY","OR","33","41033","Josephine County"
"-123.629615997","42.156934833","1145240","1396904","ODF-10456","NONFED","ST-ORORS","ST/C&L","USOR712S","Grants Pass Unit","ORODF-712","Grants Pass Unit","D05","10456","","CAVES HIGHWAY","","","","","","1995","1995/05/29 00:00:00+00","149","","Human","Smoking","","1995/05/29 00:00:00+00","149","","0.01","A","42.15694","-123.62963","STATE","OR","33","41033","Josephine County"
"-123.129506047","42.300204778","1145241","1396905","ODF-10457","NONFED","ST-ORORS","ST/C&L","USOR712S","Grants Pass Unit","ORODF-712","Grants Pass Unit","D06","10457","","HUMBUG CREEK","","","","","","1995","1995/06/01 00:00:00+00","152","","Natural","Natural","","1995/06/02 00:00:00+00","153","","0.01","A","42.30021","-123.12952","BLM","OR","29","41029","Jackson County"
"-123.14876604","42.329694778","1145242","1396907","ODF-10459","NONFED","ST-ORORS","ST/C&L","USOR712S","Grants Pass Unit","ORODF-712","Grants Pass Unit","D08","10459","","MIDDLE FORK FOOTS CREEK","","","","","","1995","1995/06/01 00:00:00+00","152","","Natural","Natural","","1995/06/02 00:00:00+00","153","","0.1","A","42.3297","-123.14878","PRIVATE","OR","33","41033","Josephine County"
"-123.697465997","42.097874843","1145243","1396908","ODF-10460","NONFED","ST-ORORS","ST/C&L","USOR712S","Grants Pass Unit","ORODF-712","Grants Pass Unit","D09","10460","","AIRPORT DRIVE","","","","","","1995","1995/06/03 00:00:00+00","154","","Human","Smoking","","1995/06/03 00:00:00+00","154","","0.01","A","42.09788","-123.69748","BLM","OR","33","41033","Josephine County"
"-123.129446004","42.562064761","1145244","1396909","ODF-10461","NONFED","ST-ORORS","ST/C&L","USOR712S","Grants Pass Unit","ORODF-712","Grants Pass Unit","D10","10461","","SYKES CREEK","","","","","","1995","1995/06/03 00:00:00+00","154","","Human","Debris and open burning","","1995/06/03 00:00:00+00","154","","0.1","A","42.56207","-123.12946","COUNTY","OR","29","41029","Jackson County"
"-123.20241602","42.398744779","1145245","1396910","ODF-10462","NONFED","ST-ORORS","ST/C&L","USOR712S","Grants Pass Unit","ORODF-712","Grants Pass Unit","D11","10462","","BIRDSEYE CREEK","","","","","","1995","1995/06/04 00:00:00+00","155","","Human","Recreation and ceremony","","1995/06/05 00:00:00+00","156","","0.01","A","42.39875","-123.20243","PRIVATE","OR","29","41029","Jackson County"
"-123.722916001","42.051234849","1145246","1396911","ODF-10463","NONFED","ST-ORORS","ST/C&L","USOR712S","Grants Pass Unit","ORODF-712","Grants Pass Unit","D12","10463","","ARROWHEAD DRIVE","","","","","","1995","1995/06/08 00:00:00+00","159","","Human","Other causes","","1995/06/08 00:00:00+00","159","","0.01","A","42.05124","-123.72293","PRIVATE","OR","33","41033","Josephine County"
"-123.389265967","42.547824786","1145247","1396912","ODF-10464","NONFED","ST-ORORS","ST/C&L","USOR712S","Grants Pass Unit","ORODF-712","Grants Pass Unit","D13","10464","","BOYER ROAD","","","","","","1995","1995/06/12 00:00:00+00","163","","Human","Debris and open burning","","1995/06/12 00:00:00+00","163","","0.01","A","42.54783","-123.38928","PRIVATE","OR","33","41033","Josephine County"
"-123.232696034","42.290134789","1145248","1396913","ODF-10465","NONFED","ST-ORORS","ST/C&L","USOR712S","Grants Pass Unit","ORODF-712","Grants Pass Unit","D14","10465","","PROVOLT","","","","","","1995","1995/06/23 00:00:00+00","174","","Human","Debris and open burning","","1995/06/23 00:00:00+00","174","","0.1","A","42.29014","-123.23271","PRIVATE","OR","33","41033","Josephine County"
"-123.644615983","42.22636483","1145249","1396914","ODF-10466","NONFED","ST-ORORS","ST/C&L","USOR712S","Grants Pass Unit","ORODF-712","Grants Pass Unit","D15","10466","","REEVES CREEK","","","","","","1995","1995/06/25 00:00:00+00","176","","Human","Fireworks","","1995/06/25 00:00:00+00","176","","0.25","A","42.22637","-123.64463","BLM","OR","33","41033","Josephine County"
"-123.393995973","42.511204789","1145250","1396915","ODF-10467","NONFED","ST-ORORS","ST/C&L","USOR712S","Grants Pass Unit","ORODF-712","Grants Pass Unit","D16","10467","","CARTON WAY","","","","","","1995","1995/06/26 00:00:00+00","177","","Human","Other causes","","1995/06/26 00:00:00+00","177","","0.1","A","42.51121","-123.39401","PRIVATE","OR","33","41033","Josephine County"
"-123.384185971","42.529284787","1145251","1396916","ODF-10468","NONFED","ST-ORORS","ST/C&L","USOR712S","Grants Pass Unit","ORODF-712","Grants Pass Unit","D17","10468","","MONUMENT DRIVE","","","","","","1995","1995/06/27 00:00:00+00","178","","Human","Debris and open burning","","1995/06/27 00:00:00+00","178","","0.01","A","42.52929","-123.3842","PRIVATE","OR","33","41033","Josephine County"
"-123.51601596","42.478654802","1145252","1396917","ODF-10469","NONFED","ST-ORORS","ST/C&L","USOR712S","Grants Pass Unit","ORODF-712","Grants Pass Unit","D18","10469","","WEST PICKETT CREEK","","","","","","1995","1995/06/28 00:00:00+00","179","","Human","Debris and open burning","","1995/06/29 00:00:00+00","180","","0.5","B","42.47866","-123.51603","PRIVATE","OR","33","41033","Josephine County"
"-123.722195998","42.069524847","1145253","1396918","ODF-10470","NONFED","ST-ORORS","ST/C&L","USOR712S","Grants Pass Unit","ORODF-712","Grants Pass Unit","D19","10470","","NAUE WAY","","","","","","1995","1995/06/29 00:00:00+00","180","","Human","Other causes","","1995/06/29 00:00:00+00","180","","0.01","A","42.06953","-123.72221","PRIVATE","OR","33","41033","Josephine County"
"-123.53629601","42.160194825","1145254","1396919","ODF-10471","NONFED","ST-ORORS","ST/C&L","USOR712S","Grants Pass Unit","ORODF-712","Grants Pass Unit","D20","10471","","BEAR CREEK","","","","","","1995","1995/06/28 00:00:00+00","179","","Human","Equipment and vehicle use","","1995/06/28 00:00:00+00","179","","0.01","A","42.1602","-123.53631","PRIVATE","OR","33","41033","Josephine County"
"-123.517295936","42.620084793","1145255","1396920","ODF-10472","NONFED","ST-ORORS","ST/C&L","USOR712S","Grants Pass Unit","ORODF-712","Grants Pass Unit","D22","10472","","BUTTE CREEK","","","","","","1995","1995/06/30 00:00:00+00","181","","Natural","Natural","","","","","115","D","42.62009","-123.51731","BLM","OR","33","41033","Josephine County"
