"ï»¿X","Y","OBJECTID","FOD_ID","FPA_ID","SOURCE_SYSTEM_TYPE","SOURCE_SYSTEM","NWCG_REPORTING_AGENCY","NWCG_REPORTING_UNIT_ID","NWCG_REPORTING_UNIT_NAME","SOURCE_REPORTING_UNIT","SOURCE_REPORTING_UNIT_NAME","LOCAL_FIRE_REPORT_ID","LOCAL_INCIDENT_ID","FIRE_CODE","FIRE_NAME","ICS_209_PLUS_INCIDENT_JOIN_ID","ICS_209_PLUS_COMPLEX_JOIN_ID","MTBS_ID","MTBS_FIRE_NAME","COMPLEX_NAME","FIRE_YEAR","DISCOVERY_DATE","DISCOVERY_DOY","DISCOVERY_TIME","NWCG_CAUSE_CLASSIFICATION","NWCG_GENERAL_CAUSE","NWCG_CAUSE_AGE_CATEGORY","CONT_DATE","CONT_DOY","CONT_TIME","FIRE_SIZE","FIRE_SIZE_CLASS","LATITUDE","LONGITUDE","OWNER_DESCR","STATE","COUNTY","FIPS_CODE","FIPS_NAME"
"-106.249690116","34.587494389","560001","602350","SFO-2002NMFDNM00350402-02-61320464X","NONFED","ST-NASF","ST/C&L","USNMNMS","New Mexico State Forestry Division","NMNMS","New Mexico - State Forestry","","61320464X","","RILEY","","","","","","2002","2002/02/27 00:00:00+00","58","1130","Human","Missing data/not specified/undetermined","","2002/02/27 00:00:00+00","58","","0.5","B","34.58749998","-106.24970001","MISSING/NOT SPECIFIED","NM","Torrance","35057","Torrance County"
"-105.991990059","35.615894238","560002","602351","SFO-2002NMFDNM00350402-02-61350469X","NONFED","ST-NASF","ST/C&L","USNMNMS","New Mexico State Forestry Division","NMNMS","New Mexico - State Forestry","","61350469X","","","","","","","","2002","2002/02/28 00:00:00+00","59","2118","Human","Missing data/not specified/undetermined","","2002/03/02 00:00:00+00","61","","0.1","A","35.6159","-105.99199998","MISSING/NOT SPECIFIED","NM","Santa Fe","35049","Santa Fe County"
"-105.921290101","35.543194235","560003","602352","SFO-2002NMFDNM00350402-02-61370473X","NONFED","ST-NASF","ST/C&L","USNMNMS","New Mexico State Forestry Division","NMNMS","New Mexico - State Forestry","","61370473X","","","","","","","","2002","2002/03/03 00:00:00+00","62","1720","Human","Arson/incendiarism","","2002/03/05 00:00:00+00","64","","0.2","A","35.54319999","-105.9213","MISSING/NOT SPECIFIED","NM","Santa Fe","35049","Santa Fe County"
"-105.937490078","35.993794169","560004","602353","SFO-2002NMFDNM00350402-02-61380474X","NONFED","ST-NASF","ST/C&L","USNMNMS","New Mexico State Forestry Division","NMNMS","New Mexico - State Forestry","","61380474X","","","","","","","","2002","2002/03/02 00:00:00+00","61","1200","Human","Debris and open burning","","2002/03/04 00:00:00+00","63","","1.5","B","35.99379999","-105.93750002","MISSING/NOT SPECIFIED","NM","Santa Fe","35049","Santa Fe County"
"-105.885890087","35.557794231","560005","602354","SFO-2002NMFDNM00350402-02-61400481X","NONFED","ST-NASF","ST/C&L","USNMNMS","New Mexico State Forestry Division","NMNMS","New Mexico - State Forestry","","61400481X","","","","","","","","2002","2002/03/06 00:00:00+00","65","1219","Human","Smoking","","2002/03/08 00:00:00+00","67","","0.1","A","35.55779999","-105.88589998","MISSING/NOT SPECIFIED","NM","Santa Fe","35049","Santa Fe County"
"-106.319490077","34.499794426","560006","602355","SFO-2002NMFDNM00350402-02-61430492X","NONFED","ST-NASF","ST/C&L","USNMNMS","New Mexico State Forestry Division","NMNMS","New Mexico - State Forestry","","61430492X","","","","","","","","2002","2002/03/11 00:00:00+00","70","1000","Human","Debris and open burning","","2002/03/13 00:00:00+00","72","","86","C","34.4998","-106.31949998","MISSING/NOT SPECIFIED","NM","Torrance","35057","Torrance County"
"-105.956690114","35.52869426","560007","602356","SFO-2002NMFDNM00350402-02-61450497X","NONFED","ST-NASF","ST/C&L","USNMNMS","New Mexico State Forestry Division","NMNMS","New Mexico - State Forestry","","61450497X","","","","","","","","2002","2002/03/11 00:00:00+00","70","2200","Human","Missing data/not specified/undetermined","","2002/03/13 00:00:00+00","72","","0.1","A","35.52870001","-105.95670002","MISSING/NOT SPECIFIED","NM","Santa Fe","35049","Santa Fe County"
"-106.754589978","34.674594423","560008","602357","SFO-2002NMFDNM00350402-02-61460498X","NONFED","ST-NASF","ST/C&L","USNMNMS","New Mexico State Forestry Division","NMNMS","New Mexico - State Forestry","","61460498X","","","","","","","","2002","2002/03/08 00:00:00+00","67","2102","Human","Missing data/not specified/undetermined","","2002/03/10 00:00:00+00","69","","6","B","34.6746","-106.75459999","MISSING/NOT SPECIFIED","NM","Valencia","35061","Valencia County"
"-106.216490071","35.107094298","560009","602358","SFO-2002NMFDNM00350402-02-61470503X","NONFED","ST-NASF","ST/C&L","USNMNMS","New Mexico State Forestry Division","NMNMS","New Mexico - State Forestry","","61470503X","","","","","","","","2002","2002/03/12 00:00:00+00","71","0900","Human","Equipment and vehicle use","","2002/03/14 00:00:00+00","73","","1","B","35.10709997","-106.2165","MISSING/NOT SPECIFIED","NM","Santa Fe","35049","Santa Fe County"
"-107.166689866","35.199994367","560010","602359","SFO-2002NMFDNM00350402-02-61480504X","NONFED","ST-NASF","ST/C&L","USNMNMS","New Mexico State Forestry Division","NMNMS","New Mexico - State Forestry","","61480504X","","","","","","","","2002","2002/03/12 00:00:00+00","71","1655","Human","Missing data/not specified/undetermined","","2002/03/14 00:00:00+00","73","","1","B","35.2","-107.16670001","MISSING/NOT SPECIFIED","NM","Torrance","35057","Torrance County"
"-106.06259005","35.646994248","560011","602360","SFO-2002NMFDNM00350402-02-61540525X","NONFED","ST-NASF","ST/C&L","USNMNMS","New Mexico State Forestry Division","NMNMS","New Mexico - State Forestry","","61540525X","","","","","","","","2002","2002/03/18 00:00:00+00","77","1230","Human","Missing data/not specified/undetermined","","2002/03/20 00:00:00+00","79","","0.25","A","35.64700001","-106.06259999","MISSING/NOT SPECIFIED","NM","Santa Fe","35049","Santa Fe County"
"-106.684389981","34.834894405","560012","602361","SFO-2002NMFDNM00350402-02-61550526X","NONFED","ST-NASF","ST/C&L","USNMNMS","New Mexico State Forestry Division","NMNMS","New Mexico - State Forestry","","61550526X","","BIG TREE","","","","","","2002","2002/03/18 00:00:00+00","77","0000","Human","Debris and open burning","","2002/03/20 00:00:00+00","79","","0.5","B","34.83490001","-106.68439999","MISSING/NOT SPECIFIED","NM","Valencia","35061","Valencia County"
"-106.754589968","34.805794383","560013","602362","SFO-2002NMFDNM00350402-02-61560528X","NONFED","ST-NASF","ST/C&L","USNMNMS","New Mexico State Forestry Division","NMNMS","New Mexico - State Forestry","","61560528X","","","","","","","","2002","2002/03/19 00:00:00+00","78","1310","Human","Debris and open burning","","2002/03/21 00:00:00+00","80","","0.18","A","34.80579998","-106.75459999","MISSING/NOT SPECIFIED","NM","Valencia","35061","Valencia County"
"-106.719989971","34.977694365","560014","602363","SFO-2002NMFDNM00350402-02-61570529X","NONFED","ST-NASF","ST/C&L","USNMNMS","New Mexico State Forestry Division","NMNMS","New Mexico - State Forestry","","61570529X","","HOEFLER","","","","","","2002","2002/03/19 00:00:00+00","78","1301","Human","Debris and open burning","","2002/03/21 00:00:00+00","80","","1.5","B","34.97769999","-106.72","MISSING/NOT SPECIFIED","NM","Bernalillo","35001","Bernalillo County"
"-106.737089996","34.747494401","560015","602364","SFO-2002NMFDNM00350402-02-61580533X","NONFED","ST-NASF","ST/C&L","USNMNMS","New Mexico State Forestry Division","NMNMS","New Mexico - State Forestry","","61580533X","","SILVA","","","","","","2002","2002/03/20 00:00:00+00","79","1445","Human","Debris and open burning","","2002/03/22 00:00:00+00","81","","1","B","34.74749999","-106.73710001","MISSING/NOT SPECIFIED","NM","Valencia","35061","Valencia County"
"-106.772189957","34.761994381","560016","602365","SFO-2002NMFDNM00350402-02-61590534X","NONFED","ST-NASF","ST/C&L","USNMNMS","New Mexico State Forestry Division","NMNMS","New Mexico - State Forestry","","61590534X","","LOCK UP","","","","","","2002","2002/03/19 00:00:00+00","78","1431","Human","Debris and open burning","","2002/03/21 00:00:00+00","80","","0.1","A","34.76199997","-106.77219998","MISSING/NOT SPECIFIED","NM","Valencia","35061","Valencia County"
"-106.292490011","35.515594271","560017","602366","SFO-2002NMFDNM00350402-02-61600535X","NONFED","ST-NASF","ST/C&L","USNMNMS","New Mexico State Forestry Division","NMNMS","New Mexico - State Forestry","","61600535X","","","","","","","","2002","2002/03/20 00:00:00+00","79","0000","Human","Missing data/not specified/undetermined","","2002/03/22 00:00:00+00","81","","5","B","35.5156","-106.29249999","MISSING/NOT SPECIFIED","NM","Sandoval","35043","Sandoval County"
"-105.83289013","35.54319423","560018","602367","SFO-2002NMFDNM00350402-02-61650546X","NONFED","ST-NASF","ST/C&L","USNMNMS","New Mexico State Forestry Division","NMNMS","New Mexico - State Forestry","","61650546X","","APOLONIA","","","","","","2002","2002/03/21 00:00:00+00","80","1907","Human","Debris and open burning","","2002/03/23 00:00:00+00","82","","0.1","A","35.54319999","-105.83290001","MISSING/NOT SPECIFIED","NM","Santa Fe","35049","Santa Fe County"
"-106.146290092","35.048294333","560019","602368","SFO-2002NMFDNM00350402-02-61660547X","NONFED","ST-NASF","ST/C&L","USNMNMS","New Mexico State Forestry Division","NMNMS","New Mexico - State Forestry","","61660547X","","","","","","","","2002","2002/03/22 00:00:00+00","81","1317","Human","Missing data/not specified/undetermined","","2002/03/24 00:00:00+00","83","","2","B","35.0483","-106.1463","MISSING/NOT SPECIFIED","NM","Santa Fe","35049","Santa Fe County"
"-106.75458998","34.645394427","560020","602369","SFO-2002NMFDNM00350402-02-61780569X","NONFED","ST-NASF","ST/C&L","USNMNMS","New Mexico State Forestry Division","NMNMS","New Mexico - State Forestry","","61780569X","","CAMPBELL","","","","","","2002","2002/03/15 00:00:00+00","74","1100","Human","Missing data/not specified/undetermined","","2002/03/17 00:00:00+00","76","","1.5","B","34.6454","-106.75459999","MISSING/NOT SPECIFIED","NM","Valencia","35061","Valencia County"
"-106.614089993","34.747494394","560021","602370","SFO-2002NMFDNM00350402-02-61790570X","NONFED","ST-NASF","ST/C&L","USNMNMS","New Mexico State Forestry Division","NMNMS","New Mexico - State Forestry","","61790570X","","LOMA","","","","","","2002","2002/03/16 00:00:00+00","75","1230","Human","Missing data/not specified/undetermined","","2002/03/18 00:00:00+00","77","","15","C","34.74749999","-106.61409998","MISSING/NOT SPECIFIED","NM","Valencia","35061","Valencia County"
"-106.701890007","34.834894406","560022","602371","SFO-2002NMFDNM00350402-02-61800571X","NONFED","ST-NASF","ST/C&L","USNMNMS","New Mexico State Forestry Division","NMNMS","New Mexico - State Forestry","","61800571X","","ALGODONES2","","","","","","2002","2002/03/16 00:00:00+00","75","1333","Human","Debris and open burning","","2002/03/18 00:00:00+00","77","","1","B","34.83490001","-106.70190002","MISSING/NOT SPECIFIED","NM","Valencia","35061","Valencia County"
"-106.701890007","34.834894406","560023","602372","SFO-2002NMFDNM00350402-02-61810572X","NONFED","ST-NASF","ST/C&L","USNMNMS","New Mexico State Forestry Division","NMNMS","New Mexico - State Forestry","","61810572X","","VALENCIA","","","","","","2002","2002/03/16 00:00:00+00","75","1410","Human","Debris and open burning","","2002/03/18 00:00:00+00","77","","8","B","34.83490001","-106.70190002","MISSING/NOT SPECIFIED","NM","Valencia","35061","Valencia County"
"-106.737089997","34.732894403","560024","602373","SFO-2002NMFDNM00350402-02-61820573X","NONFED","ST-NASF","ST/C&L","USNMNMS","New Mexico State Forestry Division","NMNMS","New Mexico - State Forestry","","61820573X","","CAMINO","","","","","","2002","2002/03/16 00:00:00+00","75","1435","Human","Debris and open burning","","2002/03/18 00:00:00+00","77","","10","C","34.73289999","-106.73710001","MISSING/NOT SPECIFIED","NM","Valencia","35061","Valencia County"
"-106.77278994","34.977694368","560025","602375","SFO-2002NMFDNM00350402-02-61850577X","NONFED","ST-NASF","ST/C&L","USNMNMS","New Mexico State Forestry Division","NMNMS","New Mexico - State Forestry","","61850577X","","COKER","","","","","","2002","2002/03/26 00:00:00+00","85","1247","Human","Equipment and vehicle use","","2002/03/28 00:00:00+00","87","","0.25","A","34.97769999","-106.77279998","MISSING/NOT SPECIFIED","NM","Bernalillo","35001","Bernalillo County"
"-106.12879012","34.989494321","560026","602376","SFO-2002NMFDNM00350402-02-61860578X","NONFED","ST-NASF","ST/C&L","USNMNMS","New Mexico State Forestry Division","NMNMS","New Mexico - State Forestry","","61860578X","","LITTLE CLOUD","","","","","","2002","2002/03/26 00:00:00+00","85","1220","Human","Missing data/not specified/undetermined","","2002/03/28 00:00:00+00","87","","2","B","34.98949998","-106.12880002","MISSING/NOT SPECIFIED","NM","Torrance","35057","Torrance County"
"-106.666789996","34.820394376","560027","602377","SFO-2002NMFDNM00350402-02-61880583X","NONFED","ST-NASF","ST/C&L","USNMNMS","New Mexico State Forestry Division","NMNMS","New Mexico - State Forestry","","61880583X","","HYDE","","","","","","2002","2002/03/27 00:00:00+00","86","1335","Human","Debris and open burning","","2002/03/29 00:00:00+00","88","","1","B","34.82039998","-106.6668","MISSING/NOT SPECIFIED","NM","Valencia","35061","Valencia County"
"-106.666789996","34.820394376","560028","602378","SFO-2002NMFDNM00350402-02-61890584X","NONFED","ST-NASF","ST/C&L","USNMNMS","New Mexico State Forestry Division","NMNMS","New Mexico - State Forestry","","61890584X","","NEWBOOT","","","","","","2002","2002/03/27 00:00:00+00","86","1424","Human","Debris and open burning","","2002/03/29 00:00:00+00","88","","4","B","34.82039998","-106.6668","MISSING/NOT SPECIFIED","NM","Valencia","35061","Valencia County"
"-106.441790072","34.485194435","560029","602379","SFO-2002NMFDNM00350402-02-61900586X","NONFED","ST-NASF","ST/C&L","USNMNMS","New Mexico State Forestry Division","NMNMS","New Mexico - State Forestry","","61900586X","","LOMA PARDA","","","","","","2002","2002/03/28 00:00:00+00","87","0030","Human","Debris and open burning","","2002/03/30 00:00:00+00","89","","1","B","34.4852","-106.4418","MISSING/NOT SPECIFIED","NM","Torrance","35057","Torrance County"
"-106.719989973","34.963094367","560030","602380","SFO-2002NMFDNM00350402-02-61910587X","NONFED","ST-NASF","ST/C&L","USNMNMS","New Mexico State Forestry Division","NMNMS","New Mexico - State Forestry","","61910587X","","VALLEY GRAND","","","","","","2002","2002/03/27 00:00:00+00","86","1830","Human","Equipment and vehicle use","","2002/03/29 00:00:00+00","88","","0.5","B","34.96309999","-106.72","MISSING/NOT SPECIFIED","NM","Bernalillo","35001","Bernalillo County"
"-106.702389976","34.963094366","560031","602381","SFO-2002NMFDNM00350402-02-61930590X","NONFED","ST-NASF","ST/C&L","USNMNMS","New Mexico State Forestry Division","NMNMS","New Mexico - State Forestry","","61930590X","","","","","","","","2002","2002/03/28 00:00:00+00","87","1234","Human","Debris and open burning","","2002/03/30 00:00:00+00","89","","6","B","34.96309999","-106.7024","MISSING/NOT SPECIFIED","NM","Bernalillo","35001","Bernalillo County"
"-106.910789969","34.741384401","560032","602383","SFO-2002NMFDNM00350402-02-61960596X","NONFED","ST-NASF","ST/C&L","USNMNMS","New Mexico State Forestry Division","NMNMS","New Mexico - State Forestry","","61960596X","","P-ONS","","","","","","2002","2002/03/28 00:00:00+00","87","1450","Human","Debris and open burning","","2002/03/30 00:00:00+00","89","","0.1","A","34.74138998","-106.91080002","MISSING/NOT SPECIFIED","NM","Valencia","35061","Valencia County"
"-106.70189001","34.791194372","560033","602384","SFO-2002NMFDNM00350402-02-61980601X","NONFED","ST-NASF","ST/C&L","USNMNMS","New Mexico State Forestry Division","NMNMS","New Mexico - State Forestry","","61980601X","","JJ","","","","","","2002","2002/03/13 00:00:00+00","72","1332","Human","Debris and open burning","","2002/03/15 00:00:00+00","74","","3","B","34.79119997","-106.70190002","MISSING/NOT SPECIFIED","NM","Valencia","35061","Valencia County"
"-106.754589978","34.674594423","560034","602385","SFO-2002NMFDNM00350402-02-61990602X","NONFED","ST-NASF","ST/C&L","USNMNMS","New Mexico State Forestry Division","NMNMS","New Mexico - State Forestry","","61990602X","","NEW HOUSE","","","","","","2002","2002/03/21 00:00:00+00","80","1411","Human","Debris and open burning","","2002/03/23 00:00:00+00","82","","1","B","34.6746","-106.75459999","MISSING/NOT SPECIFIED","NM","Valencia","35061","Valencia County"
"-106.684389982","34.818884367","560035","602386","SFO-2002NMFDNM00350402-02-62000603X","NONFED","ST-NASF","ST/C&L","USNMNMS","New Mexico State Forestry Division","NMNMS","New Mexico - State Forestry","","62000603X","","EMPTY TANK","","","","","","2002","2002/04/09 00:00:00+00","99","1215","Human","Debris and open burning","","2002/04/11 00:00:00+00","101","","12","C","34.81888997","-106.68439999","MISSING/NOT SPECIFIED","NM","Valencia","35061","Valencia County"
"-106.097890061","35.427994273","560036","602388","SFO-2002NMFDNM00350402-02-62030609X","NONFED","ST-NASF","ST/C&L","USNMNMS","New Mexico State Forestry Division","NMNMS","New Mexico - State Forestry","","62030609X","","GALISTEO","","","","","","2002","2002/04/01 00:00:00+00","91","1445","Human","Missing data/not specified/undetermined","","2002/04/03 00:00:00+00","93","","3","B","35.428","-106.09789999","MISSING/NOT SPECIFIED","NM","Santa Fe","35049","Santa Fe County"
"-106.737089998","34.718294405","560037","602389","SFO-2002NMFDNM00350402-02-62050612X","NONFED","ST-NASF","ST/C&L","USNMNMS","New Mexico State Forestry Division","NMNMS","New Mexico - State Forestry","","62050612X","","BONITO","","","","","","2002","2002/04/01 00:00:00+00","91","1430","Human","Debris and open burning","","2002/04/03 00:00:00+00","93","","3","B","34.71829999","-106.73710001","MISSING/NOT SPECIFIED","NM","Valencia","35061","Valencia County"
"-106.044390053","35.661794225","560038","602390","SFO-2002NMFDNM00350402-02-62060613X","NONFED","ST-NASF","ST/C&L","USNMNMS","New Mexico State Forestry Division","NMNMS","New Mexico - State Forestry","","62060613X","","ARTISON","","","","","","2002","2002/03/29 00:00:00+00","88","2139","Human","Debris and open burning","","2002/03/31 00:00:00+00","90","","0.1","A","35.66179999","-106.04439999","MISSING/NOT SPECIFIED","NM","Santa Fe","35049","Santa Fe County"
"-106.737089997","34.732894403","560039","602391","SFO-2002NMFDNM00350402-02-62070615X","NONFED","ST-NASF","ST/C&L","USNMNMS","New Mexico State Forestry Division","NMNMS","New Mexico - State Forestry","","62070615X","","SEDILLO","","","","","","2002","2002/04/02 00:00:00+00","92","1515","Human","Debris and open burning","","2002/04/04 00:00:00+00","94","","2","B","34.73289999","-106.73710001","MISSING/NOT SPECIFIED","NM","Valencia","35061","Valencia County"
"-106.061990029","35.891994201","560040","602392","SFO-2002NMFDNM00350402-02-62080619X","NONFED","ST-NASF","ST/C&L","USNMNMS","New Mexico State Forestry Division","NMNMS","New Mexico - State Forestry","","62080619X","","JACONA","","","","","","2002","2002/03/29 00:00:00+00","88","1543","Human","Arson/incendiarism","","2002/03/31 00:00:00+00","90","","0.25","A","35.892","-106.06199999","MISSING/NOT SPECIFIED","NM","Santa Fe","35049","Santa Fe County"
"-105.956690113","35.543194237","560041","602393","SFO-2002NMFDNM00350402-02-62090626X","NONFED","ST-NASF","ST/C&L","USNMNMS","New Mexico State Forestry Division","NMNMS","New Mexico - State Forestry","","62090626X","","AZULCOR","","","","","","2002","2002/04/06 00:00:00+00","96","1029","Human","Equipment and vehicle use","","2002/04/08 00:00:00+00","98","","0.18","A","35.54319999","-105.95670002","MISSING/NOT SPECIFIED","NM","Santa Fe","35049","Santa Fe County"
"-106.009390041","35.892094218","560042","602394","SFO-2002NMFDNM00350402-02-62100628X","NONFED","ST-NASF","ST/C&L","USNMNMS","New Mexico State Forestry Division","NMNMS","New Mexico - State Forestry","","62100628X","","RINCON","","","","","","2002","2002/04/04 00:00:00+00","94","1911","Human","Smoking","","2002/04/06 00:00:00+00","96","","1","B","35.89210002","-106.00939999","MISSING/NOT SPECIFIED","NM","Santa Fe","35049","Santa Fe County"
"-106.727489966","34.770554417","560043","602395","SFO-2002NMFDNM00350402-02-62110629X","NONFED","ST-NASF","ST/C&L","USNMNMS","New Mexico State Forestry Division","NMNMS","New Mexico - State Forestry","","62110629X","","SOLOMON","","","","","","2002","2002/04/04 00:00:00+00","94","1115","Human","Debris and open burning","","2002/04/06 00:00:00+00","96","","0.25","A","34.77056001","-106.72749998","MISSING/NOT SPECIFIED","NM","Valencia","35061","Valencia County"
"-106.332090093","34.645194424","560044","602396","SFO-2002NMFDNM00350402-02-62140635X","NONFED","ST-NASF","ST/C&L","USNMNMS","New Mexico State Forestry Division","NMNMS","New Mexico - State Forestry","","62140635X","","SAM","","","","","","2002","2002/04/06 00:00:00+00","96","0950","Human","Debris and open burning","","2002/04/08 00:00:00+00","98","","0.25","A","34.64520002","-106.33210001","MISSING/NOT SPECIFIED","NM","Torrance","35057","Torrance County"
"-106.297090092","34.630794405","560045","602397","SFO-2002NMFDNM00350402-02-62150643X","NONFED","ST-NASF","ST/C&L","USNMNMS","New Mexico State Forestry Division","NMNMS","New Mexico - State Forestry","","62150643X","","","","","","","","2002","2002/04/08 00:00:00+00","98","1552","Human","Missing data/not specified/undetermined","","2002/04/10 00:00:00+00","100","","0.25","A","34.6308","-106.2971","MISSING/NOT SPECIFIED","NM","Torrance","35057","Torrance County"
"-106.599989987","35.229994311","560046","602398","SFO-2002NMFDNM00350402-02-62310683X","NONFED","ST-NASF","ST/C&L","USNMNMS","New Mexico State Forestry Division","NMNMS","New Mexico - State Forestry","","62310683X","","GROUNDHOG","","","","","","2002","2002/04/17 00:00:00+00","107","1956","Human","Equipment and vehicle use","","2002/04/19 00:00:00+00","109","","1.5","B","35.22999998","-106.60000001","MISSING/NOT SPECIFIED","NM","Sandoval","35043","Sandoval County"
"-105.999990196","33.999994497","560047","602399","SFO-2002NMFDNM00350402-02-62320687X","NONFED","ST-NASF","ST/C&L","USNMNMS","New Mexico State Forestry Division","NMNMS","New Mexico - State Forestry","","62320687X","","RICE","","","","","","2002","2002/04/19 00:00:00+00","109","0959","Human","Debris and open burning","","2002/04/21 00:00:00+00","111","","0.25","A","34.00000001","-105.99999999","MISSING/NOT SPECIFIED","NM","Valencia","35061","Valencia County"
"-105.999990196","33.999994497","560048","602400","SFO-2002NMFDNM00350402-02-62350699X","NONFED","ST-NASF","ST/C&L","USNMNMS","New Mexico State Forestry Division","NMNMS","New Mexico - State Forestry","","62350699X","","REBAR","","","","","","2002","2002/04/21 00:00:00+00","111","1427","Human","Debris and open burning","","2002/04/23 00:00:00+00","113","","0.1","A","34.00000001","-105.99999999","MISSING/NOT SPECIFIED","NM","Valencia","35061","Valencia County"
"-105.999990118","34.999994342","560049","602401","SFO-2002NMFDNM00350402-02-62370701N","NONFED","ST-NASF","ST/C&L","USNMNMS","New Mexico State Forestry Division","NMNMS","New Mexico - State Forestry","","62370701N","","HAY","","","","","","2002","2002/04/21 00:00:00+00","111","1545","Human","Misuse of fire by a minor","Minor","2002/04/23 00:00:00+00","113","","0.25","A","35.00000001","-105.99999999","MISSING/NOT SPECIFIED","NM","Sandoval","35043","Sandoval County"
"-106.439990072","34.479994435","560050","602402","SFO-2002NMFDNM00350402-02-62410725X","NONFED","ST-NASF","ST/C&L","USNMNMS","New Mexico State Forestry Division","NMNMS","New Mexico - State Forestry","","62410725X","","ROLLOFF","","","","","","2002","2002/04/23 00:00:00+00","113","1320","Human","Missing data/not specified/undetermined","","2002/04/25 00:00:00+00","115","","0.1","A","34.48","-106.44","MISSING/NOT SPECIFIED","NM","Valencia","35061","Valencia County"
"-106.389990015","35.08999435","560051","602403","SFO-2002NMFDNM00350402-02-62480753X","NONFED","ST-NASF","ST/C&L","USNMNMS","New Mexico State Forestry Division","NMNMS","New Mexico - State Forestry","","62480753X","","WASHINGTON","","","","","","2002","2002/04/30 00:00:00+00","120","1830","Human","Recreation and ceremony","","2002/05/02 00:00:00+00","122","","98","C","35.09000001","-106.38999998","MISSING/NOT SPECIFIED","NM","Bernalillo","35001","Bernalillo County"
"-105.953290096","35.635554243","560052","602404","SFO-2002NMFDNM00350402-02-62520765X","NONFED","ST-NASF","ST/C&L","USNMNMS","New Mexico State Forestry Division","NMNMS","New Mexico - State Forestry","","62520765X","","ST FRANCIS","","","","","","2002","2002/05/02 00:00:00+00","122","1400","Human","Recreation and ceremony","","2002/05/04 00:00:00+00","124","","0.1","A","35.63556001","-105.95330001","MISSING/NOT SPECIFIED","NM","Santa Fe","35049","Santa Fe County"
"-106.673589999","35.011104358","560053","602405","SFO-2002NMFDNM00350402-02-62590784X","NONFED","ST-NASF","ST/C&L","USNMNMS","New Mexico State Forestry Division","NMNMS","New Mexico - State Forestry","","62590784X","","POCO LOCO","","","","","","2002","2002/05/08 00:00:00+00","128","1600","Human","Missing data/not specified/undetermined","","2002/05/10 00:00:00+00","130","","6","B","35.01110999","-106.67360002","MISSING/NOT SPECIFIED","NM","Bernalillo","35001","Bernalillo County"
"-105.999990196","33.999994497","560054","602407","SFO-2002NMFDNM00350402-02-62850868X","NONFED","ST-NASF","ST/C&L","USNMNMS","New Mexico State Forestry Division","NMNMS","New Mexico - State Forestry","","62850868X","","SARAFIN","","","","","","2002","2002/05/22 00:00:00+00","142","1900","Human","Debris and open burning","","2002/05/24 00:00:00+00","144","","0.25","A","34.00000001","-105.99999999","MISSING/NOT SPECIFIED","NM","Valencia","35061","Valencia County"
"-105.999990196","33.999994497","560055","602408","SFO-2002NMFDNM00350402-02-62860873X","NONFED","ST-NASF","ST/C&L","USNMNMS","New Mexico State Forestry Division","NMNMS","New Mexico - State Forestry","","62860873X","","CARRIJO","","","","","","2002","2002/05/25 00:00:00+00","145","1812","Human","Debris and open burning","","2002/05/27 00:00:00+00","147","","0.1","A","34.00000001","-105.99999999","MISSING/NOT SPECIFIED","NM","Valencia","35061","Valencia County"
"-105.999990196","33.999994497","560056","602409","SFO-2002NMFDNM00350402-02-62870877X","NONFED","ST-NASF","ST/C&L","USNMNMS","New Mexico State Forestry Division","NMNMS","New Mexico - State Forestry","","62870877X","","HOB","","","","","","2002","2002/05/24 00:00:00+00","144","0845","Human","Equipment and vehicle use","","2002/05/26 00:00:00+00","146","","0.5","B","34.00000001","-105.99999999","MISSING/NOT SPECIFIED","NM","Valencia","35061","Valencia County"
"-105.999990196","33.999994497","560057","602410","SFO-2002NMFDNM00350402-02-63051013X","NONFED","ST-NASF","ST/C&L","USNMNMS","New Mexico State Forestry Division","NMNMS","New Mexico - State Forestry","","63051013X","","CROWNOVER","","","","","","2002","2002/06/08 00:00:00+00","159","1815","Human","Missing data/not specified/undetermined","","2002/06/10 00:00:00+00","161","","0.5","B","34.00000001","-105.99999999","MISSING/NOT SPECIFIED","NM","Torrance","35057","Torrance County"
"-106.204190059","35.523194264","560058","602411","SFO-2002NMFDNM00350402-02-63061017X","NONFED","ST-NASF","ST/C&L","USNMNMS","New Mexico State Forestry Division","NMNMS","New Mexico - State Forestry","","63061017X","","BERT","","","","","","2002","2002/06/09 00:00:00+00","160","1025","Human","Missing data/not specified/undetermined","","2002/06/11 00:00:00+00","162","","0.1","A","35.5232","-106.20420002","MISSING/NOT SPECIFIED","NM","Santa Fe","35049","Santa Fe County"
"-106.617589986","35.193894337","560059","602412","SFO-2002NMFDNM00350402-02-63071018X","NONFED","ST-NASF","ST/C&L","USNMNMS","New Mexico State Forestry Division","NMNMS","New Mexico - State Forestry","","63071018X","","239","","","","","","2002","2002/06/08 00:00:00+00","159","1815","Human","Missing data/not specified/undetermined","","2002/06/10 00:00:00+00","161","","0.1","A","35.1939","-106.61760001","MISSING/NOT SPECIFIED","NM","Bernalillo","35001","Bernalillo County"
"-106.891389925","34.842774405","560060","602413","SFO-2002NMFDNM00350402-02-63081022X","NONFED","ST-NASF","ST/C&L","USNMNMS","New Mexico State Forestry Division","NMNMS","New Mexico - State Forestry","","63081022X","","DA","","","","","","2002","2002/06/10 00:00:00+00","161","1400","Human","Missing data/not specified/undetermined","","2002/06/12 00:00:00+00","163","","0.1","A","34.84278","-106.89139998","MISSING/NOT SPECIFIED","NM","Valencia","35061","Valencia County"
"-106.645289994","35.022494374","560061","602414","SFO-2002NMFDNM00350402-02-63091023X","NONFED","ST-NASF","ST/C&L","USNMNMS","New Mexico State Forestry Division","NMNMS","New Mexico - State Forestry","","63091023X","","VEGA","","","","","","2002","2002/06/08 00:00:00+00","159","1615","Human","Equipment and vehicle use","","2002/06/10 00:00:00+00","161","","0.1","A","35.02250001","-106.64530001","MISSING/NOT SPECIFIED","NM","Valencia","35061","Valencia County"
"-105.999990118","34.999994342","560062","602415","SFO-2002NMFDNM00350402-02-63101033X","NONFED","ST-NASF","ST/C&L","USNMNMS","New Mexico State Forestry Division","NMNMS","New Mexico - State Forestry","","63101033X","","PAJARITO MES","","","","","","2002","2002/06/11 00:00:00+00","162","1800","Human","Arson/incendiarism","","2002/06/13 00:00:00+00","164","","888","E","35.00000001","-105.99999999","MISSING/NOT SPECIFIED","NM","Bernalillo","35001","Bernalillo County"
"-106.903089914","35.310544346","560063","602416","SFO-2002NMFDNM00350402-02-63111034X","NONFED","ST-NASF","ST/C&L","USNMNMS","New Mexico State Forestry Division","NMNMS","New Mexico - State Forestry","","63111034X","","NORTH EAGLE","","","","","","2002","2002/06/11 00:00:00+00","162","1930","Human","Arson/incendiarism","","2002/06/13 00:00:00+00","164","","0.1","A","35.31055001","-106.90310001","MISSING/NOT SPECIFIED","NM","Sandoval","35043","Sandoval County"
"-106.226890048","35.480294272","560064","602417","SFO-2002NMFDNM00350402-02-63121044X","NONFED","ST-NASF","ST/C&L","USNMNMS","New Mexico State Forestry Division","NMNMS","New Mexico - State Forestry","","63121044X","","LAGUNITAS","","","","","","2002","2002/06/11 00:00:00+00","162","1445","Human","Missing data/not specified/undetermined","","2002/06/13 00:00:00+00","164","","7","B","35.4803","-106.22690001","MISSING/NOT SPECIFIED","NM","Santa Fe","35049","Santa Fe County"
"-106.877489924","35.13804435","560065","602418","SFO-2002NMFDNM00350402-02-63131045X","NONFED","ST-NASF","ST/C&L","USNMNMS","New Mexico State Forestry Division","NMNMS","New Mexico - State Forestry","","63131045X","","IB49","","","","","","2002","2002/06/13 00:00:00+00","164","1130","Human","Debris and open burning","","2002/06/15 00:00:00+00","166","","0.1","A","35.13804999","-106.8775","MISSING/NOT SPECIFIED","NM","Bernalillo","35001","Bernalillo County"
"-106.690290004","34.775544384","560066","602419","SFO-2002NMFDNM00350402-02-63141048X","NONFED","ST-NASF","ST/C&L","USNMNMS","New Mexico State Forestry Division","NMNMS","New Mexico - State Forestry","","63141048X","","WELDING","","","","","","2002","2002/06/13 00:00:00+00","164","1240","Human","Equipment and vehicle use","","2002/06/15 00:00:00+00","166","","0.1","A","34.77554998","-106.69030001","MISSING/NOT SPECIFIED","NM","Valencia","35061","Valencia County"
"-106.616889957","35.303604311","560067","602420","SFO-2002NMFDNM00350402-02-63161059X","NONFED","ST-NASF","ST/C&L","USNMNMS","New Mexico State Forestry Division","NMNMS","New Mexico - State Forestry","","63161059X","","JEEP","","","","","","2002","2002/06/15 00:00:00+00","166","1720","Human","Equipment and vehicle use","","2002/06/17 00:00:00+00","168","","0.1","A","35.30360999","-106.61689999","MISSING/NOT SPECIFIED","NM","Bernalillo","35001","Bernalillo County"
"-106.622490016","34.811664375","560068","602421","SFO-2002NMFDNM00350402-02-63171060X","NONFED","ST-NASF","ST/C&L","USNMNMS","New Mexico State Forestry Division","NMNMS","New Mexico - State Forestry","","63171060X","","SPORTSMAN","","","","","","2002","2002/06/15 00:00:00+00","166","1640","Human","Missing data/not specified/undetermined","","2002/06/17 00:00:00+00","168","","0.5","B","34.81166998","-106.62250001","MISSING/NOT SPECIFIED","NM","Valencia","35061","Valencia County"
"-106.824389968","34.860544399","560069","602422","SFO-2002NMFDNM00350402-02-63181061X","NONFED","ST-NASF","ST/C&L","USNMNMS","New Mexico State Forestry Division","NMNMS","New Mexico - State Forestry","","63181061X","","SAILCAT","","","","","","2002","2002/06/16 00:00:00+00","167","1400","Human","Equipment and vehicle use","","2002/06/18 00:00:00+00","169","","0.1","A","34.86055","-106.82440001","MISSING/NOT SPECIFIED","NM","Valencia","35061","Valencia County"
"-106.749989976","34.583324446","560070","602423","SFO-2002NMFDNM00350402-02-63191065X","NONFED","ST-NASF","ST/C&L","USNMNMS","New Mexico State Forestry Division","NMNMS","New Mexico - State Forestry","","63191065X","","SANCHEZ","","","","","","2002","2002/06/17 00:00:00+00","168","1220","Human","Debris and open burning","","2002/06/19 00:00:00+00","170","","0.1","A","34.58333001","-106.74999998","MISSING/NOT SPECIFIED","NM","Valencia","35061","Valencia County"
"-105.999990196","33.999994497","560071","602424","SFO-2002NMFDNM00350402-02-63201066X","NONFED","ST-NASF","ST/C&L","USNMNMS","New Mexico State Forestry Division","NMNMS","New Mexico - State Forestry","","63201066X","","VICENTE","","","","","","2002","2002/06/17 00:00:00+00","168","1445","Human","Missing data/not specified/undetermined","","2002/06/19 00:00:00+00","170","","0.1","A","34.00000001","-105.99999999","MISSING/NOT SPECIFIED","NM","Valencia","35061","Valencia County"
"-106.676289987","35.031294375","560072","602425","SFO-2002NMFDNM00350402-02-63211068X","NONFED","ST-NASF","ST/C&L","USNMNMS","New Mexico State Forestry Division","NMNMS","New Mexico - State Forestry","","63211068X","","VALLEY","","","","","","2002","2002/06/18 00:00:00+00","169","2006","Human","Missing data/not specified/undetermined","","2002/06/20 00:00:00+00","171","","0.1","A","35.03130001","-106.67630001","MISSING/NOT SPECIFIED","NM","Bernalillo","35001","Bernalillo County"
"-106.459890065","34.772094372","560073","602426","SFO-2002NMFDNM00350402-02-63221070X","NONFED","ST-NASF","ST/C&L","USNMNMS","New Mexico State Forestry Division","NMNMS","New Mexico - State Forestry","","63221070X","","ENTRADA 2","","","","","","2002","2002/06/18 00:00:00+00","169","2115","Human","Debris and open burning","","2002/06/20 00:00:00+00","171","","0.5","B","34.77209998","-106.45990002","MISSING/NOT SPECIFIED","NM","Valencia","35061","Valencia County"
"-106.543090034","34.801394392","560074","602427","SFO-2002NMFDNM00350402-02-63231071X","NONFED","ST-NASF","ST/C&L","USNMNMS","New Mexico State Forestry Division","NMNMS","New Mexico - State Forestry","","63231071X","","BONITA  LOOP","","","","","","2002","2002/06/18 00:00:00+00","169","2205","Human","Debris and open burning","","2002/06/20 00:00:00+00","171","","0.1","A","34.8014","-106.54310001","MISSING/NOT SPECIFIED","NM","Valencia","35061","Valencia County"
"-106.267490038","35.129714327","560075","602429","SFO-2002NMFDNM00350402-02-63261082X","NONFED","ST-NASF","ST/C&L","USNMNMS","New Mexico State Forestry Division","NMNMS","New Mexico - State Forestry","","63261082X","","DINKLE RD.","","","","","","2002","2002/06/20 00:00:00+00","171","1305","Natural","Natural","","2002/06/22 00:00:00+00","173","","1.5","B","35.12972","-106.26749998","MISSING/NOT SPECIFIED","NM","Santa Fe","35049","Santa Fe County"
"-105.432490263","35.141384289","560076","602432","SFO-2002NMFDNM00350402-02-63301103X","NONFED","ST-NASF","ST/C&L","USNMNMS","New Mexico State Forestry Division","NMNMS","New Mexico - State Forestry","","63301103X","","HAZMAT","","","","","","2002","2002/06/21 00:00:00+00","172","1130","Human","Equipment and vehicle use","","2002/06/23 00:00:00+00","174","","1","B","35.14139001","-105.43250002","MISSING/NOT SPECIFIED","NM","Torrance","35057","Torrance County"
"-107.422589773","35.400994362","560077","602437","SFO-2002NMFDNM00350402-02-63351110X","NONFED","ST-NASF","ST/C&L","USNMNMS","New Mexico State Forestry Division","NMNMS","New Mexico - State Forestry","","63351110X","","GROVE","","","","","","2002","2002/06/22 00:00:00+00","173","1552","Natural","Natural","","2002/06/24 00:00:00+00","175","","1","B","35.40100001","-107.42259999","MISSING/NOT SPECIFIED","NM","McKinley","35031","McKinley County"
"-106.288290076","34.860274339","560078","602440","SFO-2002NMFDNM00350402-02-63381121X","NONFED","ST-NASF","ST/C&L","USNMNMS","New Mexico State Forestry Division","NMNMS","New Mexico - State Forestry","","63381121X","","NORTH END","","","","","","2002","2002/06/23 00:00:00+00","174","1347","Natural","Natural","","2002/06/25 00:00:00+00","176","","2","B","34.86027997","-106.2883","MISSING/NOT SPECIFIED","NM","Torrance","35057","Torrance County"
"-107.341389789","35.306944371","560079","602441","SFO-2002NMFDNM00350402-02-63391129X","NONFED","ST-NASF","ST/C&L","USNMNMS","New Mexico State Forestry Division","NMNMS","New Mexico - State Forestry","","63391129X","","DIABLO","","","","","","2002","2002/06/24 00:00:00+00","175","1627","Natural","Natural","","2002/06/26 00:00:00+00","177","","26","C","35.30695001","-107.34139998","MISSING/NOT SPECIFIED","NM","Cibola","35006","Cibola County"
"-106.190790101","35.061394343","560080","602442","SFO-2002NMFDNM00350402-02-63401134X","NONFED","ST-NASF","ST/C&L","USNMNMS","New Mexico State Forestry Division","NMNMS","New Mexico - State Forestry","","63401134X","","BRAD COURT","","","","","","2002","2002/06/24 00:00:00+00","175","1939","Human","Misuse of fire by a minor","Minor","2002/06/26 00:00:00+00","177","","0.5","B","35.06140001","-106.19080002","MISSING/NOT SPECIFIED","NM","Santa Fe","35049","Santa Fe County"
"-106.954389821","36.019094235","560081","602443","SFO-2002NMFDNM00350402-02-63411135X","NONFED","ST-NASF","ST/C&L","USNMNMS","New Mexico State Forestry Division","NMNMS","New Mexico - State Forestry","","63411135X","","TREE","","","","","","2002","2002/06/21 00:00:00+00","172","2253","Natural","Natural","","2002/06/23 00:00:00+00","174","","0.1","A","36.0191","-106.95439999","MISSING/NOT SPECIFIED","NM","Sandoval","35043","Sandoval County"
"-106.263090075","35.062774317","560082","602444","SFO-2002NMFDNM00350402-02-63421139X","NONFED","ST-NASF","ST/C&L","USNMNMS","New Mexico State Forestry Division","NMNMS","New Mexico - State Forestry","","63421139X","","ADAMS","","","","","","2002","2002/06/25 00:00:00+00","176","1849","Human","Missing data/not specified/undetermined","","2002/06/27 00:00:00+00","178","","5","B","35.06277998","-106.26310001","MISSING/NOT SPECIFIED","NM","Torrance","35057","Torrance County"
"-105.668590201","35.009394323","560083","602445","SFO-2002NMFDNM00350402-02-63431143X","NONFED","ST-NASF","ST/C&L","USNMNMS","New Mexico State Forestry Division","NMNMS","New Mexico - State Forestry","","63431143X","","DOROTHEA","","","","","","2002","2002/06/26 00:00:00+00","177","1433","Human","Equipment and vehicle use","","2002/06/28 00:00:00+00","179","","0.25","A","35.00940001","-105.6686","MISSING/NOT SPECIFIED","NM","Torrance","35057","Torrance County"
"-106.736389975","34.767214398","560084","602446","SFO-2002NMFDNM00350402-02-63441144X","NONFED","ST-NASF","ST/C&L","USNMNMS","New Mexico State Forestry Division","NMNMS","New Mexico - State Forestry","","63441144X","","MID","","","","","","2002","2002/06/26 00:00:00+00","177","1500","Human","Missing data/not specified/undetermined","","2002/06/28 00:00:00+00","179","","2","B","34.76721999","-106.73639999","MISSING/NOT SPECIFIED","NM","Valencia","35061","Valencia County"
"-106.291690077","34.963894324","560085","602448","SFO-2002NMFDNM00350402-02-63461168X","NONFED","ST-NASF","ST/C&L","USNMNMS","New Mexico State Forestry Division","NMNMS","New Mexico - State Forestry","","63461168X","","MEDIO 2","","","","","","2002","2002/06/29 00:00:00+00","180","1015","Natural","Natural","","2002/07/01 00:00:00+00","182","","0.5","B","34.96389997","-106.29170001","MISSING/NOT SPECIFIED","NM","Torrance","35057","Torrance County"
"-105.638690216","34.652794386","560086","602449","SFO-2002NMFDNM00350402-02-63481170X","NONFED","ST-NASF","ST/C&L","USNMNMS","New Mexico State Forestry Division","NMNMS","New Mexico - State Forestry","","63481170X","","HARRELL","","","","","","2002","2002/06/29 00:00:00+00","180","1540","Natural","Natural","","2002/07/01 00:00:00+00","182","","40","C","34.65280002","-105.63869998","MISSING/NOT SPECIFIED","NM","Torrance","35057","Torrance County"
"-106.393190087","34.427694441","560087","602450","SFO-2002NMFDNM00350402-02-63501174X","NONFED","ST-NASF","ST/C&L","USNMNMS","New Mexico State Forestry Division","NMNMS","New Mexico - State Forestry","","63501174X","","ROSE","","","","","","2002","2002/06/29 00:00:00+00","180","1345","Human","Arson/incendiarism","","2002/07/01 00:00:00+00","182","","0.1","A","34.4277","-106.3932","MISSING/NOT SPECIFIED","NM","Valencia","35061","Valencia County"
"-106.393190087","34.427694441","560088","602451","SFO-2002NMFDNM00350402-02-63511180X","NONFED","ST-NASF","ST/C&L","USNMNMS","New Mexico State Forestry Division","NMNMS","New Mexico - State Forestry","","63511180X","","GLOVER","","","","","","2002","2002/06/30 00:00:00+00","181","1400","Natural","Natural","","2002/07/02 00:00:00+00","183","","4","B","34.4277","-106.3932","MISSING/NOT SPECIFIED","NM","Torrance","35057","Torrance County"
"-106.348889907","36.861664066","560089","602452","SFO-2002NMFDNM00350402-03-10050042X","NONFED","ST-NASF","ST/C&L","USNMNMS","New Mexico State Forestry Division","NMNMS","New Mexico - State Forestry","","10050042X","","STEWART","","","","","","2002","2002/07/06 00:00:00+00","187","1430","Natural","Natural","","2002/07/08 00:00:00+00","189","","0.1","A","36.86166999","-106.34890002","MISSING/NOT SPECIFIED","NM","Rio Arriba","35039","Rio Arriba County"
"-106.751389799","36.954434077","560090","602460","SFO-2002NMFDNM00350402-03-10150067X","NONFED","ST-NASF","ST/C&L","USNMNMS","New Mexico State Forestry Division","NMNMS","New Mexico - State Forestry","","10150067X","","GONZALES","","","","","","2002","2002/07/09 00:00:00+00","190","1518","Natural","Natural","","2002/07/11 00:00:00+00","192","","2","B","36.95443999","-106.75140001","MISSING/NOT SPECIFIED","NM","Rio Arriba","35039","Rio Arriba County"
"-106.630289826","36.852494095","560091","602461","SFO-2002NMFDNM00350402-03-10160072X","NONFED","ST-NASF","ST/C&L","USNMNMS","New Mexico State Forestry Division","NMNMS","New Mexico - State Forestry","","10160072X","","KURTH","","","","","","2002","2002/07/09 00:00:00+00","190","1950","Natural","Natural","","2002/07/11 00:00:00+00","192","","0.1","A","36.8525","-106.6303","MISSING/NOT SPECIFIED","NM","Rio Arriba","35039","Rio Arriba County"
"-106.628289846","36.857494064","560092","602462","SFO-2002NMFDNM00350402-03-10170074X","NONFED","ST-NASF","ST/C&L","USNMNMS","New Mexico State Forestry Division","NMNMS","New Mexico - State Forestry","","10170074X","","HILLS","","","","","","2002","2002/07/10 00:00:00+00","191","0931","Natural","Natural","","2002/07/12 00:00:00+00","193","","0.1","A","36.85749997","-106.62830002","MISSING/NOT SPECIFIED","NM","Rio Arriba","35039","Rio Arriba County"
"-106.946489798","36.295194194","560093","602463","SFO-2002NMFDNM00350402-03-10180076X","NONFED","ST-NASF","ST/C&L","USNMNMS","New Mexico State Forestry Division","NMNMS","New Mexico - State Forestry","","10180076X","","PIEUTE","","","","","","2002","2002/07/09 00:00:00+00","190","1745","Natural","Natural","","2002/07/11 00:00:00+00","192","","0.1","A","36.2952","-106.94649999","MISSING/NOT SPECIFIED","NM","Rio Arriba","35039","Rio Arriba County"
"-107.599989632","36.766664137","560094","602464","SFO-2002NMFDNM00350402-03-10190077X","NONFED","ST-NASF","ST/C&L","USNMNMS","New Mexico State Forestry Division","NMNMS","New Mexico - State Forestry","","10190077X","","MONTOYA","","","","","","2002","2002/07/07 00:00:00+00","188","1900","Natural","Natural","","2002/07/09 00:00:00+00","190","","0.1","A","36.76666997","-107.60000001","MISSING/NOT SPECIFIED","NM","San Juan","35045","San Juan County"
"-106.54498987","36.792494078","560095","602466","SFO-2002NMFDNM00350402-03-10220104X","NONFED","ST-NASF","ST/C&L","USNMNMS","New Mexico State Forestry Division","NMNMS","New Mexico - State Forestry","","10220104X","","ALCORN","","","","","","2002","2002/07/13 00:00:00+00","194","1710","Human","Missing data/not specified/undetermined","","2002/07/15 00:00:00+00","196","","0.25","A","36.79249998","-106.54500002","MISSING/NOT SPECIFIED","NM","Rio Arriba","35039","Rio Arriba County"
"-106.550989832","36.966394053","560096","602473","SFO-2002NMFDNM00350402-03-10380189X","NONFED","ST-NASF","ST/C&L","USNMNMS","New Mexico State Forestry Division","NMNMS","New Mexico - State Forestry","","10380189X","","C & T","","","","","","2002","2002/08/15 00:00:00+00","227","1050","Human","Railroad operations and maintenance","","2002/08/17 00:00:00+00","229","","0.3","B","36.96639998","-106.551","MISSING/NOT SPECIFIED","NM","Rio Arriba","35039","Rio Arriba County"
"-106.514989841","36.748494103","560097","602476","SFO-2002NMFDNM00350402-03-10410209X","NONFED","ST-NASF","ST/C&L","USNMNMS","New Mexico State Forestry Division","NMNMS","New Mexico - State Forestry","","10410209X","","MINNESOTA","","","","","","2002","2002/08/20 00:00:00+00","232","1840","Natural","Natural","","2002/08/22 00:00:00+00","234","","0.25","A","36.7485","-106.51499998","MISSING/NOT SPECIFIED","NM","Rio Arriba","35039","Rio Arriba County"
"-106.549989844","36.741654106","560098","602480","SFO-2002NMFDNM00350402-03-10490267X","NONFED","ST-NASF","ST/C&L","USNMNMS","New Mexico State Forestry Division","NMNMS","New Mexico - State Forestry","","10490267X","","VALDEZ FIRE","","","","","","2002","2002/09/18 00:00:00+00","261","0914","Natural","Natural","","2002/09/20 00:00:00+00","263","","0.1","A","36.74166","-106.54999999","MISSING/NOT SPECIFIED","NM","Rio Arriba","35039","Rio Arriba County"
"-106.434989879","36.52599414","560099","602481","SFO-2002NMFDNM00350402-03-10500268X","NONFED","ST-NASF","ST/C&L","USNMNMS","New Mexico State Forestry Division","NMNMS","New Mexico - State Forestry","","10500268X","","LUNA","","","","","","2002","2002/09/19 00:00:00+00","262","1000","Natural","Natural","","2002/09/21 00:00:00+00","264","","0.1","A","36.52600001","-106.43499998","MISSING/NOT SPECIFIED","NM","Rio Arriba","35039","Rio Arriba County"
"-107.703889612","36.633994212","560100","602483","SFO-2002NMFDNM00350402-03-10520273X","NONFED","ST-NASF","ST/C&L","USNMNMS","New Mexico State Forestry Division","NMNMS","New Mexico - State Forestry","","10520273X","","REGIS","","","","","","2002","2002/09/28 00:00:00+00","271","0745","Natural","Natural","","2002/09/30 00:00:00+00","273","","0.1","A","36.63400002","-107.7039","MISSING/NOT SPECIFIED","NM","Rio Arriba","35039","Rio Arriba County"
"-106.550989834","36.951894075","560101","602484","SFO-2002NMFDNM00350402-03-10530276X","NONFED","ST-NASF","ST/C&L","USNMNMS","New Mexico State Forestry Division","NMNMS","New Mexico - State Forestry","","10530276X","","FENCE","","","","","","2002","2002/10/08 00:00:00+00","281","1000","Human","Railroad operations and maintenance","","2002/10/10 00:00:00+00","283","","0.2","A","36.9519","-106.551","MISSING/NOT SPECIFIED","NM","Rio Arriba","35039","Rio Arriba County"
"-106.587089835","36.748494107","560102","602485","SFO-2002NMFDNM00350402-03-10550292X","NONFED","ST-NASF","ST/C&L","USNMNMS","New Mexico State Forestry Division","NMNMS","New Mexico - State Forestry","","10550292X","","VALDEZ II","","","","","","2002","2002/11/20 00:00:00+00","324","1430","Human","Debris and open burning","","2002/11/22 00:00:00+00","326","","0.25","A","36.7485","-106.58709999","MISSING/NOT SPECIFIED","NM","Rio Arriba","35039","Rio Arriba County"
"-106.08189003","36.055494168","560103","602486","SFO-2002NMFDNM00350402-03-10570328N","NONFED","ST-NASF","ST/C&L","USNMNMS","New Mexico State Forestry Division","NMNMS","New Mexico - State Forestry","","10570328N","","ESTER","","","","","","2002","2002/02/02 00:00:00+00","33","1216","Human","Arson/incendiarism","","2002/02/04 00:00:00+00","35","","0.25","A","36.05549999","-106.08190001","MISSING/NOT SPECIFIED","NM","Rio Arriba","35039","Rio Arriba County"
"-105.21829016","36.544994034","560104","602487","SFO-2002NMFDNM00350402-03-20010014X","NONFED","ST-NASF","ST/C&L","USNMNMS","New Mexico State Forestry Division","NMNMS","New Mexico - State Forestry","","20010014X","","TOWER","","","","","","2002","2002/07/01 00:00:00+00","182","0858","Natural","Natural","","2002/07/03 00:00:00+00","184","","0.1","A","36.54499998","-105.21829999","MISSING/NOT SPECIFIED","NM","Colfax","35007","Colfax County"
"-105.223090147","36.561664062","560105","602488","SFO-2002NMFDNM00350402-03-20020015X","NONFED","ST-NASF","ST/C&L","USNMNMS","New Mexico State Forestry Division","NMNMS","New Mexico - State Forestry","","20020015X","","VIEW","","","","","","2002","2002/07/01 00:00:00+00","182","1235","Natural","Natural","","2002/07/03 00:00:00+00","184","","0.75","B","36.56167001","-105.22309998","MISSING/NOT SPECIFIED","NM","Colfax","35007","Colfax County"
"-105.154990129","36.923324004","560106","602489","SFO-2002NMFDNM00350402-03-20030016X","NONFED","ST-NASF","ST/C&L","USNMNMS","New Mexico State Forestry Division","NMNMS","New Mexico - State Forestry","","20030016X","","BARTLETT","","","","","","2002","2002/07/01 00:00:00+00","182","1330","Natural","Natural","","2002/07/03 00:00:00+00","184","","0.5","B","36.92333001","-105.15499998","MISSING/NOT SPECIFIED","NM","Colfax","35007","Colfax County"
"-105.137790164","36.909994005","560107","602490","SFO-2002NMFDNM00350402-03-20040017X","NONFED","ST-NASF","ST/C&L","USNMNMS","New Mexico State Forestry Division","NMNMS","New Mexico - State Forestry","","20040017X","","LEANDRO","","","","","","2002","2002/07/02 00:00:00+00","183","1615","Natural","Natural","","2002/07/04 00:00:00+00","185","","0.5","B","36.91000001","-105.13780001","MISSING/NOT SPECIFIED","NM","Colfax","35007","Colfax County"
"-105.314990151","36.511664055","560108","602491","SFO-2002NMFDNM00350402-03-20070024X","NONFED","ST-NASF","ST/C&L","USNMNMS","New Mexico State Forestry Division","NMNMS","New Mexico - State Forestry","","20070024X","","LAKE VIEW","","","","","","2002","2002/07/03 00:00:00+00","184","1340","Natural","Natural","","2002/07/05 00:00:00+00","186","","0.25","A","36.51166999","-105.315","MISSING/NOT SPECIFIED","NM","Colfax","35007","Colfax County"
"-104.353290328","36.974993938","560109","602492","SFO-2002NMFDNM00350402-03-20080025X","NONFED","ST-NASF","ST/C&L","USNMNMS","New Mexico State Forestry Division","NMNMS","New Mexico - State Forestry","","20080025X","","YANKEE","","","","","","2002","2002/07/03 00:00:00+00","184","1545","Natural","Natural","","2002/07/05 00:00:00+00","186","","0.25","A","36.975","-104.3533","MISSING/NOT SPECIFIED","NM","Colfax","35007","Colfax County"
"-104.933290179","36.92943395","560110","602493","SFO-2002NMFDNM00350402-03-20090044X","NONFED","ST-NASF","ST/C&L","USNMNMS","New Mexico State Forestry Division","NMNMS","New Mexico - State Forestry","","20090044X","","FORK","","","","","","2002","2002/07/07 00:00:00+00","188","2346","Natural","Natural","","2002/07/09 00:00:00+00","190","","0.1","A","36.92943997","-104.93329998","MISSING/NOT SPECIFIED","NM","Colfax","35007","Colfax County"
"-105.038290206","36.485824072","560111","602494","SFO-2002NMFDNM00350402-03-20100078X","NONFED","ST-NASF","ST/C&L","USNMNMS","New Mexico State Forestry Division","NMNMS","New Mexico - State Forestry","","20100078X","","CITO","","","","","","2002","2002/07/10 00:00:00+00","191","1259","Natural","Natural","","2002/07/12 00:00:00+00","193","","0.1","A","36.48583002","-105.03829999","MISSING/NOT SPECIFIED","NM","Colfax","35007","Colfax County"
"-104.985290201","36.568604007","560112","602495","SFO-2002NMFDNM00350402-03-20110081X","NONFED","ST-NASF","ST/C&L","USNMNMS","New Mexico State Forestry Division","NMNMS","New Mexico - State Forestry","","20110081X","","CHASE","","","","","","2002","2002/07/10 00:00:00+00","191","1424","Natural","Natural","","2002/07/12 00:00:00+00","193","","2","B","36.56860997","-104.98529998","MISSING/NOT SPECIFIED","NM","Colfax","35007","Colfax County"
"-105.146890158","36.852494004","560113","602496","SFO-2002NMFDNM00350402-03-20120088X","NONFED","ST-NASF","ST/C&L","USNMNMS","New Mexico State Forestry Division","NMNMS","New Mexico - State Forestry","","20120088X","","HARRY","","","","","","2002","2002/07/11 00:00:00+00","192","1021","Natural","Natural","","2002/07/13 00:00:00+00","194","","0.1","A","36.8525","-105.1469","MISSING/NOT SPECIFIED","NM","Colfax","35007","Colfax County"
"-104.946690237","36.263324061","560114","602497","SFO-2002NMFDNM00350402-03-20130099X","NONFED","ST-NASF","ST/C&L","USNMNMS","New Mexico State Forestry Division","NMNMS","New Mexico - State Forestry","","20130099X","","RIVERA","","","","","","2002","2002/07/12 00:00:00+00","193","1325","Natural","Natural","","2002/07/14 00:00:00+00","195","","1","B","36.26332998","-104.94669998","MISSING/NOT SPECIFIED","NM","Colfax","35007","Colfax County"
"-105.126390138","36.898053966","560115","602498","SFO-2002NMFDNM00350402-03-20140109X","NONFED","ST-NASF","ST/C&L","USNMNMS","New Mexico State Forestry Division","NMNMS","New Mexico - State Forestry","","20140109X","","ADAMS","","","","","","2002","2002/07/14 00:00:00+00","195","1646","Natural","Natural","","2002/07/16 00:00:00+00","197","","2","B","36.89805997","-105.12639998","MISSING/NOT SPECIFIED","NM","Colfax","35007","Colfax County"
"-105.201390193","36.548604033","560116","602499","SFO-2002NMFDNM00350402-03-20150122X","NONFED","ST-NASF","ST/C&L","USNMNMS","New Mexico State Forestry Division","NMNMS","New Mexico - State Forestry","","20150122X","","BEAVER","","","","","","2002","2002/07/15 00:00:00+00","196","1710","Natural","Natural","","2002/07/17 00:00:00+00","198","","0.1","A","36.54860998","-105.20140002","MISSING/NOT SPECIFIED","NM","Colfax","35007","Colfax County"
"-105.031890167","36.924163957","560117","602500","SFO-2002NMFDNM00350402-03-20160144X","NONFED","ST-NASF","ST/C&L","USNMNMS","New Mexico State Forestry Division","NMNMS","New Mexico - State Forestry","","20160144X","","SPRING","","","","","","2002","2002/07/21 00:00:00+00","202","1540","Natural","Natural","","2002/07/23 00:00:00+00","204","","4","B","36.92416997","-105.03189999","MISSING/NOT SPECIFIED","NM","Colfax","35007","Colfax County"
"-104.354990332","36.709993998","560118","602501","SFO-2002NMFDNM00350402-03-20170150X","NONFED","ST-NASF","ST/C&L","USNMNMS","New Mexico State Forestry Division","NMNMS","New Mexico - State Forestry","","20170150X","","BLOSSER","","","","","","2002","2002/07/22 00:00:00+00","203","2030","Natural","Natural","","2002/07/24 00:00:00+00","205","","0.25","A","36.71000002","-104.35499998","MISSING/NOT SPECIFIED","NM","Colfax","35007","Colfax County"
"-104.478890304","36.916933974","560119","602502","SFO-2002NMFDNM00350402-03-20190180X","NONFED","ST-NASF","ST/C&L","USNMNMS","New Mexico State Forestry Division","NMNMS","New Mexico - State Forestry","","20190180X","","OLD PASS","","","","","","2002","2002/08/09 00:00:00+00","221","1251","Natural","Natural","","2002/08/11 00:00:00+00","223","","12","C","36.91694002","-104.4789","MISSING/NOT SPECIFIED","NM","Colfax","35007","Colfax County"
"-104.207190415","36.608603985","560120","602503","SFO-2002NMFDNM00350402-03-20200181X","NONFED","ST-NASF","ST/C&L","USNMNMS","New Mexico State Forestry Division","NMNMS","New Mexico - State Forestry","","20200181X","","LAUGHLIN","","","","","","2002","2002/08/09 00:00:00+00","221","1445","Natural","Natural","","2002/08/11 00:00:00+00","223","","1","B","36.60861","-104.20720002","MISSING/NOT SPECIFIED","NM","Colfax","35007","Colfax County"
"-104.936890234","36.765824014","560121","602504","SFO-2002NMFDNM00350402-03-20210197X","NONFED","ST-NASF","ST/C&L","USNMNMS","New Mexico State Forestry Division","NMNMS","New Mexico - State Forestry","","20210197X","","VALDEZ","","","","","","2002","2002/08/18 00:00:00+00","230","1318","Natural","Natural","","2002/08/20 00:00:00+00","232","","6","B","36.76583001","-104.93690002","MISSING/NOT SPECIFIED","NM","Colfax","35007","Colfax County"
"-104.709690267","36.856943987","560122","602505","SFO-2002NMFDNM00350402-03-20220204X","NONFED","ST-NASF","ST/C&L","USNMNMS","New Mexico State Forestry Division","NMNMS","New Mexico - State Forestry","","20220204X","","BIG CROW","","","","","","2002","2002/08/19 00:00:00+00","231","0953","Natural","Natural","","2002/08/21 00:00:00+00","233","","32","C","36.85695001","-104.70970001","MISSING/NOT SPECIFIED","NM","Colfax","35007","Colfax County"
"-104.233290397","36.626663984","560123","602506","SFO-2002NMFDNM00350402-03-20230214X","NONFED","ST-NASF","ST/C&L","USNMNMS","New Mexico State Forestry Division","NMNMS","New Mexico - State Forestry","","20230214X","","REBA","","","","","","2002","2002/08/21 00:00:00+00","233","1550","Natural","Natural","","2002/08/23 00:00:00+00","235","","3.5","B","36.62667","-104.23330001","MISSING/NOT SPECIFIED","NM","Colfax","35007","Colfax County"
"-105.213290215","36.283324113","560124","602507","SFO-2002NMFDNM00350402-03-20240233X","NONFED","ST-NASF","ST/C&L","USNMNMS","New Mexico State Forestry Division","NMNMS","New Mexico - State Forestry","","20240233X","","SMITH","","","","","","2002","2002/08/28 00:00:00+00","240","2030","Natural","Natural","","2002/08/30 00:00:00+00","242","","0.1","A","36.28333002","-105.21330002","MISSING/NOT SPECIFIED","NM","Colfax","35007","Colfax County"
"-104.981090236","36.299714087","560125","602508","SFO-2002NMFDNM00350402-03-20250235X","NONFED","ST-NASF","ST/C&L","USNMNMS","New Mexico State Forestry Division","NMNMS","New Mexico - State Forestry","","20250235X","","GOAT","2002_03-20250235X_GOAT","","","","","2002","2002/08/29 00:00:00+00","241","1229","Natural","Natural","","2002/08/31 00:00:00+00","243","","595","E","36.29972001","-104.98109999","MISSING/NOT SPECIFIED","NM","Colfax","35007","Colfax County"
"-104.70939028","36.719713978","560126","602509","SFO-2002NMFDNM00350402-03-20270240X","NONFED","ST-NASF","ST/C&L","USNMNMS","New Mexico State Forestry Division","NMNMS","New Mexico - State Forestry","","20270240X","","CALIENTE","","","","","","2002","2002/08/29 00:00:00+00","241","1544","Natural","Natural","","2002/08/31 00:00:00+00","243","","73","C","36.71971998","-104.70940001","MISSING/NOT SPECIFIED","NM","Colfax","35007","Colfax County"
"-104.738090246","36.693603983","560127","602510","SFO-2002NMFDNM00350402-03-20280245X","NONFED","ST-NASF","ST/C&L","USNMNMS","New Mexico State Forestry Division","NMNMS","New Mexico - State Forestry","","20280245X","","RAIL","","","","","","2002","2002/08/31 00:00:00+00","243","1234","Natural","Natural","","2002/09/02 00:00:00+00","245","","0.5","B","36.69360998","-104.73809998","MISSING/NOT SPECIFIED","NM","Colfax","35007","Colfax County"
"-104.672790268","36.721103995","560128","602511","SFO-2002NMFDNM00350402-03-20290247X","NONFED","ST-NASF","ST/C&L","USNMNMS","New Mexico State Forestry Division","NMNMS","New Mexico - State Forestry","","20290247X","","CURTIS","","","","","","2002","2002/09/02 00:00:00+00","245","1014","Natural","Natural","","2002/09/04 00:00:00+00","247","","5","B","36.72111","-104.67279999","MISSING/NOT SPECIFIED","NM","Colfax","35007","Colfax County"
"-105.048290166","36.894993982","560129","602512","SFO-2002NMFDNM00350402-03-20300257X","NONFED","ST-NASF","ST/C&L","USNMNMS","New Mexico State Forestry Division","NMNMS","New Mexico - State Forestry","","20300257X","","JUAN","","","","","","2002","2002/09/05 00:00:00+00","248","1535","Natural","Natural","","2002/09/07 00:00:00+00","250","","2","B","36.89499999","-105.04829999","MISSING/NOT SPECIFIED","NM","Colfax","35007","Colfax County"
"-103.836690466","36.661663965","560130","602513","SFO-2002NMFDNM00350402-03-20310258X","NONFED","ST-NASF","ST/C&L","USNMNMS","New Mexico State Forestry Division","NMNMS","New Mexico - State Forestry","","20310258X","","SIERRA","","","","","","2002","2002/09/05 00:00:00+00","248","1818","Natural","Natural","","2002/09/07 00:00:00+00","250","","10","C","36.66167001","-103.83669999","MISSING/NOT SPECIFIED","NM","Union","35059","Union County"
"-105.360590153","36.382774087","560131","602514","SFO-2002NMFDNM00350402-03-20340281X","NONFED","ST-NASF","ST/C&L","USNMNMS","New Mexico State Forestry Division","NMNMS","New Mexico - State Forestry","","20340281X","","SELSER","","","","","","2002","2002/10/16 00:00:00+00","289","1720","Human","Missing data/not specified/undetermined","","2002/10/18 00:00:00+00","291","","0.5","B","36.38278","-105.3606","MISSING/NOT SPECIFIED","NM","Taos","35055","Taos County"
"-103.85499047","36.674993964","560132","602515","SFO-2002NMFDNM00350402-03-20350282X","NONFED","ST-NASF","ST/C&L","USNMNMS","New Mexico State Forestry Division","NMNMS","New Mexico - State Forestry","","20350282X","","GRANDE","","","","","","2002","2002/10/21 00:00:00+00","294","1555","Natural","Natural","","2002/10/23 00:00:00+00","296","","2","B","36.67500001","-103.855","MISSING/NOT SPECIFIED","NM","Union","35059","Union County"
"-108.095689724","34.10381458","560133","602516","SFO-2002NMFDNM00350402-03-30020020X","NONFED","ST-NASF","ST/C&L","USNMNMS","New Mexico State Forestry Division","NMNMS","New Mexico - State Forestry","","30020020X","","J L","","","","","","2002","2002/07/02 00:00:00+00","183","1640","Natural","Natural","","2002/07/04 00:00:00+00","185","","0.15","A","34.10382","-108.09569998","MISSING/NOT SPECIFIED","NM","Catron","35003","Catron County"
"-107.949889868","32.80059474","560134","602517","SFO-2002NMFDNM00350402-03-30030026X","NONFED","ST-NASF","ST/C&L","USNMNMS","New Mexico State Forestry Division","NMNMS","New Mexico - State Forestry","","30030026X","","LION","","","","","","2002","2002/07/03 00:00:00+00","184","1518","Human","Smoking","","2002/07/05 00:00:00+00","186","","1","B","32.80059997","-107.9499","MISSING/NOT SPECIFIED","NM","Grant","35017","Grant County"
"-106.894489993","34.090804519","560135","602518","SFO-2002NMFDNM00350402-03-30050039X","NONFED","ST-NASF","ST/C&L","USNMNMS","New Mexico State Forestry Division","NMNMS","New Mexico - State Forestry","","30050039X","","ONE WEED","","","","","","2002","2002/07/04 00:00:00+00","185","2136","Human","Missing data/not specified/undetermined","","2002/07/06 00:00:00+00","187","","0.1","A","34.09081","-106.89449999","MISSING/NOT SPECIFIED","NM","Socorro","35053","Socorro County"
"-108.217689702","34.176284576","560136","602519","SFO-2002NMFDNM00350402-03-30070041X","NONFED","ST-NASF","ST/C&L","USNMNMS","New Mexico State Forestry Division","NMNMS","New Mexico - State Forestry","","30070041X","","LGM","","","","","","2002","2002/07/06 00:00:00+00","187","0800","Natural","Natural","","2002/07/08 00:00:00+00","189","","36","C","34.17629","-108.21769999","MISSING/NOT SPECIFIED","NM","Catron","35003","Catron County"
"-108.113089737","34.016844604","560137","602521","SFO-2002NMFDNM00350402-03-30120071X","NONFED","ST-NASF","ST/C&L","USNMNMS","New Mexico State Forestry Division","NMNMS","New Mexico - State Forestry","","30120071X","","TEEPEE","","","","","","2002","2002/07/09 00:00:00+00","190","1640","Human","Missing data/not specified/undetermined","","2002/07/11 00:00:00+00","192","","0.25","A","34.01685001","-108.11309999","MISSING/NOT SPECIFIED","NM","Catron","35003","Catron County"
"-108.217689703","34.161794548","560138","602522","SFO-2002NMFDNM00350402-03-30130082X","NONFED","ST-NASF","ST/C&L","USNMNMS","New Mexico State Forestry Division","NMNMS","New Mexico - State Forestry","","30130082X","","ALEGRES","","","","","","2002","2002/07/10 00:00:00+00","191","1510","Natural","Natural","","2002/07/12 00:00:00+00","193","","1","B","34.16179997","-108.21769999","MISSING/NOT SPECIFIED","NM","Catron","35003","Catron County"
"-108.363889765","32.742604789","560139","602523","SFO-2002NMFDNM00350402-03-30150091X","NONFED","ST-NASF","ST/C&L","USNMNMS","New Mexico State Forestry Division","NMNMS","New Mexico - State Forestry","","30150091X","","BEAR","","","","","","2002","2002/07/11 00:00:00+00","192","1528","Natural","Natural","","2002/07/13 00:00:00+00","194","","0.1","A","32.74260999","-108.36389998","MISSING/NOT SPECIFIED","NM","Grant","35017","Grant County"
"-108.792189687","33.143224739","560140","602524","SFO-2002NMFDNM00350402-03-30160094X","NONFED","ST-NASF","ST/C&L","USNMNMS","New Mexico State Forestry Division","NMNMS","New Mexico - State Forestry","","30160094X","","MOON","","","","","","2002","2002/07/11 00:00:00+00","192","1700","Natural","Natural","","2002/07/13 00:00:00+00","194","","2","B","33.14322998","-108.79220002","MISSING/NOT SPECIFIED","NM","Grant","35017","Grant County"
"-108.225889847","32.081504874","560141","602525","SFO-2002NMFDNM00350402-03-30170096X","NONFED","ST-NASF","ST/C&L","USNMNMS","New Mexico State Forestry Division","NMNMS","New Mexico - State Forestry","","30170096X","","BOSTON","","","","","","2002","2002/07/11 00:00:00+00","192","1440","Natural","Natural","","2002/07/13 00:00:00+00","194","","0.25","A","32.08150998","-108.22589999","MISSING/NOT SPECIFIED","NM","Grant","35017","Grant County"
"-108.099989708","34.295594522","560142","602526","SFO-2002NMFDNM00350402-03-30180098X","NONFED","ST-NASF","ST/C&L","USNMNMS","New Mexico State Forestry Division","NMNMS","New Mexico - State Forestry","","30180098X","","BARBWIRE","","","","","","2002","2002/07/12 00:00:00+00","193","1117","Natural","Natural","","2002/07/14 00:00:00+00","195","","0.1","A","34.29559997","-108.09999998","MISSING/NOT SPECIFIED","NM","Catron","35003","Catron County"
"-108.225889799","32.815084781","560143","602527","SFO-2002NMFDNM00350402-03-30200103X","NONFED","ST-NASF","ST/C&L","USNMNMS","New Mexico State Forestry Division","NMNMS","New Mexico - State Forestry","","30200103X","","CAT TAIL","","","","","","2002","2002/07/13 00:00:00+00","194","1100","Human","Equipment and vehicle use","","2002/07/15 00:00:00+00","196","","0.25","A","32.81509","-108.22589999","MISSING/NOT SPECIFIED","NM","Grant","35017","Grant County"
"-108.105189842","32.554154795","560144","602528","SFO-2002NMFDNM00350402-03-30210105X","NONFED","ST-NASF","ST/C&L","USNMNMS","New Mexico State Forestry Division","NMNMS","New Mexico - State Forestry","","30210105X","","RICHARD","","","","","","2002","2002/07/11 00:00:00+00","192","2026","Natural","Natural","","2002/07/13 00:00:00+00","194","","20","C","32.55415998","-108.10519999","MISSING/NOT SPECIFIED","NM","Grant","35017","Grant County"
"-107.98438988","32.815084769","560145","602530","SFO-2002NMFDNM00350402-03-30260164X","NONFED","ST-NASF","ST/C&L","USNMNMS","New Mexico State Forestry Division","NMNMS","New Mexico - State Forestry","","30260164X","","TOWER","","","","","","2002","2002/07/28 00:00:00+00","209","1830","Natural","Natural","","2002/07/30 00:00:00+00","211","","25","C","32.81509","-107.98440002","MISSING/NOT SPECIFIED","NM","Grant","35017","Grant County"
"-105.200790232","36.117774137","560146","602531","SFO-2002NMFDNM00350402-03-40010001X","NONFED","ST-NASF","ST/C&L","USNMNMS","New Mexico State Forestry Division","NMNMS","New Mexico - State Forestry","","40010001X","","CHACON","","","","","","2002","2002/07/01 00:00:00+00","182","0945","Natural","Natural","","2002/07/03 00:00:00+00","184","","1","B","36.11778002","-105.20080002","MISSING/NOT SPECIFIED","NM","Mora","35033","Mora County"
"-103.618290673","34.667214257","560147","602534","SFO-2002NMFDNM00350402-03-40040010X","NONFED","ST-NASF","ST/C&L","USNMNMS","New Mexico State Forestry Division","NMNMS","New Mexico - State Forestry","","40040010X","","SANDQUIEST","","","","","","2002","2002/07/02 00:00:00+00","183","1230","Natural","Natural","","2002/07/04 00:00:00+00","185","","0.25","A","34.66722","-103.61829998","MISSING/NOT SPECIFIED","NM","Curry","35009","Curry County"
"-104.068290464","35.968324095","560148","602535","SFO-2002NMFDNM00350402-03-40050011X","NONFED","ST-NASF","ST/C&L","USNMNMS","New Mexico State Forestry Division","NMNMS","New Mexico - State Forestry","","40050011X","","LA CIENTA","","","","","","2002","2002/07/01 00:00:00+00","182","1256","Natural","Natural","","2002/07/03 00:00:00+00","184","","0.25","A","35.96833002","-104.06829998","MISSING/NOT SPECIFIED","NM","Harding","35021","Harding County"
"-105.098090204","36.242774063","560149","602536","SFO-2002NMFDNM00350402-03-40060032X","NONFED","ST-NASF","ST/C&L","USNMNMS","New Mexico State Forestry Division","NMNMS","New Mexico - State Forestry","","40060032X","","NARANJOS","","","","","","2002","2002/07/04 00:00:00+00","185","1755","Natural","Natural","","2002/07/06 00:00:00+00","187","","0.5","B","36.24277997","-105.09809998","MISSING/NOT SPECIFIED","NM","Mora","35033","Mora County"
"-105.350790206","35.56721421","560150","602537","SFO-2002NMFDNM00350402-03-40080043X","NONFED","ST-NASF","ST/C&L","USNMNMS","New Mexico State Forestry Division","NMNMS","New Mexico - State Forestry","","40080043X","","MINERAL","","","","","","2002","2002/07/06 00:00:00+00","187","1530","Natural","Natural","","2002/07/08 00:00:00+00","189","","0.1","A","35.56722","-105.35079998","MISSING/NOT SPECIFIED","NM","San Miguel","35047","San Miguel County"
"-105.028590249","36.143884123","560151","602538","SFO-2002NMFDNM00350402-03-40120056X","NONFED","ST-NASF","ST/C&L","USNMNMS","New Mexico State Forestry Division","NMNMS","New Mexico - State Forestry","","40120056X","","CEJITA","","","","","","2002","2002/07/09 00:00:00+00","190","1230","Natural","Natural","","2002/07/11 00:00:00+00","192","","2","B","36.14389002","-105.0286","MISSING/NOT SPECIFIED","NM","Mora","35033","Mora County"
"-105.3513902","35.635554209","560152","602539","SFO-2002NMFDNM00350402-03-40140073X","NONFED","ST-NASF","ST/C&L","USNMNMS","New Mexico State Forestry Division","NMNMS","New Mexico - State Forestry","","40140073X","","TROUT","","","","","","2002","2002/07/09 00:00:00+00","190","0900","Natural","Natural","","2002/07/11 00:00:00+00","192","","4","B","35.63556001","-105.35139998","MISSING/NOT SPECIFIED","NM","San Miguel","35047","San Miguel County"
"-105.357490209","35.636384209","560153","602540","SFO-2002NMFDNM00350402-03-40150079X","NONFED","ST-NASF","ST/C&L","USNMNMS","New Mexico State Forestry Division","NMNMS","New Mexico - State Forestry","","40150079X","","SMALL FRY","","","","","","2002","2002/07/10 00:00:00+00","191","1455","Natural","Natural","","2002/07/12 00:00:00+00","193","","3","B","35.63639001","-105.35749999","MISSING/NOT SPECIFIED","NM","San Miguel","35047","San Miguel County"
"-105.363290206","35.652214177","560154","602541","SFO-2002NMFDNM00350402-03-40160080X","NONFED","ST-NASF","ST/C&L","USNMNMS","New Mexico State Forestry Division","NMNMS","New Mexico - State Forestry","","40160080X","","MEDIO","","","","","","2002","2002/07/10 00:00:00+00","191","1457","Natural","Natural","","2002/07/12 00:00:00+00","193","","3","B","35.65221998","-105.36329999","MISSING/NOT SPECIFIED","NM","San Miguel","35047","San Miguel County"
"-105.451890236","35.301934246","560155","602542","SFO-2002NMFDNM00350402-03-40170083X","NONFED","ST-NASF","ST/C&L","USNMNMS","New Mexico State Forestry Division","NMNMS","New Mexico - State Forestry","","40170083X","","PUEBLO","","","","","","2002","2002/07/10 00:00:00+00","191","1600","Human","Debris and open burning","","2002/07/12 00:00:00+00","193","","0.25","A","35.30193999","-105.45190001","MISSING/NOT SPECIFIED","NM","San Miguel","35047","San Miguel County"
"-105.241890183","36.11888413","560156","602543","SFO-2002NMFDNM00350402-03-40180085X","NONFED","ST-NASF","ST/C&L","USNMNMS","New Mexico State Forestry Division","NMNMS","New Mexico - State Forestry","","40180085X","","STRIKE","","","","","","2002","2002/07/10 00:00:00+00","191","1602","Natural","Natural","","2002/07/12 00:00:00+00","193","","0.1","A","36.11889001","-105.24189998","MISSING/NOT SPECIFIED","NM","San Miguel","35047","San Miguel County"
"-105.050290265","36.134164116","560157","602544","SFO-2002NMFDNM00350402-03-40190121X","NONFED","ST-NASF","ST/C&L","USNMNMS","New Mexico State Forestry Division","NMNMS","New Mexico - State Forestry","","40190121X","","MM 17","","","","","","2002","2002/07/15 00:00:00+00","196","1700","Natural","Natural","","2002/07/17 00:00:00+00","198","","1","B","36.13417001","-105.05030002","MISSING/NOT SPECIFIED","NM","Mora","35033","Mora County"
"-105.23559029","34.984434263","560158","602545","SFO-2002NMFDNM00350402-03-40200131X","NONFED","ST-NASF","ST/C&L","USNMNMS","New Mexico State Forestry Division","NMNMS","New Mexico - State Forestry","","40200131X","","MONK","","","","","","2002","2002/07/11 00:00:00+00","192","1328","Human","Missing data/not specified/undetermined","","2002/07/13 00:00:00+00","194","","0.25","A","34.98443997","-105.23559999","MISSING/NOT SPECIFIED","NM","Guadalupe","35019","Guadalupe County"
"-105.418290205","35.402214259","560159","602546","SFO-2002NMFDNM00350402-03-40210138X","NONFED","ST-NASF","ST/C&L","USNMNMS","New Mexico State Forestry Division","NMNMS","New Mexico - State Forestry","","40210138X","","LA MADERA","","","","","","2002","2002/07/19 00:00:00+00","200","0930","Human","Missing data/not specified/undetermined","","2002/07/21 00:00:00+00","202","","1","B","35.40222002","-105.41829998","MISSING/NOT SPECIFIED","NM","San Miguel","35047","San Miguel County"
"-103.301090797","34.401934263","560160","602547","SFO-2002NMFDNM00350402-03-40220148X","NONFED","ST-NASF","ST/C&L","USNMNMS","New Mexico State Forestry Division","NMNMS","New Mexico - State Forestry","","40220148X","","CLOVER","","","","","","2002","2002/07/21 00:00:00+00","202","1759","Natural","Natural","","2002/07/23 00:00:00+00","204","","2","B","34.40193998","-103.30110001","MISSING/NOT SPECIFIED","NM","Curry","35009","Curry County"
"-105.301090216","35.933884131","560161","602548","SFO-2002NMFDNM00350402-03-40230154X","NONFED","ST-NASF","ST/C&L","USNMNMS","New Mexico State Forestry Division","NMNMS","New Mexico - State Forestry","","40230154X","","VICTORY","","","","","","2002","2002/07/25 00:00:00+00","206","1053","Natural","Natural","","2002/07/27 00:00:00+00","208","","0.25","A","35.93388998","-105.30110001","MISSING/NOT SPECIFIED","NM","Mora","35033","Mora County"
"-104.803290298","36.169444086","560162","602549","SFO-2002NMFDNM00350402-03-40240157X","NONFED","ST-NASF","ST/C&L","USNMNMS","New Mexico State Forestry Division","NMNMS","New Mexico - State Forestry","","40240157X","","MORA RANCH","","","","","","2002","2002/07/27 00:00:00+00","208","1730","Natural","Natural","","2002/07/29 00:00:00+00","210","","5","B","36.16945","-104.8033","MISSING/NOT SPECIFIED","NM","Mora","35033","Mora County"
"-105.318090229","35.735544182","560163","602550","SFO-2002NMFDNM00350402-03-40260159X","NONFED","ST-NASF","ST/C&L","USNMNMS","New Mexico State Forestry Division","NMNMS","New Mexico - State Forestry","","40260159X","","BLUE SKY","","","","","","2002","2002/07/28 00:00:00+00","209","1500","Natural","Natural","","2002/07/30 00:00:00+00","211","","3","B","35.73555","-105.31810001","MISSING/NOT SPECIFIED","NM","San Miguel","35047","San Miguel County"
"-105.016690231","36.266934064","560164","602551","SFO-2002NMFDNM00350402-03-40270162X","NONFED","ST-NASF","ST/C&L","USNMNMS","New Mexico State Forestry Division","NMNMS","New Mexico - State Forestry","","40270162X","","WHITES","","","","","","2002","2002/07/29 00:00:00+00","210","1430","Natural","Natural","","2002/07/31 00:00:00+00","212","","0.5","B","36.26693998","-105.01669999","MISSING/NOT SPECIFIED","NM","Mora","35033","Mora County"
"-103.167190807","34.418324244","560165","602552","SFO-2002NMFDNM00350402-03-40280163X","NONFED","ST-NASF","ST/C&L","USNMNMS","New Mexico State Forestry Division","NMNMS","New Mexico - State Forestry","","40280163X","","CURRY RD","","","","","","2002","2002/07/26 00:00:00+00","207","1935","Natural","Natural","","2002/07/28 00:00:00+00","209","","40","C","34.41832997","-103.16719999","MISSING/NOT SPECIFIED","NM","Curry","35009","Curry County"
"-104.23689053","35.062494216","560166","602553","SFO-2002NMFDNM00350402-03-40290174X","NONFED","ST-NASF","ST/C&L","USNMNMS","New Mexico State Forestry Division","NMNMS","New Mexico - State Forestry","","40290174X","","SEMI","","","","","","2002","2002/08/03 00:00:00+00","215","1500","Human","Missing data/not specified/undetermined","","2002/08/05 00:00:00+00","217","","0.25","A","35.06249999","-104.23690001","MISSING/NOT SPECIFIED","NM","Guadalupe","35019","Guadalupe County"
"-105.296090205","35.839434145","560167","602554","SFO-2002NMFDNM00350402-03-40300177X","NONFED","ST-NASF","ST/C&L","USNMNMS","New Mexico State Forestry Division","NMNMS","New Mexico - State Forestry","","40300177X","","FOX","","","","","","2002","2002/08/08 00:00:00+00","220","1425","Natural","Natural","","2002/08/10 00:00:00+00","222","","1.5","B","35.83943998","-105.29609999","MISSING/NOT SPECIFIED","NM","San Miguel","35047","San Miguel County"
"-105.283290174","36.117774142","560168","602556","SFO-2002NMFDNM00350402-03-40330184X","NONFED","ST-NASF","ST/C&L","USNMNMS","New Mexico State Forestry Division","NMNMS","New Mexico - State Forestry","","40330184X","","MESA","","","","","","2002","2002/08/10 00:00:00+00","222","1600","Natural","Natural","","2002/08/12 00:00:00+00","224","","0.25","A","36.11778002","-105.28329998","MISSING/NOT SPECIFIED","NM","Mora","35033","Mora County"
"-104.167190527","35.052214234","560169","602557","SFO-2002NMFDNM00350402-03-40340190X","NONFED","ST-NASF","ST/C&L","USNMNMS","New Mexico State Forestry Division","NMNMS","New Mexico - State Forestry","","40340190X","","MONTOYA","","","","","","2002","2002/08/15 00:00:00+00","227","1300","Human","Missing data/not specified/undetermined","","2002/08/17 00:00:00+00","229","","2","B","35.05222001","-104.16719999","MISSING/NOT SPECIFIED","NM","Guadalupe","35019","Guadalupe County"
"-104.868090309","35.868604146","560170","602558","SFO-2002NMFDNM00350402-03-40350194X","NONFED","ST-NASF","ST/C&L","USNMNMS","New Mexico State Forestry Division","NMNMS","New Mexico - State Forestry","","40350194X","","BABY","","","","","","2002","2002/08/16 00:00:00+00","228","1605","Natural","Natural","","2002/08/18 00:00:00+00","230","","0.1","A","35.86861001","-104.8681","MISSING/NOT SPECIFIED","NM","Mora","35033","Mora County"
"-104.151090539","35.0708342","560171","602559","SFO-2002NMFDNM00350402-03-40360210X","NONFED","ST-NASF","ST/C&L","USNMNMS","New Mexico State Forestry Division","NMNMS","New Mexico - State Forestry","","40360210X","","MANDY","","","","","","2002","2002/08/15 00:00:00+00","227","1145","Human","Missing data/not specified/undetermined","","2002/08/17 00:00:00+00","229","","1","B","35.07083998","-104.1511","MISSING/NOT SPECIFIED","NM","Guadalupe","35019","Guadalupe County"
"-104.672790422","34.926664261","560172","602560","SFO-2002NMFDNM00350402-03-40370215X","NONFED","ST-NASF","ST/C&L","USNMNMS","New Mexico State Forestry Division","NMNMS","New Mexico - State Forestry","","40370215X","","BUZZARD","","","","","","2002","2002/08/23 00:00:00+00","235","1339","Human","Missing data/not specified/undetermined","","2002/08/25 00:00:00+00","237","","0.5","B","34.92666999","-104.67279999","MISSING/NOT SPECIFIED","NM","Guadalupe","35019","Guadalupe County"
"-104.999990352","34.999994288","560173","602561","SFO-2002NMFDNM00350402-03-40380216X","NONFED","ST-NASF","ST/C&L","USNMNMS","New Mexico State Forestry Division","NMNMS","New Mexico - State Forestry","","40380216X","","SAWMILL","","","","","","2002","2002/08/23 00:00:00+00","235","1630","Natural","Natural","","2002/08/25 00:00:00+00","237","","3","B","35.00000001","-105","MISSING/NOT SPECIFIED","NM","Mora","35033","Mora County"
"-105.100790261","36.052494111","560174","602562","SFO-2002NMFDNM00350402-03-40390226X","NONFED","ST-NASF","ST/C&L","USNMNMS","New Mexico State Forestry Division","NMNMS","New Mexico - State Forestry","","40390226X","","MUFFLER","","","","","","2002","2002/08/24 00:00:00+00","236","1437","Human","Equipment and vehicle use","","2002/08/26 00:00:00+00","238","","1","B","36.05249999","-105.10080002","MISSING/NOT SPECIFIED","NM","Guadalupe","35019","Guadalupe County"
"-104.153590551","35.045824234","560175","602563","SFO-2002NMFDNM00350402-03-40400227X","NONFED","ST-NASF","ST/C&L","USNMNMS","New Mexico State Forestry Division","NMNMS","New Mexico - State Forestry","","40400227X","","FENCE","","","","","","2002","2002/08/26 00:00:00+00","238","1201","Human","Smoking","","2002/08/28 00:00:00+00","240","","2","B","35.04583001","-104.15360001","MISSING/NOT SPECIFIED","NM","Guadalupe","35019","Guadalupe County"
"-105.33219015","36.142494111","560176","602564","SFO-2002NMFDNM00350402-03-40410231X","NONFED","ST-NASF","ST/C&L","USNMNMS","New Mexico State Forestry Division","NMNMS","New Mexico - State Forestry","","40410231X","","ROMERO","","","","","","2002","2002/08/28 00:00:00+00","240","1655","Natural","Natural","","2002/08/30 00:00:00+00","242","","0.1","A","36.14249999","-105.33219997","MISSING/NOT SPECIFIED","NM","Mora","35033","Mora County"
"-105.219190253","35.485824185","560177","602565","SFO-2002NMFDNM00350402-03-40420232X","NONFED","ST-NASF","ST/C&L","USNMNMS","New Mexico State Forestry Division","NMNMS","New Mexico - State Forestry","","40420232X","","BLUE RIDGE","","","","","","2002","2002/08/28 00:00:00+00","240","1910","Natural","Natural","","2002/08/30 00:00:00+00","242","","0.25","A","35.48582997","-105.21919999","MISSING/NOT SPECIFIED","NM","San Miguel","35047","San Miguel County"
"-105.284390249","35.587214193","560178","602566","SFO-2002NMFDNM00350402-03-40430236X","NONFED","ST-NASF","ST/C&L","USNMNMS","New Mexico State Forestry Division","NMNMS","New Mexico - State Forestry","","40430236X","","OWL","","","","","","2002","2002/08/29 00:00:00+00","241","1237","Natural","Natural","","2002/08/31 00:00:00+00","243","","0.75","B","35.58721999","-105.28440001","MISSING/NOT SPECIFIED","NM","San Miguel","35047","San Miguel County"
"-104.996390248","36.242774057","560179","602567","SFO-2002NMFDNM00350402-03-40440239X","NONFED","ST-NASF","ST/C&L","USNMNMS","New Mexico State Forestry Division","NMNMS","New Mexico - State Forestry","","40440239X","","BORDER","","","","","","2002","2002/08/29 00:00:00+00","241","1315","Natural","Natural","","2002/08/31 00:00:00+00","243","","35","C","36.24277997","-104.9964","MISSING/NOT SPECIFIED","NM","Mora","35033","Mora County"
"-105.100790261","36.052494111","560180","602568","SFO-2002NMFDNM00350402-03-40450244X","NONFED","ST-NASF","ST/C&L","USNMNMS","New Mexico State Forestry Division","NMNMS","New Mexico - State Forestry","","40450244X","","SKIPPY","","","","","","2002","2002/08/30 00:00:00+00","242","1723","Natural","Natural","","2002/09/01 00:00:00+00","244","","0.5","B","36.05249999","-105.10080002","MISSING/NOT SPECIFIED","NM","Mora","35033","Mora County"
"-104.150290552","35.033604216","560181","602569","SFO-2002NMFDNM00350402-03-40460246X","NONFED","ST-NASF","ST/C&L","USNMNMS","New Mexico State Forestry Division","NMNMS","New Mexico - State Forestry","","40460246X","","MESQUITE ","","","","","","2002","2002/08/31 00:00:00+00","243","1653","Natural","Natural","","2002/09/02 00:00:00+00","245","","10","C","35.03360999","-104.15030001","MISSING/NOT SPECIFIED","NM","Guadalupe","35019","Guadalupe County"
"-105.134990284","35.450824235","560182","602570","SFO-2002NMFDNM00350402-03-40480249X","NONFED","ST-NASF","ST/C&L","USNMNMS","New Mexico State Forestry Division","NMNMS","New Mexico - State Forestry","","40480249X","","LIENDRE","","","","","","2002","2002/09/02 00:00:00+00","245","1830","Natural","Natural","","2002/09/04 00:00:00+00","247","","0.13","A","35.45083002","-105.135","MISSING/NOT SPECIFIED","NM","San Miguel","35047","San Miguel County"
"-105.116690217","36.166664105","560183","602571","SFO-2002NMFDNM00350402-03-40500255X","NONFED","ST-NASF","ST/C&L","USNMNMS","New Mexico State Forestry Division","NMNMS","New Mexico - State Forestry","","40500255X","","RIMROCK","","","","","","2002","2002/09/04 00:00:00+00","247","1431","Natural","Natural","","2002/09/06 00:00:00+00","249","","0.1","A","36.16667","-105.11669999","MISSING/NOT SPECIFIED","NM","Mora","35033","Mora County"
"-105.427790166","36.067494148","560184","602572","SFO-2002NMFDNM00350402-03-40510256X","NONFED","ST-NASF","ST/C&L","USNMNMS","New Mexico State Forestry Division","NMNMS","New Mexico - State Forestry","","40510256X","","","","","","","","2002","2002/09/05 00:00:00+00","248","1414","Human","Arson/incendiarism","","2002/09/07 00:00:00+00","250","","0.1","A","36.06750001","-105.4278","MISSING/NOT SPECIFIED","NM","Mora","35033","Mora County"
"-105.26749019","36.084164116","560185","602573","SFO-2002NMFDNM00350402-03-40520261X","NONFED","ST-NASF","ST/C&L","USNMNMS","New Mexico State Forestry Division","NMNMS","New Mexico - State Forestry","","40520261X","","CHARLIE","","","","","","2002","2002/09/07 00:00:00+00","250","1412","Natural","Natural","","2002/09/09 00:00:00+00","252","","6","B","36.08416999","-105.26749999","MISSING/NOT SPECIFIED","NM","Mora","35033","Mora County"
"-105.25189022","36.130544118","560186","602574","SFO-2002NMFDNM00350402-03-40540263X","NONFED","ST-NASF","ST/C&L","USNMNMS","New Mexico State Forestry Division","NMNMS","New Mexico - State Forestry","","40540263X","","WINDY","","","","","","2002","2002/09/07 00:00:00+00","250","1700","Natural","Natural","","2002/09/09 00:00:00+00","252","","0.06","A","36.13055","-105.25190002","MISSING/NOT SPECIFIED","NM","Mora","35033","Mora County"
"-105.342190239","35.675824212","560187","602575","SFO-2002NMFDNM00350402-03-40560270X","NONFED","ST-NASF","ST/C&L","USNMNMS","New Mexico State Forestry Division","NMNMS","New Mexico - State Forestry","","40560270X","","FALL ","","","","","","2002","2002/09/23 00:00:00+00","266","1626","Natural","Natural","","2002/09/25 00:00:00+00","268","","0.25","A","35.67583002","-105.34220002","MISSING/NOT SPECIFIED","NM","San Miguel","35047","San Miguel County"
"-105.424990179","35.804154158","560188","602576","SFO-2002NMFDNM00350402-03-40580279X","NONFED","ST-NASF","ST/C&L","USNMNMS","New Mexico State Forestry Division","NMNMS","New Mexico - State Forestry","","40580279X","","","","","","","","2002","2002/10/09 00:00:00+00","282","1548","Natural","Natural","","2002/10/11 00:00:00+00","284","","1.5","B","35.80415998","-105.42499999","MISSING/NOT SPECIFIED","NM","San Miguel","35047","San Miguel County"
"-105.13999037","34.626664343","560189","602577","SFO-2002NMFDNM00350402-03-40590285X","NONFED","ST-NASF","ST/C&L","USNMNMS","New Mexico State Forestry Division","NMNMS","New Mexico - State Forestry","","40590285X","","SMALL","","","","","","2002","2002/10/27 00:00:00+00","300","1300","Human","Missing data/not specified/undetermined","","2002/10/29 00:00:00+00","302","","3","B","34.62667","-105.14000002","MISSING/NOT SPECIFIED","NM","Guadalupe","35019","Guadalupe County"
"-105.3052902","35.991934142","560190","602578","SFO-2002NMFDNM00350402-03-40610287X","NONFED","ST-NASF","ST/C&L","USNMNMS","New Mexico State Forestry Division","NMNMS","New Mexico - State Forestry","","40610287X","","HATCHERY","","","","","","2002","2002/11/08 00:00:00+00","312","0600","Human","Missing data/not specified/undetermined","","2002/11/10 00:00:00+00","314","","25","C","35.99194","-105.3053","MISSING/NOT SPECIFIED","NM","Mora","35033","Mora County"
"-105.563290315","33.556664524","560191","602579","SFO-2002NMFDNM00350402-03-50010022X","NONFED","ST-NASF","ST/C&L","USNMNMS","New Mexico State Forestry Division","NMNMS","New Mexico - State Forestry","","50010022X","","CLARK","","","","","","2002","2002/07/01 00:00:00+00","182","2050","Natural","Natural","","2002/07/03 00:00:00+00","184","","0.1","A","33.55666999","-105.56329998","MISSING/NOT SPECIFIED","NM","Lincoln","35027","Lincoln County"
"-106.029990203","33.66999454","560192","602580","SFO-2002NMFDNM00350402-03-50070092X","NONFED","ST-NASF","ST/C&L","USNMNMS","New Mexico State Forestry Division","NMNMS","New Mexico - State Forestry","","50070092X","","GRIDER","","","","","","2002","2002/07/08 00:00:00+00","189","2000","Natural","Natural","","2002/07/10 00:00:00+00","191","","0.1","A","33.67","-106.02999998","MISSING/NOT SPECIFIED","NM","Lincoln","35027","Lincoln County"
"-105.902490299","33.139714617","560193","602581","SFO-2002NMFDNM00350402-03-50080093X","NONFED","ST-NASF","ST/C&L","USNMNMS","New Mexico State Forestry Division","NMNMS","New Mexico - State Forestry","","50080093X","","ROUND","","","","","","2002","2002/07/11 00:00:00+00","192","2115","Natural","Natural","","2002/07/13 00:00:00+00","194","","0.1","A","33.13972","-105.90250001","MISSING/NOT SPECIFIED","NM","Otero","35035","Otero County"
"-105.616690385","32.801664648","560194","602583","SFO-2002NMFDNM00350402-03-50100114X","NONFED","ST-NASF","ST/C&L","USNMNMS","New Mexico State Forestry Division","NMNMS","New Mexico - State Forestry","","50100114X","","COMFORT","","","","","","2002","2002/07/14 00:00:00+00","195","1700","Natural","Natural","","2002/07/16 00:00:00+00","197","","0.1","A","32.80166999","-105.61670001","MISSING/NOT SPECIFIED","NM","Otero","35035","Otero County"
"-104.869690488","33.869714449","560195","602584","SFO-2002NMFDNM00350402-03-50120160X","NONFED","ST-NASF","ST/C&L","USNMNMS","New Mexico State Forestry Division","NMNMS","New Mexico - State Forestry","","50120160X","","FIELDS","","","","","","2002","2002/07/28 00:00:00+00","209","1830","Natural","Natural","","2002/07/30 00:00:00+00","211","","320","E","33.86972","-104.86970002","MISSING/NOT SPECIFIED","NM","Roosevelt","35041","Roosevelt County"
"-103.361690789","33.901664348","560196","602585","SFO-2002NMFDNM00350402-03-50130168X","NONFED","ST-NASF","ST/C&L","USNMNMS","New Mexico State Forestry Division","NMNMS","New Mexico - State Forestry","","50130168X","","MUSICK","","","","","","2002","2002/08/04 00:00:00+00","216","0830","Human","Debris and open burning","","2002/08/06 00:00:00+00","218","","250","D","33.90166998","-103.36169998","MISSING/NOT SPECIFIED","NM","Roosevelt","35041","Roosevelt County"
"-105.873290268","33.669994532","560197","602586","SFO-2002NMFDNM00350402-03-50140170X","NONFED","ST-NASF","ST/C&L","USNMNMS","New Mexico State Forestry Division","NMNMS","New Mexico - State Forestry","","50140170X","","LY","","","","","","2002","2002/08/05 00:00:00+00","217","0830","Natural","Natural","","2002/08/07 00:00:00+00","219","","0.75","B","33.67","-105.87330001","MISSING/NOT SPECIFIED","NM","Lincoln","35027","Lincoln County"
"-106.279890078","35.096594333","560198","602587","SFO-2002NMFDNM00350402-03-60020003X","NONFED","ST-NASF","ST/C&L","USNMNMS","New Mexico State Forestry Division","NMNMS","New Mexico - State Forestry","","60020003X","","SEDILLO","","","","","","2002","2002/07/01 00:00:00+00","182","1415","Human","Missing data/not specified/undetermined","","2002/07/03 00:00:00+00","184","","5","B","35.0966","-106.27990002","MISSING/NOT SPECIFIED","NM","Bernalillo","35001","Bernalillo County"
"-105.965390135","35.007894339","560199","602589","SFO-2002NMFDNM00350402-03-60040005X","NONFED","ST-NASF","ST/C&L","USNMNMS","New Mexico State Forestry Division","NMNMS","New Mexico - State Forestry","","60040005X","","FLATRABBIT","","","","","","2002","2002/07/02 00:00:00+00","183","1850","Human","Missing data/not specified/undetermined","","2002/07/04 00:00:00+00","185","","0.1","A","35.00790001","-105.9654","MISSING/NOT SPECIFIED","NM","Torrance","35057","Torrance County"
"-106.237390049","35.086094302","560200","602590","SFO-2002NMFDNM00350402-03-60050006X","NONFED","ST-NASF","ST/C&L","USNMNMS","New Mexico State Forestry Division","NMNMS","New Mexico - State Forestry","","60050006X","","3 STOOGES","","","","","","2002","2002/07/01 00:00:00+00","182","2215","Human","Misuse of fire by a minor","Minor","2002/07/03 00:00:00+00","184","","0.01","A","35.08609997","-106.23739998","MISSING/NOT SPECIFIED","NM","Santa Fe","35049","Santa Fe County"
"-105.919990103","35.403294246","560201","602591","SFO-2002NMFDNM00350402-03-60060007X","NONFED","ST-NASF","ST/C&L","USNMNMS","New Mexico State Forestry Division","NMNMS","New Mexico - State Forestry","","60060007X","","BADBOY","","","","","","2002","2002/07/02 00:00:00+00","183","1154","Natural","Natural","","2002/07/04 00:00:00+00","185","","0.75","B","35.40329998","-105.91999999","MISSING/NOT SPECIFIED","NM","Santa Fe","35049","Santa Fe County"
"-106.43429009","34.395694438","560202","602595","SFO-2002NMFDNM00350402-03-60150069X","NONFED","ST-NASF","ST/C&L","USNMNMS","New Mexico State Forestry Division","NMNMS","New Mexico - State Forestry","","60150069X","","RAFAEL","","","","","","2002","2002/07/09 00:00:00+00","190","1541","Human","Railroad operations and maintenance","","2002/07/11 00:00:00+00","192","","0.1","A","34.39569999","-106.43430001","MISSING/NOT SPECIFIED","NM","Torrance","35057","Torrance County"
"-107.642189741","35.337094374","560203","602596","SFO-2002NMFDNM00350402-03-60160070X","NONFED","ST-NASF","ST/C&L","USNMNMS","New Mexico State Forestry Division","NMNMS","New Mexico - State Forestry","","60160070X","","HOT BLAZES","","","","","","2002","2002/07/09 00:00:00+00","190","1251","Natural","Natural","","2002/07/11 00:00:00+00","192","","5","B","35.3371","-107.6422","MISSING/NOT SPECIFIED","NM","McKinley","35031","McKinley County"
"-106.416090102","34.427494462","560204","602597","SFO-2002NMFDNM00350402-03-60170075X","NONFED","ST-NASF","ST/C&L","USNMNMS","New Mexico State Forestry Division","NMNMS","New Mexico - State Forestry","","60170075X","","SCHOLLE","","","","","","2002","2002/07/09 00:00:00+00","190","1549","Natural","Natural","","2002/07/11 00:00:00+00","192","","5.5","B","34.42750002","-106.41610002","MISSING/NOT SPECIFIED","NM","Torrance","35057","Torrance County"
"-106.13749008","35.338894278","560205","602598","SFO-2002NMFDNM00350402-03-60190089X","NONFED","ST-NASF","ST/C&L","USNMNMS","New Mexico State Forestry Division","NMNMS","New Mexico - State Forestry","","60190089X","","ORTIZ MINE","","","","","","2002","2002/07/11 00:00:00+00","192","0705","Natural","Natural","","2002/07/13 00:00:00+00","194","","0.1","A","35.33889999","-106.13750001","MISSING/NOT SPECIFIED","NM","Santa Fe","35049","Santa Fe County"
"-107.428189791","35.407894341","560206","602599","SFO-2002NMFDNM00350402-03-60200090X","NONFED","ST-NASF","ST/C&L","USNMNMS","New Mexico State Forestry Division","NMNMS","New Mexico - State Forestry","","60200090X","","TAPIA CANYON","","","","","","2002","2002/07/11 00:00:00+00","192","1530","Natural","Natural","","2002/07/13 00:00:00+00","194","","0.1","A","35.40789999","-107.42820001","MISSING/NOT SPECIFIED","NM","McKinley","35031","McKinley County"
"-105.999990033","35.999994192","560207","602600","SFO-2002NMFDNM00350402-03-60210095X","NONFED","ST-NASF","ST/C&L","USNMNMS","New Mexico State Forestry Division","NMNMS","New Mexico - State Forestry","","60210095X","","BERGEN","","","","","","2002","2002/07/11 00:00:00+00","192","1727","Natural","Natural","","2002/07/13 00:00:00+00","194","","1","B","36.00000001","-105.99999999","MISSING/NOT SPECIFIED","NM","Sandoval","35043","Sandoval County"
"-108.451989603","35.158994456","560208","602601","SFO-2002NMFDNM00350402-03-60220102X","NONFED","ST-NASF","ST/C&L","USNMNMS","New Mexico State Forestry Division","NMNMS","New Mexico - State Forestry","","60220102X","","RUNNINGHORSE","","","","","","2002","2002/07/13 00:00:00+00","194","1200","Natural","Natural","","2002/07/15 00:00:00+00","196","","0.1","A","35.15900001","-108.45200002","MISSING/NOT SPECIFIED","NM","McKinley","35031","McKinley County"
"-106.332690016","35.582994243","560209","602602","SFO-2002NMFDNM00350402-03-60230106X","NONFED","ST-NASF","ST/C&L","USNMNMS","New Mexico State Forestry Division","NMNMS","New Mexico - State Forestry","","60230106X","","","","","","","","2002","2002/07/13 00:00:00+00","194","2300","Human","Recreation and ceremony","","2002/07/15 00:00:00+00","196","","0.1","A","35.58299998","-106.33270001","MISSING/NOT SPECIFIED","NM","Sandoval","35043","Sandoval County"
"-106.847989855","36.0094942","560210","602603","SFO-2002NMFDNM00350402-03-60240110X","NONFED","ST-NASF","ST/C&L","USNMNMS","New Mexico State Forestry Division","NMNMS","New Mexico - State Forestry","","60240110X","","PALOMAS","","","","","","2002","2002/07/14 00:00:00+00","195","1700","Natural","Natural","","2002/07/16 00:00:00+00","197","","0.1","A","36.00949997","-106.848","MISSING/NOT SPECIFIED","NM","Santa Fe","35049","Santa Fe County"
"-106.049090157","34.754694342","560211","602604","SFO-2002NMFDNM00350402-03-60260112X","NONFED","ST-NASF","ST/C&L","USNMNMS","New Mexico State Forestry Division","NMNMS","New Mexico - State Forestry","","60260112X","","WRYE","","","","","","2002","2002/07/14 00:00:00+00","195","1531","Natural","Natural","","2002/07/16 00:00:00+00","197","","0.1","A","34.75469997","-106.04910002","MISSING/NOT SPECIFIED","NM","Torrance","35057","Torrance County"
"-105.515190309","34.32769441","560212","602606","SFO-2002NMFDNM00350402-03-60320126X","NONFED","ST-NASF","ST/C&L","USNMNMS","New Mexico State Forestry Division","NMNMS","New Mexico - State Forestry","","60320126X","","HOLLAMON","","","","","","2002","2002/07/16 00:00:00+00","197","0830","Human","Debris and open burning","","2002/07/18 00:00:00+00","199","","60","C","34.3277","-105.51520002","MISSING/NOT SPECIFIED","NM","Torrance","35057","Torrance County"
"-107.999989683","34.999994453","560213","602607","SFO-2002NMFDNM00350402-03-60330127X","NONFED","ST-NASF","ST/C&L","USNMNMS","New Mexico State Forestry Division","NMNMS","New Mexico - State Forestry","","60330127X","","ONE","","","","","","2002","2002/07/15 00:00:00+00","196","1225","Natural","Natural","","2002/07/17 00:00:00+00","198","","0.1","A","35.00000001","-107.99999999","MISSING/NOT SPECIFIED","NM","Cibola","35006","Cibola County"
"-105.999990196","33.999994497","560214","602608","SFO-2002NMFDNM00350402-03-60340128X","NONFED","ST-NASF","ST/C&L","USNMNMS","New Mexico State Forestry Division","NMNMS","New Mexico - State Forestry","","60340128X","","GODDARD","","","","","","2002","2002/07/15 00:00:00+00","196","1520","Human","Debris and open burning","","2002/07/17 00:00:00+00","198","","0.25","A","34.00000001","-105.99999999","MISSING/NOT SPECIFIED","NM","Valencia","35061","Valencia County"
"-105.999990196","33.999994497","560215","602609","SFO-2002NMFDNM00350402-03-60350129X","NONFED","ST-NASF","ST/C&L","USNMNMS","New Mexico State Forestry Division","NMNMS","New Mexico - State Forestry","","60350129X","","MAESTAS#2","","","","","","2002","2002/07/15 00:00:00+00","196","1745","Human","Debris and open burning","","2002/07/17 00:00:00+00","198","","0.5","B","34.00000001","-105.99999999","MISSING/NOT SPECIFIED","NM","Valencia","35061","Valencia County"
"-105.662490194","34.991994315","560216","602612","SFO-2002NMFDNM00350402-03-60380134X","NONFED","ST-NASF","ST/C&L","USNMNMS","New Mexico State Forestry Division","NMNMS","New Mexico - State Forestry","","60380134X","","SANDY","","","","","","2002","2002/07/16 00:00:00+00","197","0955","Human","Equipment and vehicle use","","2002/07/18 00:00:00+00","199","","0.12","A","34.992","-105.66249999","MISSING/NOT SPECIFIED","NM","Torrance","35057","Torrance County"
"-106.125990065","35.540794257","560217","602613","SFO-2002NMFDNM00350402-03-60420140X","NONFED","ST-NASF","ST/C&L","USNMNMS","New Mexico State Forestry Division","NMNMS","New Mexico - State Forestry","","60420140X","","JIMLO","","","","","","2002","2002/07/18 00:00:00+00","199","1513","Human","Smoking","","2002/07/20 00:00:00+00","201","","0.1","A","35.5408","-106.12600001","MISSING/NOT SPECIFIED","NM","Santa Fe","35049","Santa Fe County"
