"ï»¿X","Y","OBJECTID","FOD_ID","FPA_ID","SOURCE_SYSTEM_TYPE","SOURCE_SYSTEM","NWCG_REPORTING_AGENCY","NWCG_REPORTING_UNIT_ID","NWCG_REPORTING_UNIT_NAME","SOURCE_REPORTING_UNIT","SOURCE_REPORTING_UNIT_NAME","LOCAL_FIRE_REPORT_ID","LOCAL_INCIDENT_ID","FIRE_CODE","FIRE_NAME","ICS_209_PLUS_INCIDENT_JOIN_ID","ICS_209_PLUS_COMPLEX_JOIN_ID","MTBS_ID","MTBS_FIRE_NAME","COMPLEX_NAME","FIRE_YEAR","DISCOVERY_DATE","DISCOVERY_DOY","DISCOVERY_TIME","NWCG_CAUSE_CLASSIFICATION","NWCG_GENERAL_CAUSE","NWCG_CAUSE_AGE_CATEGORY","CONT_DATE","CONT_DOY","CONT_TIME","FIRE_SIZE","FIRE_SIZE_CLASS","LATITUDE","LONGITUDE","OWNER_DESCR","STATE","COUNTY","FIPS_CODE","FIPS_NAME"
"-92.11299369","32.900894043","1910001","400031812","FWS-2017FF04RLUO00LJR4","FED","FWS-FMIS","FWS","USLAUOR","Upper Ouachita National Wildlife Refuge","USLAUOR","UPR OUACHITA NWR","","","LJR4","LAUOR-FY18-WF-DUB MCKINNEY RD","","","","","","2017","2017/12/12 00:00:00+00","346","1230","Missing data/not specified/undetermined","Missing data/not specified/undetermined","","2017/12/13 00:00:00+00","347","1700","22.6","C","32.9009","-92.113","FWS","LA","Union","22111","Union Parish"
"-92.20527168","32.640272099","1910002","400031813","FWS-2017FF04RLDA00LJZ9","FED","FWS-FMIS","FWS","USLADRR","D'Arbonne National Wildlife Refuge","USLADRR","DARBONNE NWR","","","LJZ9","LADRR-FY18-WF-JUDGE FIRE","","","","","","2017","2017/12/16 00:00:00+00","350","0915","Human","Recreation and ceremony","","2017/12/16 00:00:00+00","350","1015","0.1","A","32.640278","-92.205278","FWS","LA","Union","22111","Union Parish"
"-90.308054041","35.166383516","1910003","400031814","FWS-2017FF04RRCR00LJ13","FED","FWS-FMIS","FWS","USARCRR","Cache River National Wildlife Refuge","USARCRR","CACHE RIV NWR","","","LJ13","AUGUSTA CAMP ROAD","","","","","","2017","2017/12/16 00:00:00+00","350","1500","Human","Recreation and ceremony","","2017/12/16 00:00:00+00","350","1530","6","B","35.16639","-90.30806","FWS","AR","Crittenden","05035","Crittenden County"
"-95.997623824","41.494070746","1910004","400031815","FWS-2017FF03RDST00LJ2K","FED","FWS-FMIS","FWS","USIADSR","DeSoto National Wildlife Refuge","USIADSR","DESOTO NWR","","","LJ2K","SOUTHEAST DESOTO","","","","","","2017","2017/12/20 00:00:00+00","354","1445","Human","Debris and open burning","","2017/12/20 00:00:00+00","354","1800","50.3","C","41.49407803","-95.99763189","FWS","IA","Pottawattamie","19155","Pottawattamie County"
"-98.012990714","46.355992171","1910005","400031816","FWS-2017FF06RETE00LJ8M","FED","FWS-FMIS","FWS","USNDTDR","Tewaukon Wetland Management District","USNDTDR","TEWAUKON WMD","","","LJ8M","SMITH-TANNER WPA","","","","","","2017","2017/11/20 00:00:00+00","324","1500","Missing data/not specified/undetermined","Missing data/not specified/undetermined","","2017/11/20 00:00:00+00","324","1545","24.6","C","46.356","-98.013","FWS","ND","Ransom","38073","Ransom County"
"-96.976991041","46.094992124","1910006","400031817","FWS-2017FF06RETE00LJ8E","FED","FWS-FMIS","FWS","USNDTDR","Tewaukon Wetland Management District","USNDTDR","TEWAUKON WMD","","","LJ8E","HARTLEBEN 1 WF","","","","","","2017","2017/11/20 00:00:00+00","324","1400","Human","Arson/incendiarism","","2017/11/20 00:00:00+00","324","1445","9.7","B","46.095","-96.977","FWS","ND","Richland","38077","Richland County"
"-96.958991046","46.094992122","1910007","400031818","FWS-2017FF06RETE00LJ8F","FED","FWS-FMIS","FWS","USNDTDR","Tewaukon Wetland Management District","USNDTDR","TEWAUKON WMD","","","LJ8F","HARTLEBEN 2 WF","","","","","","2017","2017/11/20 00:00:00+00","324","1400","Human","Arson/incendiarism","","2017/11/20 00:00:00+00","324","1445","1","B","46.095","-96.959","FWS","ND","Richland","38077","Richland County"
"-96.790250417","33.733168084","1910008","400031819","FWS-2017FF02RTHA00LK31","FED","FWS-FMIS","FWS","USTXHGR","Hagerman National Wildlife Refuge","USTXHGR","HAGERMAN NWR","","","LK31","SANDY","","","","","","2017","2017/12/28 00:00:00+00","362","1600","Human","Equipment and vehicle use","","2017/12/28 00:00:00+00","362","1700","0.1","A","33.733174","-96.790258","FWS","TX","Grayson","48181","Grayson County"
"-94.02069941","42.029086504","1910009","400031820","FWS-2017FF03RIAW003055","FED","FWS-FMIS","FWS","USIAWTR","Iowa Wetland Management District","USIAWTR","IA WMD","","","3055","HARRIER MARSH","","","","","","2017","2017/11/16 00:00:00+00","320","0000","Missing data/not specified/undetermined","Missing data/not specified/undetermined","","","","","0.1","A","42.029094","-94.020707","FWS","IA","","",""
"-94.329381358","41.73654357","1910010","400031821","FWS-2017FF03RIAW003056","FED","FWS-FMIS","FWS","USIAWTR","Iowa Wetland Management District","USIAWTR","IA WMD","","","3056","WINTERS","","","","","","2017","2017/11/15 00:00:00+00","319","0000","Missing data/not specified/undetermined","Missing data/not specified/undetermined","","","","","0.1","A","41.736551","-94.329389","FWS","IA","","",""
"-76.471988004","36.708472648","1910011","400031822","FWS-2017FF05RDIS00LT92","FED","FWS-FMIS","FWS","USVAGDR","Great Dismal Swamp National Wildlife Refuge","USVAGDR","GREAT DISMAL SWAMP NWR","","","LT92","HUDNELL CAMP FIRE","","","","","","2017","2017/11/18 00:00:00+00","322","2000","Human","Debris and open burning","","2017/11/19 00:00:00+00","323","0200","0.1","A","36.70848","-76.47199","FWS","VA","Suffolk","51800","Suffolk city"
"-94.951287722","35.462410928","1910012","400031823","FWS-2017FF02RKSQ00LNE5","FED","FWS-FMIS","FWS","USOKSQR","Sequoyah National Wildlife Refuge","USOKSQR","SEQUOYAH NWR","","","LNE5","BOXTURTLE","","","","","","2017","2017/11/28 00:00:00+00","332","1030","Human","Debris and open burning","","2017/11/29 00:00:00+00","333","1200","12","C","35.46241725","-94.95129495","FWS","OK","Sequoyah","40135","Sequoyah County"
"-148.714475994","62.502859349","1910013","400031826","AK-MSS-2017-701188","INTERAGCY","IA-AKACC","ST/C&L","USAKMSS","Mat-Su Area","AKMSS","Mat-Su Area Forestry","188","701188","","TALKEETNA RIVER","2017_7276142_TALKEETNA RIVER","","","","","2017","2017/06/06 00:00:00+00","157","","Natural","Natural","","2017/07/07 00:00:00+00","188","","979.5","E","62.5028611","-148.7145","STATE","AK","","",""
"-147.622501722","64.894470412","1910014","400031831","AK-FAS-2017-711203","INTERAGCY","IA-AKACC","ST/C&L","USAKFAS","Fairbanks Area","AKFAS","Fairbanks Area Forestry","203","711203","","PANNICK","","","","","","2017","2017/06/07 00:00:00+00","158","","Human","Missing data/not specified/undetermined","","2017/06/07 00:00:00+00","158","","0.1","A","64.8944722","-147.6225278","PRIVATE","AK","","",""
"-148.916113039","64.668359522","1910015","400031832","AK-FAS-2017-711209","INTERAGCY","IA-AKACC","ST/C&L","USAKFAS","Fairbanks Area","AKFAS","Fairbanks Area Forestry","209","711209","","LITTLE GOLDSTREAM","","","","","","2017","2017/06/08 00:00:00+00","159","","Human","Missing data/not specified/undetermined","","2017/06/08 00:00:00+00","159","","0.1","A","64.6683611","-148.9161389","PRIVATE","AK","","",""
"-149.808948994","61.442887262","1910016","400031838","AK-MSS-2017-701230","INTERAGCY","IA-AKACC","ST/C&L","USAKMSS","Mat-Su Area","AKMSS","Mat-Su Area Forestry","230","701230","","LEWIS LOOP","","","","","","2017","2017/06/15 00:00:00+00","166","","Human","Equipment and vehicle use","","2017/06/15 00:00:00+00","166","","0.1","A","61.4428889","-149.8089722","PRIVATE","AK","","",""
"-151.291811273","59.713498487","1910017","400031840","AK-KKS-2017-703232","INTERAGCY","IA-AKACC","ST/C&L","USAKKKS","Kenai-Kodiak Area","AKKKS","Kenai-Kodiak Area Forestry","232","703232","","WILDERNESS","","","","","","2017","2017/06/15 00:00:00+00","166","","Human","Missing data/not specified/undetermined","","2017/06/15 00:00:00+00","166","","1","B","59.7135","-151.2918333","PRIVATE","AK","","",""
"-149.965782227","61.539776194","1910018","400031847","AK-MSS-2017-701242","INTERAGCY","IA-AKACC","ST/C&L","USAKMSS","Mat-Su Area","AKMSS","Mat-Su Area Forestry","242","701242","","CALL OF THE WILD","","","","","","2017","2017/06/17 00:00:00+00","168","","Human","Missing data/not specified/undetermined","","2017/06/18 00:00:00+00","169","","3.8","B","61.5397778","-149.9658055","PRIVATE","AK","","",""
"-149.487615551","61.637637222","1910019","400031848","AK-MSS-2017-701248","INTERAGCY","IA-AKACC","ST/C&L","USAKMSS","Mat-Su Area","AKMSS","Mat-Su Area Forestry","248","701248","","CRAZY PEARSONS","","","","","","2017","2017/06/19 00:00:00+00","170","","Human","Debris and open burning","","2017/06/19 00:00:00+00","170","","0.1","A","61.6376389","-149.4876389","PRIVATE","AK","","",""
"-150.112837643","61.795304035","1910020","400031852","AK-MSS-2017-701262","INTERAGCY","IA-AKACC","ST/C&L","USAKMSS","Mat-Su Area","AKMSS","Mat-Su Area Forestry","262","701262","","SHAREN","","","","","","2017","2017/06/25 00:00:00+00","176","","Human","Missing data/not specified/undetermined","","2017/06/25 00:00:00+00","176","","0.5","B","61.7953056","-150.1128611","PRIVATE","AK","","",""
"-157.429810711","61.019082865","1910021","400031854","AK-SWS-2017-704265","INTERAGCY","IA-AKACC","ST/C&L","USAKSWS","Southwest Area","AKSWS","Southwest Area Forestry","265","704265","","WAYNE TAYLOR","2017_7208559_WAYNE TAYLOR","","","","","2017","2017/06/25 00:00:00+00","176","","Natural","Natural","","2017/07/24 00:00:00+00","205","","127","D","61.0190833","-157.4298333","STATE","AK","","",""
"-149.35528002","64.25947067","1910022","400031857","AK-FAS-2017-711290","INTERAGCY","IA-AKACC","ST/C&L","USAKFAS","Fairbanks Area","AKFAS","Fairbanks Area Forestry","290","711290","","NENANA ROAD","","","","","","2017","2017/07/02 00:00:00+00","183","","Human","Missing data/not specified/undetermined","","2017/07/03 00:00:00+00","184","","0.1","A","64.2594722","-149.3553055","PRIVATE","AK","","",""
"-143.265389705","65.912469711","1910023","400031869","AK-UYD-2017-000349","INTERAGCY","IA-AKACC","BLM","USAKUYD","Alaska Fire Service - Upper Yukon Zone","AKUYD","Alaska Fire Service - Upper Yukon Zone","349","","K517","PADDLE CREEK 2","","","","","","2017","2017/07/18 00:00:00+00","199","","Natural","Natural","","2017/07/18 00:00:00+00","199","","4.4","B","65.9124722","-143.2654167","FWS","AK","","",""
"-151.511511125","59.474731506","1910024","400031871","AK-KKS-2017-703412","INTERAGCY","IA-AKACC","ST/C&L","USAKKKS","Kenai-Kodiak Area","AKKKS","Kenai-Kodiak Area Forestry","412","703412","","LITTLE JAKOLOF BAY","","","","","","2017","2017/10/19 00:00:00+00","292","","Human","Missing data/not specified/undetermined","","2017/10/20 00:00:00+00","293","","0.3","B","59.474733","-151.511533","PRIVATE","AK","","",""
"-149.012359727","61.526531237","1910025","400031874","AK-MSS-2017-701383","INTERAGCY","IA-AKACC","ST/C&L","USAKMSS","Mat-Su Area","AKMSS","Mat-Su Area Forestry","383","701383","","JIM CREEK","","","","","","2017","2017/08/06 00:00:00+00","218","","Human","Recreation and ceremony","","2017/08/06 00:00:00+00","218","","0.1","A","61.526533","-149.012383","COUNTY","AK","","",""
"-147.695224018","64.794109319","1910026","400031875","AK-FAS-2017-711269","INTERAGCY","IA-AKACC","ST/C&L","USAKFAS","Fairbanks Area","AKFAS","Fairbanks Area Forestry","269","711269","","RIFLE RANGE","","","","","","2017","2017/06/26 00:00:00+00","177","","Human","Missing data/not specified/undetermined","","2017/06/26 00:00:00+00","177","","0.1","A","64.7941111","-147.69525","COUNTY","AK","","",""
"-150.065143753","61.505331408","1910027","400031877","AK-MSS-2017-701327","INTERAGCY","IA-AKACC","ST/C&L","USAKMSS","Mat-Su Area","AKMSS","Mat-Su Area Forestry","327","701327","","SPRUCE BARK","","","","","","2017","2017/07/10 00:00:00+00","191","","Human","Debris and open burning","","2017/07/10 00:00:00+00","191","","0.1","A","61.505333","-150.065167","COUNTY","AK","","",""
"-149.619977159","60.919498298","1910028","400031880","AK-CGF-2017-731378","INTERAGCY","IA-AKACC","FS","USAKCGF","Chugach National Forest","AKCGF","Chugach National Forest","378","731378","K8TR","HOPE","","","","","","2017","2017/08/01 00:00:00+00","213","","Human","Missing data/not specified/undetermined","","2017/08/02 00:00:00+00","214","","0.1","A","60.9195","-149.62","COUNTY","AK","","",""
"-143.116442489","63.264664351","1910029","400031882","AK-TAS-2017-713398","INTERAGCY","IA-AKACC","ST/C&L","USAKTAS","Tok Area","AKTAS","Tok Area Forestry","398","713398","","BUTCH KUTH EXTENSION","","","","","","2017","2017/08/24 00:00:00+00","236","","Human","Recreation and ceremony","","2017/08/25 00:00:00+00","237","","3","B","63.264667","-143.116467","STATE","AK","","",""
"-151.437061284","59.699831809","1910030","400031883","AK-KKS-2017-703005","INTERAGCY","IA-AKACC","ST/C&L","USAKKKS","Kenai-Kodiak Area","AKKKS","Kenai-Kodiak Area Forestry","005","703005","","OHLSON MOUNTAIN","","","","","","2017","2017/03/25 00:00:00+00","84","","Human","Missing data/not specified/undetermined","","2017/03/25 00:00:00+00","84","","0.1","A","59.6998333","-151.4370833","PRIVATE","AK","","",""
"-145.404476377","62.045830971","1910031","400031885","AK-CRS-2017-714021","INTERAGCY","IA-AKACC","ST/C&L","USAKCRS","Valdez-Copper River Area","AKCRS","Valdez-Copper River Area Forestry","021","714021","","OLD SCHOOL","","","","","","2017","2017/04/17 00:00:00+00","107","","Human","Debris and open burning","","2017/04/17 00:00:00+00","107","","0.5","B","62.0458333","-145.4045","PRIVATE","AK","","",""
"-149.119671041","61.646303762","1910032","400031886","AK-MSS-2017-701023","INTERAGCY","IA-AKACC","ST/C&L","USAKMSS","Mat-Su Area","AKMSS","Mat-Su Area Forestry","023","701023","","FARM LOOP","","","","","","2017","2017/04/19 00:00:00+00","109","","Human","Debris and open burning","","2017/04/19 00:00:00+00","109","","1.8","B","61.6463055","-149.1196944","PRIVATE","AK","","",""
"-149.14855997","61.606776064","1910033","400031887","AK-MSS-2017-701025","INTERAGCY","IA-AKACC","ST/C&L","USAKMSS","Mat-Su Area","AKMSS","Mat-Su Area Forestry","025","701025","","HEMMER","","","","","","2017","2017/04/20 00:00:00+00","110","","Human","Equipment and vehicle use","","2017/04/20 00:00:00+00","110","","0.1","A","61.6067778","-149.1485833","PRIVATE","AK","","",""
"-149.493726667","61.614887222","1910034","400031888","AK-MSS-2017-701027","INTERAGCY","IA-AKACC","ST/C&L","USAKMSS","Mat-Su Area","AKMSS","Mat-Su Area Forestry","027","701027","","RYAHS WAY","","","","","","2017","2017/04/20 00:00:00+00","110","","Human","Equipment and vehicle use","","2017/04/20 00:00:00+00","110","","0.2","A","61.6148889","-149.49375","PRIVATE","AK","","",""
"-148.569446919","64.032053921","1910035","400031892","AK-FAS-2017-711171","INTERAGCY","IA-AKACC","ST/C&L","USAKFAS","Fairbanks Area","AKFAS","Fairbanks Area Forestry","171","711171","","COAL CREEK WEST","","","","","","2017","2017/06/06 00:00:00+00","157","","Natural","Natural","","2017/06/13 00:00:00+00","164","","0.1","A","64.0320556","-148.5694722","STATE","AK","","",""
"-149.526593736","61.520331321","1910036","400031898","AK-MSS-2017-701386","INTERAGCY","IA-AKACC","ST/C&L","USAKMSS","Mat-Su Area","AKMSS","Mat-Su Area Forestry","386","701386","","SURREY","","","","","","2017","2017/08/08 00:00:00+00","220","","Human","Missing data/not specified/undetermined","","2017/08/08 00:00:00+00","220","","0.1","A","61.520333","-149.526617","PRIVATE","AK","","",""
"-148.229124067","64.741681308","1910037","400031899","AK-FAS-2017-711392","INTERAGCY","IA-AKACC","ST/C&L","USAKFAS","Fairbanks Area","AKFAS","Fairbanks Area Forestry","392","711392","","LASODA ROAD","","","","","","2017","2017/08/11 00:00:00+00","223","","Human","Missing data/not specified/undetermined","","2017/08/11 00:00:00+00","223","","0.1","A","64.741683","-148.22915","STATE","AK","","",""
"-149.959532063","61.764304008","1910038","400031902","AK-MSS-2017-701056","INTERAGCY","IA-AKACC","ST/C&L","USAKMSS","Mat-Su Area","AKMSS","Mat-Su Area Forestry","056","701056","KZ9E","WILLOW FISHHOOK","","","","","","2017","2017/05/03 00:00:00+00","123","","Human","Debris and open burning","","2017/05/03 00:00:00+00","123","","1","B","61.7643056","-149.9595555","PRIVATE","AK","","",""
"-145.591224742","64.037692212","1910039","400031904","AK-DAS-2017-712060","INTERAGCY","IA-AKACC","ST/C&L","USAKDAS","Delta Area","AKDAS","Delta Area Forestry","060","712060","","4.5 MILE NISTLER ROAD","","","","","","2017","2017/05/04 00:00:00+00","124","","Human","Debris and open burning","","2017/05/05 00:00:00+00","125","","25","C","64.0376944","-145.59125","PRIVATE","AK","","",""
"-144.988074935","63.835947698","1910040","400031908","AK-DAS-2017-712409","INTERAGCY","IA-AKACC","ST/C&L","USAKDAS","Delta Area","AKDAS","Delta Area Forestry","409","712409","","M.P 1395","","","","","","2017","2017/09/27 00:00:00+00","270","","Human","Recreation and ceremony","","2017/09/27 00:00:00+00","270","","0.1","A","63.83595","-144.9881","STATE","AK","","",""
"-145.152032178","61.784608716","1910041","400031909","AK-CRS-2017-714006","INTERAGCY","IA-AKACC","ST/C&L","USAKCRS","Valdez-Copper River Area","AKCRS","Valdez-Copper River Area Forestry","006","714006","","LAKERIDGE","","","","","","2017","2017/03/31 00:00:00+00","90","","Human","Debris and open burning","","2017/03/31 00:00:00+00","90","","0.1","A","61.7846111","-145.1520556","PRIVATE","AK","","",""
"-144.688086152","63.71102544","1910042","400031910","AK-DAS-2017-712007","INTERAGCY","IA-AKACC","ST/C&L","USAKDAS","Delta Area","AKDAS","Delta Area Forestry","007","712007","","LISA LAKE","","","","","","2017","2017/04/06 00:00:00+00","96","","Human","Recreation and ceremony","","2017/04/07 00:00:00+00","97","","0.1","A","63.7110278","-144.6881111","STATE","AK","","",""
"-149.391809982","61.593414903","1910043","400031911","AK-MSS-2017-701015","INTERAGCY","IA-AKACC","ST/C&L","USAKMSS","Mat-Su Area","AKMSS","Mat-Su Area Forestry","015","701015","","EAST BOGARD","","","","","","2017","2017/04/13 00:00:00+00","103","","Human","Recreation and ceremony","","2017/04/14 00:00:00+00","104","","0.3","B","61.5934166","-149.3918333","PRIVATE","AK","","",""
"-134.928590388","58.608884772","1910044","400031912","AK-TNF-2017-731016","INTERAGCY","IA-AKACC","FS","USAKTNF","Tongass National Forest","AKTNF","Tongass National Forest","016","731016","KY50","SUNSHINE COVE","","","","","","2017","2017/04/13 00:00:00+00","103","","Human","Missing data/not specified/undetermined","","","","","0.1","A","58.6088889","-134.9286111","STATE","AK","","",""
"-149.332087733","61.659970498","1910045","400031913","AK-MSS-2017-701024","INTERAGCY","IA-AKACC","ST/C&L","USAKMSS","Mat-Su Area","AKMSS","Mat-Su Area Forestry","024","701024","","HERMAN","","","","","","2017","2017/04/20 00:00:00+00","110","","Human","Debris and open burning","","2017/04/20 00:00:00+00","110","","0.2","A","61.6599722","-149.3321111","PRIVATE","AK","","",""
"-149.40314336","61.623220507","1910046","400031914","AK-MSS-2017-701075","INTERAGCY","IA-AKACC","ST/C&L","USAKMSS","Mat-Su Area","AKMSS","Mat-Su Area Forestry","075","701075","","RED FOX DRIVE","","","","","","2017","2017/05/08 00:00:00+00","128","","Human","Debris and open burning","","2017/05/08 00:00:00+00","128","","0.1","A","61.6232222","-149.4031667","PRIVATE","AK","","",""
"-149.244921021","61.675887184","1910047","400031915","AK-MSS-2017-701076","INTERAGCY","IA-AKACC","ST/C&L","USAKMSS","Mat-Su Area","AKMSS","Mat-Su Area Forestry","076","701076","","GOLD BULLION","","","","","","2017","2017/05/09 00:00:00+00","129","","Human","Equipment and vehicle use","","2017/05/09 00:00:00+00","129","","0.1","A","61.6758889","-149.2449444","PRIVATE","AK","","",""
"-145.406143078","62.045275472","1910048","400031917","AK-CRS-2017-714099","INTERAGCY","IA-AKACC","ST/C&L","USAKCRS","Valdez-Copper River Area","AKCRS","Valdez-Copper River Area Forestry","099","714099","","OLD SCHOOL ROAD","","","","","","2017","2017/05/16 00:00:00+00","136","","Human","Debris and open burning","","2017/05/16 00:00:00+00","136","","0.1","A","62.0452778","-145.4061667","PRIVATE","AK","","",""
"-145.406031983","62.037553271","1910049","400031918","AK-CRS-2017-714103","INTERAGCY","IA-AKACC","ST/C&L","USAKCRS","Valdez-Copper River Area","AKCRS","Valdez-Copper River Area Forestry","103","714103","","SMELTZER","","","","","","2017","2017/05/16 00:00:00+00","136","","Human","Missing data/not specified/undetermined","","2017/05/16 00:00:00+00","136","","0.5","B","62.0375556","-145.4060556","STATE","AK","","",""
"-151.170838587","60.468720719","1910050","400031919","AK-KKS-2017-703105","INTERAGCY","IA-AKACC","ST/C&L","USAKKKS","Kenai-Kodiak Area","AKKKS","Kenai-Kodiak Area Forestry","105","703105","","MOOSE RUN","","","","","","2017","2017/05/16 00:00:00+00","136","","Human","Missing data/not specified/undetermined","","2017/05/16 00:00:00+00","136","","0.1","A","60.4687222","-151.1708611","PRIVATE","AK","","",""
"-151.16794967","60.49372072","1910051","400031920","AK-KKS-2017-703114","INTERAGCY","IA-AKACC","ST/C&L","USAKKKS","Kenai-Kodiak Area","AKKKS","Kenai-Kodiak Area Forestry","114","703114","","ANDREWS","","","","","","2017","2017/05/18 00:00:00+00","138","","Human","Debris and open burning","","2017/05/18 00:00:00+00","138","","0.1","A","60.4937222","-151.1679722","PRIVATE","AK","","",""
"-145.41108584","64.044303381","1910052","400031921","AK-DAS-2017-712116","INTERAGCY","IA-AKACC","ST/C&L","USAKDAS","Delta Area","AKDAS","Delta Area Forestry","116","712116","","CLEARWATER","","","","","","2017","2017/05/19 00:00:00+00","139","","Human","Debris and open burning","","2017/05/20 00:00:00+00","140","","0.4","B","64.0443056","-145.4111111","PRIVATE","AK","","",""
"-143.034058467","63.295164338","1910053","400031925","AK-TAS-2017-713129","INTERAGCY","IA-AKACC","ST/C&L","USAKTAS","Tok Area","AKTAS","Tok Area Forestry","129","713129","K060","MIDNIGHT SUN","","","","","","2017","2017/05/28 00:00:00+00","148","","Human","Debris and open burning","","2017/05/28 00:00:00+00","148","","0.2","A","63.295167","-143.034083","PRIVATE","AK","","",""
"-149.117726641","61.646442662","1910054","400031928","AK-MSS-2017-701026","INTERAGCY","IA-AKACC","ST/C&L","USAKMSS","Mat-Su Area","AKMSS","Mat-Su Area Forestry","026","701026","","BOGARD","","","","","","2017","2017/04/20 00:00:00+00","110","","Human","Equipment and vehicle use","","2017/04/20 00:00:00+00","110","","0.3","B","61.6464444","-149.11775","PRIVATE","AK","","",""
"-149.567366013","60.984526093","1910055","400031929","AK-MSS-2017-701029","INTERAGCY","IA-AKACC","ST/C&L","USAKMSS","Mat-Su Area","AKMSS","Mat-Su Area Forestry","029","701029","","BELUGA","","","","","","2017","2017/04/20 00:00:00+00","110","","Human","Equipment and vehicle use","","2017/04/20 00:00:00+00","110","","2","B","60.9845278","-149.5673889","STATE","AK","","",""
"-134.604979469","58.341940318","1910056","400031931","AK-TNF-2017-731041","INTERAGCY","IA-AKACC","FS","USAKTNF","Tongass National Forest","AKTNF","Tongass National Forest","041","731041","KZW3","MENDENHALL WETLANDS","","","","","","2017","2017/04/23 00:00:00+00","113","","Human","Missing data/not specified/undetermined","","2017/04/23 00:00:00+00","113","","0.9","B","58.3419445","-134.605","MUNICIPAL/LOCAL","AK","","",""
"-149.371337795","61.574442699","1910057","400031932","AK-MSS-2017-701044","INTERAGCY","IA-AKACC","ST/C&L","USAKMSS","Mat-Su Area","AKMSS","Mat-Su Area Forestry","044","701044","","WHISPERING WOODS","","","","","","2017","2017/04/26 00:00:00+00","116","","Human","Missing data/not specified/undetermined","","2017/04/26 00:00:00+00","116","","0.1","A","61.5744444","-149.3713611","PRIVATE","AK","","",""
"-147.49527949","64.824525986","1910058","400031935","AK-FAS-2017-711053","INTERAGCY","IA-AKACC","ST/C&L","USAKFAS","Fairbanks Area","AKFAS","Fairbanks Area Forestry","053","711053","","DOYLE","","","","","","2017","2017/05/01 00:00:00+00","121","","Human","Missing data/not specified/undetermined","","2017/05/02 00:00:00+00","122","","0.1","A","64.8245278","-147.4953055","PRIVATE","AK","","",""
"-147.846456973","64.841198248","1910059","400031936","AK-FAS-2017-711054","INTERAGCY","IA-AKACC","ST/C&L","USAKFAS","Fairbanks Area","AKFAS","Fairbanks Area Forestry","054","711054","","BRIDGE FIRE","","","","","","2017","2017/05/01 00:00:00+00","121","","Human","Arson/incendiarism","","2017/05/02 00:00:00+00","122","","0.1","A","64.8412","-147.846483","STATE","AK","","",""
"-149.184643352","61.632803872","1910060","400031937","AK-MSS-2017-701057","INTERAGCY","IA-AKACC","ST/C&L","USAKMSS","Mat-Su Area","AKMSS","Mat-Su Area Forestry","057","701057","KZ93","MCKEAN","","","","","","2017","2017/05/03 00:00:00+00","123","","Human","Debris and open burning","","2017/05/03 00:00:00+00","123","","0.2","A","61.6328056","-149.1846667","PRIVATE","AK","","",""
"-147.272585159","64.753192543","1910061","400031938","AK-FAS-2017-711132","INTERAGCY","IA-AKACC","ST/C&L","USAKFAS","Fairbanks Area","AKFAS","Fairbanks Area Forestry","132","711132","","NULATO","","","","","","2017","2017/05/23 00:00:00+00","143","","Human","Missing data/not specified/undetermined","","2017/05/23 00:00:00+00","143","","0.1","A","64.7531944","-147.2726111","STATE","AK","","",""
"-156.842809068","63.173332954","1910062","400031940","AK-SWS-2017-704158","INTERAGCY","IA-AKACC","ST/C&L","USAKSWS","Southwest Area","AKSWS","Southwest Area Forestry","158","704158","","AMERICAN CREEK","2017_7244953_AMERICAN CREEK","","AK6317315684320170604","AMERICAN CREEK","","2017","2017/06/04 00:00:00+00","155","","Natural","Natural","","2017/08/05 00:00:00+00","217","","12945","G","63.1733333","-156.8428333","STATE","AK","","",""
"-147.288056639","65.187865173","1910063","400031946","AK-FAS-2017-711372","INTERAGCY","IA-AKACC","ST/C&L","USAKFAS","Fairbanks Area","AKFAS","Fairbanks Area Forestry","372","711372","K8HA","LONE TREE","","","","","","2017","2017/07/29 00:00:00+00","210","","Human","Recreation and ceremony","","2017/07/30 00:00:00+00","211","","0.1","A","65.187867","-147.288083","PRIVATE","AK","","",""
"-150.098337632","61.810248434","1910064","400031950","AK-MSS-2017-701050","INTERAGCY","IA-AKACC","ST/C&L","USAKMSS","Mat-Su Area","AKMSS","Mat-Su Area Forestry","050","701050","KZ9L","LITTLE WILLOW CREEK","","","","","","2017","2017/04/30 00:00:00+00","120","","Human","Recreation and ceremony","","2017/04/30 00:00:00+00","120","","0.5","B","61.81025","-150.0983611","PRIVATE","AK","","",""
"-149.83975452","61.546942874","1910065","400031951","AK-MSS-2017-701058","INTERAGCY","IA-AKACC","ST/C&L","USAKMSS","Mat-Su Area","AKMSS","Mat-Su Area Forestry","058","701058","","JIB","","","","","","2017","2017/05/03 00:00:00+00","123","","Human","Debris and open burning","","2017/05/03 00:00:00+00","123","","0.1","A","61.5469445","-149.8397778","PRIVATE","AK","","",""
"-149.307087766","61.614692791","1910066","400031952","AK-MSS-2017-701063","INTERAGCY","IA-AKACC","ST/C&L","USAKMSS","Mat-Su Area","AKMSS","Mat-Su Area Forestry","063","701063","K0CE","MOOSE","","","","","","2017","2017/05/05 00:00:00+00","125","","Human","Debris and open burning","","2017/05/05 00:00:00+00","125","","0.1","A","61.6146945","-149.3071111","PRIVATE","AK","","",""
"-149.79172694","61.236970546","1910067","400031953","AK-MSS-2017-732062","INTERAGCY","IA-AKACC","ST/C&L","USAKMSS","Mat-Su Area","AKMSS","Mat-Su Area Forestry","062","732062","K0CT","EAGLE GLENN","","","","","","2017","2017/05/05 00:00:00+00","125","","Human","Missing data/not specified/undetermined","","2017/05/06 00:00:00+00","126","","7.2","B","61.2369722","-149.79175","OTHER FEDERAL","AK","","",""
"-149.410754487","61.586414906","1910068","400031954","AK-MSS-2017-701064","INTERAGCY","IA-AKACC","ST/C&L","USAKMSS","Mat-Su Area","AKMSS","Mat-Su Area Forestry","064","701064","K0CZ","RANDALL`S WAY","","","","","","2017","2017/05/06 00:00:00+00","126","","Human","Debris and open burning","","2017/05/06 00:00:00+00","126","","0.1","A","61.5864166","-149.4107778","PRIVATE","AK","","",""
"-149.062171045","61.640776052","1910069","400031955","AK-MSS-2017-701067","INTERAGCY","IA-AKACC","ST/C&L","USAKMSS","Mat-Su Area","AKMSS","Mat-Su Area Forestry","067","701067","K0DF","TERESA","","","","","","2017","2017/05/06 00:00:00+00","126","","Human","Recreation and ceremony","","2017/05/06 00:00:00+00","126","","1.2","B","61.6407778","-149.0621944","PRIVATE","AK","","",""
"-151.171283085","60.471276319","1910070","400031963","AK-KKS-2017-703104","INTERAGCY","IA-AKACC","ST/C&L","USAKKKS","Kenai-Kodiak Area","AKKKS","Kenai-Kodiak Area Forestry","104","703104","","FOUNDATION","","","","","","2017","2017/05/16 00:00:00+00","136","","Human","Missing data/not specified/undetermined","","2017/05/16 00:00:00+00","136","","0.1","A","60.4712778","-151.1713056","PRIVATE","AK","","",""
"-147.954362917","64.794192764","1910071","400031965","AK-FAS-2017-711165","INTERAGCY","IA-AKACC","ST/C&L","USAKFAS","Fairbanks Area","AKFAS","Fairbanks Area Forestry","165","711165","","ROST CREEK","","","","","","2017","2017/06/05 00:00:00+00","156","","Human","Debris and open burning","","2017/06/05 00:00:00+00","156","","0.1","A","64.7941945","-147.9543889","STATE","AK","","",""
"-149.151671137","61.652387168","1910072","400031973","AK-MSS-2017-701087","INTERAGCY","IA-AKACC","ST/C&L","USAKMSS","Mat-Su Area","AKMSS","Mat-Su Area Forestry","087","701087","K0KV","WEATHERVANE","","","","","","2017","2017/05/11 00:00:00+00","131","","Human","Missing data/not specified/undetermined","","2017/05/11 00:00:00+00","131","","0.1","A","61.6523889","-149.1516945","PRIVATE","AK","","",""
"-151.731866865","59.743387459","1910073","400031976","AK-KKS-2017-703097","INTERAGCY","IA-AKACC","ST/C&L","USAKKKS","Kenai-Kodiak Area","AKKKS","Kenai-Kodiak Area Forestry","097","703097","K0NS","LINDSEY","","","","","","2017","2017/05/14 00:00:00+00","134","","Human","Missing data/not specified/undetermined","","2017/05/14 00:00:00+00","134","","1","B","59.7433889","-151.7318889","PRIVATE","AK","","",""
"-155.559781467","62.943221621","1910074","400031977","AK-SWS-2017-704102","INTERAGCY","IA-AKACC","ST/C&L","USAKSWS","Southwest Area","AKSWS","Southwest Area Forestry","102","704102","K0R4","MCGRATH DUMP","","","","","","2017","2017/05/16 00:00:00+00","136","","Human","Debris and open burning","","2017/05/16 00:00:00+00","136","","2","B","62.9432222","-155.5598056","MUNICIPAL/LOCAL","AK","","",""
"-147.095373948","64.87176512","1910075","400031978","AK-FAS-2017-711042","INTERAGCY","IA-AKACC","ST/C&L","USAKFAS","Fairbanks Area","AKFAS","Fairbanks Area Forestry","042","711042","","CHENA HOT SPRINGS MP17","","","","","","2017","2017/04/25 00:00:00+00","115","","Human","Missing data/not specified/undetermined","","2017/04/25 00:00:00+00","115","","0.1","A","64.871767","-147.0954","PRIVATE","AK","","",""
"-149.108004462","61.616998258","1910076","400031980","AK-MSS-2017-701166","INTERAGCY","IA-AKACC","ST/C&L","USAKMSS","Mat-Su Area","AKMSS","Mat-Su Area Forestry","166","701166","","EAGLE","","","","","","2017","2017/06/05 00:00:00+00","156","","Human","Recreation and ceremony","","2017/06/05 00:00:00+00","156","","0.1","A","61.617","-149.1080278","PRIVATE","AK","","",""
"-148.563724721","64.02978132","1910077","400031982","AK-FAS-2017-711170","INTERAGCY","IA-AKACC","ST/C&L","USAKFAS","Fairbanks Area","AKFAS","Fairbanks Area Forestry","170","711170","","COAL CREEK SOUTH","","","","","","2017","2017/06/06 00:00:00+00","157","","Human","Missing data/not specified/undetermined","","","","","1.5","B","64.029783","-148.56375","STATE","AK","","",""
"-148.564607715","64.03613132","1910078","400031983","AK-FAS-2017-711169","INTERAGCY","IA-AKACC","ST/C&L","USAKFAS","Fairbanks Area","AKFAS","Fairbanks Area Forestry","169","711169","","COAL CREEK 17","","","","","","2017","2017/06/06 00:00:00+00","157","","Human","Missing data/not specified/undetermined","","","","","0.5","B","64.036133","-148.564633","STATE","AK","","",""
"-156.533128256","62.529033548","1910079","400031987","AK-SWS-2017-704340","INTERAGCY","IA-AKACC","ST/C&L","USAKSWS","Southwest Area","AKSWS","Southwest Area Forestry","340","704340","","BIG WALDREN FORK","2017_7246800_BIG WALDREN FORK","","","","","2017","2017/07/14 00:00:00+00","195","","Natural","Natural","","2017/09/20 00:00:00+00","263","","905.6","E","62.529034","-156.533152","STATE","AK","","",""
"-147.875418488","64.824914952","1910080","400031989","AK-FAS-2017-711117","INTERAGCY","IA-AKACC","ST/C&L","USAKFAS","Fairbanks Area","AKFAS","Fairbanks Area Forestry","117","711117","","DALE ROAD","","","","","","2017","2017/05/19 00:00:00+00","139","","Human","Debris and open burning","","2017/05/19 00:00:00+00","139","","0.1","A","64.8249167","-147.8754445","PRIVATE","AK","","",""
"-145.520641419","64.065136701","1910081","400031990","AK-DAS-2017-712120","INTERAGCY","IA-AKACC","ST/C&L","USAKDAS","Delta Area","AKDAS","Delta Area Forestry","120","712120","","MULLINS RD.","","","","","","2017","2017/05/22 00:00:00+00","142","","Human","Missing data/not specified/undetermined","","2017/05/22 00:00:00+00","142","","0.1","A","64.0651389","-145.5206667","PRIVATE","AK","","",""
"-151.174282891","60.762276339","1910082","400031992","AK-KKS-2017-703124","INTERAGCY","IA-AKACC","ST/C&L","USAKKKS","Kenai-Kodiak Area","AKKKS","Kenai-Kodiak Area Forestry","124","703124","","KISHKA","","","","","","2017","2017/05/24 00:00:00+00","144","","Human","Missing data/not specified/undetermined","","2017/05/24 00:00:00+00","144","","0.1","A","60.7622778","-151.1743056","PRIVATE","AK","","",""
"-149.004532286","61.583720439","1910083","400031993","AK-MSS-2017-701125","INTERAGCY","IA-AKACC","ST/C&L","USAKMSS","Mat-Su Area","AKMSS","Mat-Su Area Forestry","125","701125","","MAUD","","","","","","2017","2017/05/26 00:00:00+00","146","","Human","Missing data/not specified/undetermined","","2017/05/26 00:00:00+00","146","","0.1","A","61.5837222","-149.0045556","PRIVATE","AK","","",""
"-149.10969887","61.606053858","1910084","400031999","AK-MSS-2017-701139","INTERAGCY","IA-AKACC","ST/C&L","USAKMSS","Mat-Su Area","AKMSS","Mat-Su Area Forestry","139","701139","","ARCTIC","","","","","","2017","2017/06/01 00:00:00+00","152","","Human","Missing data/not specified/undetermined","","2017/06/01 00:00:00+00","152","","0.1","A","61.6060556","-149.1097222","PRIVATE","AK","","",""
"-148.744532176","61.733609306","1910085","400032000","AK-MSS-2017-701145","INTERAGCY","IA-AKACC","ST/C&L","USAKMSS","Mat-Su Area","AKMSS","Mat-Su Area Forestry","145","701145","","KING RIVER","","","","","","2017","2017/06/03 00:00:00+00","154","","Human","Missing data/not specified/undetermined","","2017/06/03 00:00:00+00","154","","0.5","B","61.7336111","-148.7445556","STATE","AK","","",""
"-141.338642425","63.087024843","1910086","400032005","AK-TAS-2017-713320","INTERAGCY","IA-AKACC","ST/C&L","USAKTAS","Tok Area","AKTAS","Tok Area Forestry","320","713320","","GARDINER CREEK 2","","","","","","2017","2017/07/07 00:00:00+00","188","","Natural","Natural","","2017/07/19 00:00:00+00","200","","1","B","63.0870278","-141.3386667","STATE","AK","","",""
"-149.178196442","64.56035956","1910087","400032006","AK-FAS-2017-711002","INTERAGCY","IA-AKACC","ST/C&L","USAKFAS","Fairbanks Area","AKFAS","Fairbanks Area Forestry","002","711002","","EAST MIDDLE FIRE","","","","","","2017","2017/02/17 00:00:00+00","48","","Human","Missing data/not specified/undetermined","","2017/02/17 00:00:00+00","48","","0.1","A","64.5603611","-149.1782222","STATE","AK","","",""
"-149.459366064","60.909776071","1910088","400032007","AK-CGF-2017-CGF-71","INTERAGCY","IA-AKACC","FS","USAKCGF","Chugach National Forest","AKCGF","Chugach National Forest","147","CGF-71","EK3T","MILE 10.5","","","","","","2017","2017/06/03 00:00:00+00","154","","Human","Missing data/not specified/undetermined","","2017/06/03 00:00:00+00","154","","0.1","A","60.9097778","-149.4593889","USFS","AK","","",""
"-156.732309204","62.99469412","1910089","400032011","AK-SWS-2017-704157","INTERAGCY","IA-AKACC","ST/C&L","USAKSWS","Southwest Area","AKSWS","Southwest Area Forestry","157","704157","","BROWN CREEK","","","","","","2017","2017/06/04 00:00:00+00","155","","Natural","Natural","","2017/06/09 00:00:00+00","160","","26","C","62.9946945","-156.7323333","STATE","AK","","",""
"-149.601337819","61.544887235","1910090","400032020","AK-MSS-2017-701331","INTERAGCY","IA-AKACC","ST/C&L","USAKMSS","Mat-Su Area","AKMSS","Mat-Su Area Forestry","331","701331","","APPALACHIAN","","","","","","2017","2017/07/12 00:00:00+00","193","","Human","Debris and open burning","","2017/07/12 00:00:00+00","193","","0.1","A","61.5448889","-149.6013611","PRIVATE","AK","","",""
"-145.604697033","63.934997808","1910091","400032021","AK-MID-2017-000014","INTERAGCY","IA-AKACC","BLM","USAKMID","Alaska Fire Service - Military Zone","AKMID","Alaska Fire Service - Military Zone","014","","KY5X","BAX 1","","","","","","2017","2017/04/14 00:00:00+00","104","","Human","Arson/incendiarism","","2017/04/20 00:00:00+00","110","","0.1","A","63.935","-145.6047222","OTHER FEDERAL","AK","","",""
"-144.867613819","63.858358778","1910092","400032022","AK-DAS-2017-712017","INTERAGCY","IA-AKACC","ST/C&L","USAKDAS","Delta Area","AKDAS","Delta Area Forestry","017","712017","","BEE CROSSING","","","","","","2017","2017/04/16 00:00:00+00","106","","Human","Missing data/not specified/undetermined","","2017/04/16 00:00:00+00","106","","0.1","A","63.8583611","-144.8676389","PRIVATE","AK","","",""
"-149.299948905","61.560053886","1910093","400032023","AK-MSS-2017-701019","INTERAGCY","IA-AKACC","ST/C&L","USAKMSS","Mat-Su Area","AKMSS","Mat-Su Area Forestry","019","701019","","HORNUNG","","","","","","2017","2017/04/18 00:00:00+00","108","","Human","Missing data/not specified/undetermined","","2017/04/18 00:00:00+00","108","","0.1","A","61.5600556","-149.2999722","PRIVATE","AK","","",""
"-150.100226482","61.876859538","1910094","400032024","AK-MSS-2017-701020","INTERAGCY","IA-AKACC","ST/C&L","USAKMSS","Mat-Su Area","AKMSS","Mat-Su Area Forestry","020","701020","KZ9M","SOUTH OTTER DRIVE","","","","","","2017","2017/04/19 00:00:00+00","109","","Human","Debris and open burning","","2017/04/19 00:00:00+00","109","","0.1","A","61.8768611","-150.10025","PRIVATE","AK","","",""
"-149.247976666","61.613887181","1910095","400032025","AK-MSS-2017-701028","INTERAGCY","IA-AKACC","ST/C&L","USAKMSS","Mat-Su Area","AKMSS","Mat-Su Area Forestry","028","701028","","ENGSTROM","","","","","","2017","2017/04/20 00:00:00+00","110","","Human","Equipment and vehicle use","","2017/04/20 00:00:00+00","110","","0.2","A","61.6138889","-149.248","PRIVATE","AK","","",""
"-145.531643026","62.109164396","1910096","400032026","AK-CRS-2017-714031","INTERAGCY","IA-AKACC","ST/C&L","USAKCRS","Valdez-Copper River Area","AKCRS","Valdez-Copper River Area Forestry","031","714031","","BLACKBURN 1","","","","","","2017","2017/04/21 00:00:00+00","111","","Human","Missing data/not specified/undetermined","","2017/04/21 00:00:00+00","111","","0.2","A","62.1091667","-145.5316667","PRIVATE","AK","","",""
"-151.745422419","59.817720766","1910097","400032027","AK-KKS-2017-703033","INTERAGCY","IA-AKACC","ST/C&L","USAKKKS","Kenai-Kodiak Area","AKKKS","Kenai-Kodiak Area Forestry","033","703033","","BIRCH HAVEN","","","","","","2017","2017/04/22 00:00:00+00","112","","Human","Debris and open burning","","2017/04/22 00:00:00+00","112","","1.3","B","59.8177222","-151.7454445","PRIVATE","AK","","",""
"-149.68136558","61.599359451","1910098","400032029","AK-MSS-2017-701037","INTERAGCY","IA-AKACC","ST/C&L","USAKMSS","Mat-Su Area","AKMSS","Mat-Su Area Forestry","037","701037","","SKYVIEW","","","","","","2017","2017/04/23 00:00:00+00","113","","Human","Debris and open burning","","2017/04/23 00:00:00+00","113","","0.1","A","61.5993611","-149.6813889","PRIVATE","AK","","",""
"-149.1574212","61.565359363","1910099","400032030","AK-MSS-2017-701038","INTERAGCY","IA-AKACC","ST/C&L","USAKMSS","Mat-Su Area","AKMSS","Mat-Su Area Forestry","038","701038","","GLENN HIGHWAY","","","","","","2017","2017/04/24 00:00:00+00","114","","Human","Missing data/not specified/undetermined","","2017/04/24 00:00:00+00","114","","0.1","A","61.5653611","-149.1574445","PRIVATE","AK","","",""
"-151.140255229","60.55430412","1910100","400032036","AK-KKS-2017-703066","INTERAGCY","IA-AKACC","ST/C&L","USAKKKS","Kenai-Kodiak Area","AKKKS","Kenai-Kodiak Area Forestry","066","703066","","BEAVER LOOP","","","","","","2017","2017/05/06 00:00:00+00","126","","Human","Missing data/not specified/undetermined","","2017/05/06 00:00:00+00","126","","0.1","A","60.5543056","-151.1402778","PRIVATE","AK","","",""
"-145.599530214","64.069192215","1910101","400032037","AK-DAS-2017-712069","INTERAGCY","IA-AKACC","ST/C&L","USAKDAS","Delta Area","AKDAS","Delta Area Forestry","069","712069","","MOOSE RUN","","","","","","2017","2017/05/07 00:00:00+00","127","","Human","Missing data/not specified/undetermined","","2017/05/07 00:00:00+00","127","","0.2","A","64.0691944","-145.5995555","PRIVATE","AK","","",""
"-150.727698839","61.678970729","1910102","400032040","AK-MSS-2017-701093","INTERAGCY","IA-AKACC","ST/C&L","USAKMSS","Mat-Su Area","AKMSS","Mat-Su Area Forestry","093","701093","","YENTNA","","","","","","2017","2017/05/12 00:00:00+00","132","","Natural","Natural","","2017/05/12 00:00:00+00","132","","0.3","B","61.6789722","-150.7277222","STATE","AK","","",""
"-145.322976431","61.977303154","1910103","400032042","AK-CRS-2017-714100","INTERAGCY","IA-AKACC","ST/C&L","USAKCRS","Valdez-Copper River Area","AKCRS","Valdez-Copper River Area Forestry","100","714100","","OLD RICHARDSON","","","","","","2017","2017/05/16 00:00:00+00","136","","Human","Debris and open burning","","2017/05/16 00:00:00+00","136","","2","B","61.9773055","-145.323","PRIVATE","AK","","",""
"-148.834474802","63.93883166","1910104","400032043","AK-FAS-2017-711107","INTERAGCY","IA-AKACC","ST/C&L","USAKFAS","Fairbanks Area","AKFAS","Fairbanks Area Forestry","107","711107","K0ST","POPOVICH CREEK 17","","","","","","2017","2017/05/16 00:00:00+00","136","","Human","Missing data/not specified/undetermined","","2017/05/17 00:00:00+00","137","","40","C","63.9388333","-148.8345","STATE","AK","","",""
"-146.356641017","64.489997969","1910105","400032047","AK-FAS-2017-711351","INTERAGCY","IA-AKACC","ST/C&L","USAKFAS","Fairbanks Area","AKFAS","Fairbanks Area Forestry","351","711351","","MCCOY CREEK","","","","","","2017","2017/07/18 00:00:00+00","199","","Natural","Natural","","2017/07/20 00:00:00+00","201","","0.1","A","64.49","-146.3566667","STATE","AK","","",""
"-148.375668552","64.757303934","1910106","400032051","AK-FAS-2017-711296","INTERAGCY","IA-AKACC","ST/C&L","USAKFAS","Fairbanks Area","AKFAS","Fairbanks Area Forestry","296","711296","","PARKS PULLOUT","","","","","","2017","2017/07/02 00:00:00+00","183","","Human","Recreation and ceremony","","2017/07/02 00:00:00+00","183","","0.1","A","64.7573056","-148.3756945","STATE","AK","","",""
"-150.435226355","62.054931506","1910107","400032052","AK-MSS-2017-701311","INTERAGCY","IA-AKACC","ST/C&L","USAKMSS","Mat-Su Area","AKMSS","Mat-Su Area Forestry","311","701311","","KROTO CREEK","","","","","","2017","2017/07/06 00:00:00+00","187","","Natural","Natural","","2017/07/06 00:00:00+00","187","","0.2","A","62.054933","-150.43525","STATE","AK","","",""
"-135.305256777","59.086107039","1910108","400032062","AK-TNF-2017-731379","INTERAGCY","IA-AKACC","FS","USAKTNF","Tongass National Forest","AKTNF","Tongass National Forest","379","731379","K8UM","SEDUCTION POINT","","","","","","2017","2017/08/01 00:00:00+00","213","","Human","Missing data/not specified/undetermined","","2017/08/02 00:00:00+00","214","","0.1","A","59.0861111","-135.3052778","STATE","AK","","",""
"-149.320309978","61.598303792","1910109","400032064","AK-MSS-2017-701393","INTERAGCY","IA-AKACC","ST/C&L","USAKMSS","Mat-Su Area","AKMSS","Mat-Su Area Forestry","393","701393","","COTTONWOOD LAKE","","","","","","2017","2017/08/15 00:00:00+00","227","","Human","Missing data/not specified/undetermined","","2017/08/15 00:00:00+00","227","","0.1","A","61.5983055","-149.3203333","PRIVATE","AK","","",""
"-143.156392117","63.348052961","1910110","400032065","AK-TAS-2017-713394","INTERAGCY","IA-AKACC","ST/C&L","USAKTAS","Tok Area","AKTAS","Tok Area Forestry","394","713394","","MP 1321","","","","","","2017","2017/08/15 00:00:00+00","227","","Human","Equipment and vehicle use","","2017/08/15 00:00:00+00","227","","0.1","A","63.3480556","-143.1564167","STATE","AK","","",""
"-134.374146526","58.282217782","1910111","400032068","AK-TNF-2017-731009","INTERAGCY","IA-AKACC","FS","USAKTNF","Tongass National Forest","AKTNF","Tongass National Forest","009","731009","KYV8","CROSS BAY CREEK","","","","","","2017","2017/04/10 00:00:00+00","100","","Human","Missing data/not specified/undetermined","","2017/04/10 00:00:00+00","100","","0.1","A","58.282222","-134.374167","COUNTY","AK","","",""
"-151.515283626","59.635165217","1910112","400032069","AK-KKS-2017-703004","INTERAGCY","IA-AKACC","ST/C&L","USAKKKS","Kenai-Kodiak Area","AKKKS","Kenai-Kodiak Area Forestry","004","703004","","SEA BREEZE","","","","","","2017","2017/03/14 00:00:00+00","73","","Human","Missing data/not specified/undetermined","","2017/03/14 00:00:00+00","73","","0.1","A","59.6351667","-151.5153056","PRIVATE","AK","","",""
"-149.307143404","61.561109387","1910113","400032070","AK-MSS-2017-701022","INTERAGCY","IA-AKACC","ST/C&L","USAKMSS","Mat-Su Area","AKMSS","Mat-Su Area Forestry","022","701022","","JOHNSON","","","","","","2017","2017/04/19 00:00:00+00","109","","Human","Debris and open burning","","2017/04/19 00:00:00+00","109","","0.1","A","61.5611111","-149.3071667","PRIVATE","AK","","",""
"-143.097958408","63.362030352","1910114","400032071","AK-TAS-2017-713036","INTERAGCY","IA-AKACC","ST/C&L","USAKTAS","Tok Area","AKTAS","Tok Area Forestry","036","713036","","FIRE BREAK TRAIL","","","","","","2017","2017/04/23 00:00:00+00","113","","Human","Debris and open burning","","","","","0.1","A","63.362033","-143.097983","STATE","AK","","",""
"-143.098197608","63.362052852","1910115","400032072","AK-TAS-2017-713039","INTERAGCY","IA-AKACC","ST/C&L","USAKTAS","Tok Area","AKTAS","Tok Area Forestry","039","713039","","BLOWDOWN FIRE","","","","","","2017","2017/04/24 00:00:00+00","114","","Human","Recreation and ceremony","","2017/04/24 00:00:00+00","114","","0.1","A","63.3620555","-143.0982222","STATE","AK","","",""
"-149.214115581","61.591970474","1910116","400032073","AK-MSS-2017-701052","INTERAGCY","IA-AKACC","ST/C&L","USAKMSS","Mat-Su Area","AKMSS","Mat-Su Area Forestry","052","701052","KZ7L","RECYCLING CENTER","","","","","","2017","2017/05/01 00:00:00+00","121","","Human","Missing data/not specified/undetermined","","2017/05/01 00:00:00+00","121","","0.2","A","61.5919722","-149.2141389","COUNTY","AK","","",""
"-147.589529383","64.935609309","1910117","400032074","AK-FAS-2017-711201","INTERAGCY","IA-AKACC","ST/C&L","USAKFAS","Fairbanks Area","AKFAS","Fairbanks Area Forestry","201","711201","","PROSPECTOR TRAIL","","","","","","2017","2017/06/07 00:00:00+00","158","","Human","Missing data/not specified/undetermined","","2017/06/07 00:00:00+00","158","","0.1","A","64.9356111","-147.5895555","PRIVATE","AK","","",""
"-147.850473972","64.842192649","1910118","400032083","AK-FAS-2017-711061","INTERAGCY","IA-AKACC","ST/C&L","USAKFAS","Fairbanks Area","AKFAS","Fairbanks Area Forestry","061","711061","","STEELHEAD","","","","","","2017","2017/05/04 00:00:00+00","124","","Human","Debris and open burning","","2017/05/07 00:00:00+00","127","","0.1","A","64.8421944","-147.8505","STATE","AK","","",""
"-148.737251969","64.634915089","1910119","400032087","AK-FAS-2017-711408","INTERAGCY","IA-AKACC","ST/C&L","USAKFAS","Fairbanks Area","AKFAS","Fairbanks Area Forestry","408","711408","","NENANA RIDGE WOOD LOT","","","","","","2017","2017/09/27 00:00:00+00","270","","Human","Recreation and ceremony","","","","","0.5","B","64.6349167","-148.7372778","STATE","AK","","",""
"-147.661585037","64.879303818","1910120","400032094","AK-FAS-2017-711211","INTERAGCY","IA-AKACC","ST/C&L","USAKFAS","Fairbanks Area","AKFAS","Fairbanks Area Forestry","211","711211","","FARMERS LOOP","","","","","","2017","2017/06/08 00:00:00+00","159","","Human","Missing data/not specified/undetermined","","2017/06/08 00:00:00+00","159","","0.1","A","64.8793056","-147.6616111","PRIVATE","AK","","",""
"-134.75331273","58.385551341","1910121","400032095","AK-TNF-2017-731226","INTERAGCY","IA-AKACC","FS","USAKTNF","Tongass National Forest","AKTNF","Tongass National Forest","226","731226","K14L","LENA LOOP","","","","","","2017","2017/06/13 00:00:00+00","164","","Human","Missing data/not specified/undetermined","","2017/06/13 00:00:00+00","164","","0.3","B","58.3855555","-134.7533333","COUNTY","AK","","",""
"-147.623112826","64.890164912","1910122","400032097","AK-FAS-2017-711134","INTERAGCY","IA-AKACC","ST/C&L","USAKFAS","Fairbanks Area","AKFAS","Fairbanks Area Forestry","134","711134","","WHITNEY","","","","","","2017","2017/05/31 00:00:00+00","151","","Human","Debris and open burning","","2017/05/31 00:00:00+00","151","","0.1","A","64.8901667","-147.6231389","STATE","AK","","",""
"-146.973974293","64.507053677","1910123","400032106","AK-FAS-2017-711055","INTERAGCY","IA-AKACC","ST/C&L","USAKFAS","Fairbanks Area","AKFAS","Fairbanks Area Forestry","055","711055","","BARREL","","","","","","2017","2017/05/02 00:00:00+00","122","","Human","Debris and open burning","","2017/05/02 00:00:00+00","122","","0.1","A","64.5070556","-146.974","PRIVATE","AK","","",""
"-147.491723931","64.885915189","1910124","400032108","AK-FAS-2017-711153","INTERAGCY","IA-AKACC","ST/C&L","USAKFAS","Fairbanks Area","AKFAS","Fairbanks Area Forestry","153","711153","","NICHOLS LANE","","","","","","2017","2017/06/04 00:00:00+00","155","","Human","Debris and open burning","","","","","0.1","A","64.885917","-147.49175","PRIVATE","AK","","",""
"-149.436809961","61.622276113","1910125","400032115","AK-MSS-2017-701142","INTERAGCY","IA-AKACC","ST/C&L","USAKMSS","Mat-Su Area","AKMSS","Mat-Su Area Forestry","142","701142","","SCHROCK","","","","","","2017","2017/06/02 00:00:00+00","153","","Human","Missing data/not specified/undetermined","","2017/06/02 00:00:00+00","153","","0.1","A","61.6222778","-149.4368333","PRIVATE","AK","","",""
"-145.591141335","64.045053412","1910126","400032126","AK-DAS-2017-712144","INTERAGCY","IA-AKACC","ST/C&L","USAKDAS","Delta Area","AKDAS","Delta Area Forestry","144","712144","","EAGLE DRIVE","","","","","","2017","2017/06/03 00:00:00+00","154","","Human","Equipment and vehicle use","","2017/06/03 00:00:00+00","154","","0.3","B","64.0450556","-145.5911666","PRIVATE","AK","","",""
"-150.123282146","61.791498437","1910127","400032131","AK-MSS-2017-701266","INTERAGCY","IA-AKACC","ST/C&L","USAKMSS","Mat-Su Area","AKMSS","Mat-Su Area Forestry","266","701266","","SERENITY","","","","","","2017","2017/06/26 00:00:00+00","177","","Human","Debris and open burning","","2017/06/26 00:00:00+00","177","","0.1","A","61.7915","-150.1233056","PRIVATE","AK","","",""
"-149.518421023","61.675637229","1910128","400032132","AK-MSS-2017-701399","INTERAGCY","IA-AKACC","ST/C&L","USAKMSS","Mat-Su Area","AKMSS","Mat-Su Area Forestry","399","701399","","HANDSOME HANSON","","","","","","2017","2017/08/27 00:00:00+00","239","","Human","Recreation and ceremony","","2017/08/28 00:00:00+00","240","","0.1","A","61.6756389","-149.5184444","STATE","AK","","",""
"-149.663754497","61.576303947","1910129","400032135","AK-MSS-2017-701244","INTERAGCY","IA-AKACC","ST/C&L","USAKMSS","Mat-Su Area","AKMSS","Mat-Su Area Forestry","244","701244","","SOUTHSHORE","","","","","","2017","2017/06/17 00:00:00+00","168","","Human","Misuse of fire by a minor","Minor","2017/06/17 00:00:00+00","168","","0.1","A","61.5763056","-149.6637778","PRIVATE","AK","","",""
"-151.199960439","60.541431528","1910130","400032142","AK-KKS-2016-603145","INTERAGCY","IA-AKACC","ST/C&L","USAKKKS","Kenai-Kodiak Area","AKKKS","Kenai-Kodiak Area Forestry","145","603145","","BEAVER LOOP","","","","","","2016","2016/05/15 00:00:00+00","136","","Human","Missing data/not specified/undetermined","","2016/05/15 00:00:00+00","136","","0.1","A","60.541433","-151.199983","PRIVATE","AK","","",""
"-145.363587514","61.997914362","1910131","400032146","AK-CRS-2016-614583","INTERAGCY","IA-AKACC","ST/C&L","USAKCRS","Valdez-Copper River Area","AKCRS","Valdez-Copper River Area Forestry","583","614583","","MILE 105 RICHARDSON HIGHWAY","","","","","","2016","2016/08/10 00:00:00+00","223","","Human","Missing data/not specified/undetermined","","2016/08/10 00:00:00+00","223","","0.1","A","61.9979167","-145.3636111","PRIVATE","AK","","",""
"-149.42697691","61.274998289","1910132","400032149","AK-MSS-2016-601594","INTERAGCY","IA-AKACC","ST/C&L","USAKMSS","Mat-Su Area","AKMSS","Mat-Su Area Forestry","594","601594","","EAGLE RIVER","","","","","","2016","2016/08/20 00:00:00+00","233","","Human","Missing data/not specified/undetermined","","2016/08/20 00:00:00+00","233","","0.3","B","61.275","-149.427","PRIVATE","AK","","",""
"-147.61447375","65.072359322","1910133","400032151","AK-FAS-2016-611123","INTERAGCY","IA-AKACC","ST/C&L","USAKFAS","Fairbanks Area","AKFAS","Fairbanks Area Forestry","123","611123","","SIMPSON","","","","","","2016","2016/05/11 00:00:00+00","132","","Human","Missing data/not specified/undetermined","","2016/05/11 00:00:00+00","132","","1","B","65.0723611","-147.6145","PRIVATE","AK","","",""
"-147.368557318","64.795637062","1910134","400032152","AK-FAS-2016-611124","INTERAGCY","IA-AKACC","ST/C&L","USAKFAS","Fairbanks Area","AKFAS","Fairbanks Area Forestry","124","611124","","CLYDESDALE","","","","","","2016","2016/05/11 00:00:00+00","132","","Human","Missing data/not specified/undetermined","","2016/05/11 00:00:00+00","132","","0.1","A","64.7956389","-147.3685833","COUNTY","AK","","",""
"-148.72197471","64.042498348","1910135","400032153","AK-FAS-2016-611132","INTERAGCY","IA-AKACC","ST/C&L","USAKFAS","Fairbanks Area","AKFAS","Fairbanks Area Forestry","132","611132","","16 MCADAM","","","","","","2016","2016/05/12 00:00:00+00","133","","Human","Missing data/not specified/undetermined","","","","","5.8","B","64.0425","-148.722","STATE","AK","","",""
"-150.747116333","60.536276255","1910136","400032155","AK-KKS-2016-603137","INTERAGCY","IA-AKACC","ST/C&L","USAKKKS","Kenai-Kodiak Area","AKKKS","Kenai-Kodiak Area Forestry","137","603137","","SHED FIRE","","","","","","2016","2016/05/14 00:00:00+00","135","","Human","Missing data/not specified/undetermined","","2016/05/14 00:00:00+00","135","","0.1","A","60.5362778","-150.7471389","PRIVATE","AK","","",""
"-151.704089087","59.706359652","1910137","400032156","AK-KKS-2016-603017","INTERAGCY","IA-AKACC","ST/C&L","USAKKKS","Kenai-Kodiak Area","AKKKS","Kenai-Kodiak Area Forestry","017","603017","","OLD STERLING FIRE","","","","","","2016","2016/04/07 00:00:00+00","98","","Human","Missing data/not specified/undetermined","","2016/04/08 00:00:00+00","99","","0.1","A","59.7063611","-151.7041111","PRIVATE","AK","","",""
"-148.844420697","61.567776212","1910138","400032157","AK-MSS-2016-601064","INTERAGCY","IA-AKACC","ST/C&L","USAKMSS","Mat-Su Area","AKMSS","Mat-Su Area Forestry","064","601064","","JIM CREEK TRAIL","","","","","","2016","2016/04/23 00:00:00+00","114","","Human","Missing data/not specified/undetermined","","2016/04/23 00:00:00+00","114","","0.1","A","61.567778","-148.844444","STATE","AK","","",""
"-150.672577436","60.530048443","1910139","400032158","AK-KKS-2016-603067","INTERAGCY","IA-AKACC","ST/C&L","USAKKKS","Kenai-Kodiak Area","AKKKS","Kenai-Kodiak Area Forestry","067","603067","","MONTANA STREET","","","","","","2016","2016/04/23 00:00:00+00","114","","Human","Missing data/not specified/undetermined","","2016/04/23 00:00:00+00","114","","0.1","A","60.53005","-150.6726","PRIVATE","AK","","",""
"-151.058699653","60.516026304","1910140","400032159","AK-KKS-2016-603086","INTERAGCY","IA-AKACC","ST/C&L","USAKKKS","Kenai-Kodiak Area","AKKKS","Kenai-Kodiak Area Forestry","086","603086","","SPORT LAKE ROAD FIRE","","","","","","2016","2016/04/30 00:00:00+00","121","","Human","Missing data/not specified/undetermined","","2016/04/30 00:00:00+00","121","","0.1","A","60.5160278","-151.0587222","PRIVATE","AK","","",""
"-151.321477372","60.646554055","1910141","400032160","AK-KKS-2016-603088","INTERAGCY","IA-AKACC","ST/C&L","USAKKKS","Kenai-Kodiak Area","AKKKS","Kenai-Kodiak Area Forestry","088","603088","","DIVIDEND","","","","","","2016","2016/04/30 00:00:00+00","121","","Human","Missing data/not specified/undetermined","","2016/04/30 00:00:00+00","121","","0.1","A","60.6465555","-151.3215","PRIVATE","AK","","",""
"-149.669782313","61.554415047","1910142","400032161","AK-MSS-2016-601094","INTERAGCY","IA-AKACC","ST/C&L","USAKMSS","Mat-Su Area","AKMSS","Mat-Su Area Forestry","094","601094","J8QK","MISTY","","","","","","2016","2016/05/02 00:00:00+00","123","","Human","Missing data/not specified/undetermined","","2016/05/02 00:00:00+00","123","","0.1","A","61.5544167","-149.6698056","PRIVATE","AK","","",""
"-148.871308117","63.922998366","1910143","400032162","AK-FAS-2016-611098","INTERAGCY","IA-AKACC","ST/C&L","USAKFAS","Fairbanks Area","AKFAS","Fairbanks Area Forestry","098","611098","","2016 LOUISE CREEK","2016_4347499_2016 LOUISE CREEK","","","","","2016","2016/05/03 00:00:00+00","124","","Human","Missing data/not specified/undetermined","","2016/05/04 00:00:00+00","125","","3131.8","F","63.923","-148.8713333","STATE","AK","","",""
"-151.079089022","59.786887358","1910144","400032163","AK-KKS-2016-603150","INTERAGCY","IA-AKACC","ST/C&L","USAKKKS","Kenai-Kodiak Area","AKKKS","Kenai-Kodiak Area Forestry","150","603150","","SWITCHBACK FIRE","","","","","","2016","2016/05/17 00:00:00+00","138","","Human","Missing data/not specified/undetermined","","2016/05/17 00:00:00+00","138","","0.1","A","59.7868889","-151.0791111","STATE","AK","","",""
"-148.759241764","63.98231535","1910145","400032167","AK-FAS-2016-611126","INTERAGCY","IA-AKACC","ST/C&L","USAKFAS","Fairbanks Area","AKFAS","Fairbanks Area Forestry","126","611126","","EMMA CREEK","","","","","","2016","2016/05/11 00:00:00+00","132","","Human","Missing data/not specified/undetermined","","","","","15.3","C","63.982317","-148.759267","STATE","AK","","",""
"-143.350475386","63.376108496","1910146","400032168","AK-TAS-2016-613237","INTERAGCY","IA-AKACC","ST/C&L","USAKTAS","Tok Area","AKTAS","Tok Area Forestry","237","613237","J9UN","TANACROSS BUNKHOUSE","","","","","","2016","2016/06/03 00:00:00+00","155","","Human","Missing data/not specified/undetermined","","2016/06/03 00:00:00+00","155","","0.1","A","63.3761111","-143.3505","BLM","AK","","",""
"-149.250226643","61.645414983","1910147","400032169","AK-MSS-2016-601241","INTERAGCY","IA-AKACC","ST/C&L","USAKMSS","Mat-Su Area","AKMSS","Mat-Su Area Forestry","241","601241","","ASPEN RIDGE","","","","","","2016","2016/06/03 00:00:00+00","155","","Human","Missing data/not specified/undetermined","","2016/06/03 00:00:00+00","155","","0.1","A","61.6454167","-149.25025","PRIVATE","AK","","",""
"-150.795283039","60.528553962","1910148","400032173","AK-KKS-2016-603373","INTERAGCY","IA-AKACC","ST/C&L","USAKKKS","Kenai-Kodiak Area","AKKKS","Kenai-Kodiak Area Forestry","373","603373","","GLACIER AVE","","","","","","2016","2016/06/28 00:00:00+00","180","","Human","Missing data/not specified/undetermined","","2016/06/28 00:00:00+00","180","","0.1","A","60.5285555","-150.7953056","PRIVATE","AK","","",""
"-149.003587776","61.59680374","1910149","400032176","AK-MSS-2017-701074","INTERAGCY","IA-AKACC","ST/C&L","USAKMSS","Mat-Su Area","AKMSS","Mat-Su Area Forestry","074","701074","K0GP","RAMBLING","","","","","","2017","2017/05/08 00:00:00+00","128","","Human","Missing data/not specified/undetermined","","2017/05/08 00:00:00+00","128","","0.1","A","61.5968055","-149.0036111","PRIVATE","AK","","",""
"-149.035391131","64.353665122","1910150","400032177","AK-FAS-2017-711078","INTERAGCY","IA-AKACC","ST/C&L","USAKFAS","Fairbanks Area","AKFAS","Fairbanks Area Forestry","078","711078","K0J1","MILE POST 288","","","","","","2017","2017/05/10 00:00:00+00","130","","Human","Missing data/not specified/undetermined","","2017/05/10 00:00:00+00","130","","0.1","A","64.3536667","-149.0354167","PRIVATE","AK","","",""
"-149.220004444","61.643609378","1910151","400032179","AK-MSS-2017-701081","INTERAGCY","IA-AKACC","ST/C&L","USAKMSS","Mat-Su Area","AKMSS","Mat-Su Area Forestry","081","701081","K0J0","NORTH CUNNINGHAM","","","","","","2017","2017/05/10 00:00:00+00","130","","Human","Debris and open burning","","2017/05/10 00:00:00+00","130","","0.3","B","61.6436111","-149.2200278","PRIVATE","AK","","",""
"-152.687173643","57.553526355","1910152","400032180","AK-KKS-2017-703082","INTERAGCY","IA-AKACC","ST/C&L","USAKKKS","Kenai-Kodiak Area","AKKKS","Kenai-Kodiak Area Forestry","082","703082","","SALTREY CREEK","","","","","","2017","2017/05/11 00:00:00+00","131","","Human","Arson/incendiarism","","2017/05/12 00:00:00+00","132","","91","C","57.5535278","-152.6871944","STATE","AK","","",""
"-149.966115608","61.565637296","1910153","400032183","AK-MSS-2017-701089","INTERAGCY","IA-AKACC","ST/C&L","USAKMSS","Mat-Su Area","AKMSS","Mat-Su Area Forestry","089","701089","K0KZ","HORSESHOE LAKE","","","","","","2017","2017/05/11 00:00:00+00","131","","Human","Missing data/not specified/undetermined","","2017/05/11 00:00:00+00","131","","0.1","A","61.5656389","-149.9661389","STATE","AK","","",""
"-149.354446723","64.25644287","1910154","400032186","AK-FAS-2017-711275","INTERAGCY","IA-AKACC","ST/C&L","USAKFAS","Fairbanks Area","AKFAS","Fairbanks Area Forestry","275","711275","","KOBE FIELD","","","","","","2017","2017/06/28 00:00:00+00","179","","Human","Debris and open burning","","2017/06/28 00:00:00+00","179","","4.2","B","64.2564444","-149.3544722","STATE","AK","","",""
"-155.593092865","62.948382427","1910155","400032196","AK-SWS-2017-704108","INTERAGCY","IA-AKACC","ST/C&L","USAKSWS","Southwest Area","AKSWS","Southwest Area Forestry","108","704108","K0S0","AMOS AVENUE","","","","","","2017","2017/05/17 00:00:00+00","137","","Human","Missing data/not specified/undetermined","","2017/05/17 00:00:00+00","137","","0.5","B","62.948383","-155.593117","MUNICIPAL/LOCAL","AK","","",""
"-151.262588431","60.70524855","1910156","400032197","AK-KKS-2017-703118","INTERAGCY","IA-AKACC","ST/C&L","USAKKKS","Kenai-Kodiak Area","AKKKS","Kenai-Kodiak Area Forestry","118","703118","","TRACER","","","","","","2017","2017/05/20 00:00:00+00","140","","Human","Arson/incendiarism","","2017/05/20 00:00:00+00","140","","0.1","A","60.70525","-151.2626111","PRIVATE","AK","","",""
"-147.9461961","64.91641487","1910157","400032199","AK-FAS-2017-711364","INTERAGCY","IA-AKACC","ST/C&L","USAKFAS","Fairbanks Area","AKFAS","Fairbanks Area Forestry","364","711364","","0.5 MILE MURPHY DOME ROAD","","","","","","2017","2017/07/23 00:00:00+00","204","","Human","Missing data/not specified/undetermined","","2017/07/23 00:00:00+00","204","","0.4","B","64.9164166","-147.9462222","PRIVATE","AK","","",""
"-146.127307533","64.257980916","1910158","400032202","AK-DAS-2017-712397","INTERAGCY","IA-AKACC","ST/C&L","USAKDAS","Delta Area","AKDAS","Delta Area Forestry","397","712397","","SHAW CREEK","","","","","","2017","2017/08/25 00:00:00+00","237","","Human","Recreation and ceremony","","2017/08/25 00:00:00+00","237","","0.1","A","64.257983","-146.127333","STATE","AK","","",""
"-149.710059993","61.582581655","1910159","400032203","AK-MSS-2017-701400","INTERAGCY","IA-AKACC","ST/C&L","USAKMSS","Mat-Su Area","AKMSS","Mat-Su Area Forestry","400","701400","","FOREST HILLS","","","","","","2017","2017/08/28 00:00:00+00","240","","Human","Debris and open burning","","2017/08/28 00:00:00+00","240","","0.1","A","61.5825833","-149.7100833","PRIVATE","AK","","",""
"-151.554728025","59.639526324","1910160","400032204","AK-KKS-2017-703127","INTERAGCY","IA-AKACC","ST/C&L","USAKKKS","Kenai-Kodiak Area","AKKKS","Kenai-Kodiak Area Forestry","127","703127","K04Y","CEDAR LOG","","","","","","2017","2017/05/27 00:00:00+00","147","","Human","Recreation and ceremony","","2017/05/27 00:00:00+00","147","","0.1","A","59.6395278","-151.55475","PRIVATE","AK","","",""
"-158.105143565","61.870333048","1910161","400032205","AK-SWS-2017-704270","INTERAGCY","IA-AKACC","ST/C&L","USAKSWS","Southwest Area","AKSWS","Southwest Area Forestry","270","704270","","CROOKED CREEK","","","","","","2017","2017/06/27 00:00:00+00","178","","Human","Missing data/not specified/undetermined","","2017/06/27 00:00:00+00","178","","0.1","A","61.8703333","-158.1051667","STATE","AK","","",""
"-149.499310457","60.920831678","1910162","400032206","AK-CGF-2017-CGF-72","INTERAGCY","IA-AKACC","FS","USAKCGF","Chugach National Forest","AKCGF","Chugach National Forest","271","CGF-72","EK3T","QUAGMIRE CLIFF","","","","","","2017","2017/06/27 00:00:00+00","178","","Human","Recreation and ceremony","","2017/06/27 00:00:00+00","178","","0.1","A","60.9208334","-149.4993333","USFS","AK","","",""
"-150.076126368","62.029481445","1910163","400032207","AK-MSS-2017-701287","INTERAGCY","IA-AKACC","ST/C&L","USAKMSS","Mat-Su Area","AKMSS","Mat-Su Area Forestry","287","701287","","SHEEP CREEK","","","","","","2017","2017/06/29 00:00:00+00","180","","Human","Equipment and vehicle use","","2017/06/29 00:00:00+00","180","","0.1","A","62.029483","-150.07615","STATE","AK","","",""
"-145.327226449","61.952497654","1910164","400032210","AK-CRS-2017-714404","INTERAGCY","IA-AKACC","ST/C&L","USAKCRS","Valdez-Copper River Area","AKCRS","Valdez-Copper River Area Forestry","404","714404","LDC5","KLUTINA BUSH BURN","","","","","","2017","2017/09/17 00:00:00+00","260","","Human","Debris and open burning","","2017/09/17 00:00:00+00","260","","0.1","A","61.9525","-145.32725","PRIVATE","AK","","",""
"-151.246533209","60.284665218","1910165","400032211","AK-KKS-2017-703115","INTERAGCY","IA-AKACC","ST/C&L","USAKKKS","Kenai-Kodiak Area","AKKKS","Kenai-Kodiak Area Forestry","115","703115","","EARL COURT","","","","","","2017","2017/05/19 00:00:00+00","139","","Human","Missing data/not specified/undetermined","","2017/05/19 00:00:00+00","139","","0.1","A","60.2846667","-151.2465556","PRIVATE","AK","","",""
"-148.889659591","61.713531228","1910166","400032217","AK-MSS-2017-701370","INTERAGCY","IA-AKACC","ST/C&L","USAKMSS","Mat-Su Area","AKMSS","Mat-Su Area Forestry","370","701370","","GRAND AVENUE","","","","","","2017","2017/07/26 00:00:00+00","207","","Human","Missing data/not specified/undetermined","","2017/07/26 00:00:00+00","207","","0.1","A","61.713533","-148.889683","PRIVATE","AK","","",""
"-147.771085049","64.866442736","1910167","400032218","AK-FAS-2017-711407","INTERAGCY","IA-AKACC","ST/C&L","USAKFAS","Fairbanks Area","AKFAS","Fairbanks Area Forestry","407","711407","","OLD COLLEGE RD","","","","","","2017","2017/09/24 00:00:00+00","267","","Human","Recreation and ceremony","","2017/09/24 00:00:00+00","267","","0.1","A","64.8664445","-147.7711111","STATE","AK","","",""
"-151.007311266","59.715498442","1910168","400032219","AK-KKS-2017-703380","INTERAGCY","IA-AKACC","ST/C&L","USAKKKS","Kenai-Kodiak Area","AKKKS","Kenai-Kodiak Area Forestry","380","703380","","LOON LAKE","","","","","","2017","2017/08/03 00:00:00+00","215","","Human","Missing data/not specified/undetermined","","","","","0.2","A","59.7155","-151.0073333","STATE","AK","","",""
"-148.220557061","64.748081307","1910169","400032220","AK-FAS-2017-711406","INTERAGCY","IA-AKACC","ST/C&L","USAKFAS","Fairbanks Area","AKFAS","Fairbanks Area Forestry","406","711406","","LAZADA LOGGING RD.","","","","","","2017","2017/09/20 00:00:00+00","263","","Human","Recreation and ceremony","","2017/09/20 00:00:00+00","263","","0.1","A","64.748083","-148.220583","STATE","AK","","",""
"-142.972586525","63.34849733","1910170","400032224","AK-TAS-2016-613050","INTERAGCY","IA-AKACC","ST/C&L","USAKTAS","Tok Area","AKTAS","Tok Area Forestry","050","613050","J8AK","5TH STREET CAR","","","","","","2016","2016/04/19 00:00:00+00","110","","Human","Missing data/not specified/undetermined","","2016/04/19 00:00:00+00","110","","0.1","A","63.3485","-142.9726111","TRIBAL","AK","","",""
"-148.302640705","64.806498325","1910171","400032225","AK-FAS-2016-611131","INTERAGCY","IA-AKACC","ST/C&L","USAKFAS","Fairbanks Area","AKFAS","Fairbanks Area Forestry","131","611131","","OHIO CREEK","","","","","","2016","2016/05/12 00:00:00+00","133","","Human","Missing data/not specified/undetermined","","2016/05/12 00:00:00+00","133","","0.1","A","64.8065","-148.3026667","PRIVATE","AK","","",""
"-149.402960427","64.361706485","1910172","400032235","AK-FAS-2016-611489","INTERAGCY","IA-AKACC","ST/C&L","USAKFAS","Fairbanks Area","AKFAS","Fairbanks Area Forestry","489","611489","KF1J","LOST SLOUGH","","","","","","2016","2016/07/14 00:00:00+00","196","","Natural","Natural","","2016/07/19 00:00:00+00","201","","6.7","B","64.361708","-149.402986","STATE","AK","","",""
"-148.449974088","64.719831644","1910173","400032236","AK-FAS-2016-611488","INTERAGCY","IA-AKACC","ST/C&L","USAKFAS","Fairbanks Area","AKFAS","Fairbanks Area Forestry","488","611488","KF1L","BONANZA 2","","","","","","2016","2016/07/14 00:00:00+00","196","","Natural","Natural","","2016/07/14 00:00:00+00","196","","0.1","A","64.7198333","-148.45","STATE","AK","","",""
"-151.135116179","60.778942934","1910174","400032243","AK-KKS-2016-603585","INTERAGCY","IA-AKACC","ST/C&L","USAKKKS","Kenai-Kodiak Area","AKKKS","Kenai-Kodiak Area Forestry","585","603585","","SCENIC VIEW LOOP","","","","","","2016","2016/08/13 00:00:00+00","226","","Human","Missing data/not specified/undetermined","","2016/08/13 00:00:00+00","226","","0.1","A","60.7789444","-151.1351389","PRIVATE","AK","","",""
"-151.779527904","59.842115573","1910175","400032244","AK-KKS-2016-603296","INTERAGCY","IA-AKACC","ST/C&L","USAKKKS","Kenai-Kodiak Area","AKKKS","Kenai-Kodiak Area Forestry","296","603296","","MOOSEFIELD","","","","","","2016","2016/06/22 00:00:00+00","174","","Human","Missing data/not specified/undetermined","","2016/06/22 00:00:00+00","174","","0.1","A","59.842117","-151.77955","PRIVATE","AK","","",""
"-149.552826669","61.612965331","1910176","400032245","AK-MSS-2016-601005","INTERAGCY","IA-AKACC","ST/C&L","USAKMSS","Mat-Su Area","AKMSS","Mat-Su Area Forestry","005","601005","","THUNDERCLOUD","","","","","","2016","2016/02/29 00:00:00+00","60","","Human","Missing data/not specified/undetermined","","2016/02/29 00:00:00+00","60","","0.1","A","61.612967","-149.55285","PRIVATE","AK","","",""
"-147.871251773","64.840498252","1910177","400032247","AK-FAS-2016-611072","INTERAGCY","IA-AKACC","ST/C&L","USAKFAS","Fairbanks Area","AKFAS","Fairbanks Area Forestry","072","611072","","PALO VERDE","","","","","","2016","2016/04/24 00:00:00+00","115","","Human","Missing data/not specified/undetermined","","2016/04/24 00:00:00+00","115","","0.1","A","64.8405","-147.8712778","COUNTY","AK","","",""
"-151.318421773","60.644831854","1910178","400032248","AK-KKS-2016-603073","INTERAGCY","IA-AKACC","ST/C&L","USAKKKS","Kenai-Kodiak Area","AKKKS","Kenai-Kodiak Area Forestry","073","603073","","THE HORSE FIRE","","","","","","2016","2016/04/24 00:00:00+00","115","","Human","Missing data/not specified/undetermined","","2016/04/24 00:00:00+00","115","","0.1","A","60.6448333","-151.3184444","PRIVATE","AK","","",""
"-151.291460424","60.567631545","1910179","400032249","AK-KKS-2016-603074","INTERAGCY","IA-AKACC","ST/C&L","USAKKKS","Kenai-Kodiak Area","AKKKS","Kenai-Kodiak Area Forestry","074","603074","","EVERGREEN","","","","","","2016","2016/04/25 00:00:00+00","116","","Human","Missing data/not specified/undetermined","","2016/04/25 00:00:00+00","116","","0.2","A","60.567633","-151.291483","PRIVATE","AK","","",""
"-154.954976786","61.689999221","1910180","400032254","AK-SWS-2016-604500","INTERAGCY","IA-AKACC","ST/C&L","USAKSWS","Southwest Area","AKSWS","Southwest Area Forestry","500","604500","","BIG RIVER","2016_4380573_BIG RIVER","","","","","2016","2016/07/15 00:00:00+00","197","","Natural","Natural","","2016/08/13 00:00:00+00","226","","920.8","E","61.69","-154.955","STATE","AK","","",""
"-155.056641958","63.645332694","1910181","400032256","AK-SWS-2016-604508","INTERAGCY","IA-AKACC","ST/C&L","USAKSWS","Southwest Area","AKSWS","Southwest Area Forestry","508","604508","","CLEARWATER CREEK","2016_4420678_CLEARWATER CREEK","","","","","2016","2016/07/15 00:00:00+00","197","","Natural","Natural","","2016/08/12 00:00:00+00","225","","752.4","E","63.6453333","-155.0566667","STATE","AK","","",""
"-151.137260915","59.799965468","1910182","400032261","AK-KKS-2016-603058","INTERAGCY","IA-AKACC","ST/C&L","USAKKKS","Kenai-Kodiak Area","AKKKS","Kenai-Kodiak Area Forestry","058","603058","","FALLS CREEK","","","","","","2016","2016/04/21 00:00:00+00","112","","Human","Missing data/not specified/undetermined","","2016/04/21 00:00:00+00","112","","0.1","A","59.799967","-151.137283","PRIVATE","AK","","",""
"-150.798949734","60.535942963","1910183","400032262","AK-KKS-2016-603255","INTERAGCY","IA-AKACC","ST/C&L","USAKKKS","Kenai-Kodiak Area","AKKKS","Kenai-Kodiak Area Forestry","255","603255","","FESTIVAL","","","","","","2016","2016/06/11 00:00:00+00","163","","Human","Missing data/not specified/undetermined","","2016/06/11 00:00:00+00","163","","0.1","A","60.5359445","-150.7989723","PRIVATE","AK","","",""
"-149.730336773","61.470858351","1910184","400032264","AK-MSS-2016-601316","INTERAGCY","IA-AKACC","ST/C&L","USAKMSS","Mat-Su Area","AKMSS","Mat-Su Area Forestry","316","601316","","POLARIS","","","","","","2016","2016/06/25 00:00:00+00","177","","Human","Missing data/not specified/undetermined","","2016/06/25 00:00:00+00","177","","0.1","A","61.47086","-149.73036","COUNTY","AK","","",""
"-147.658890241","65.183998237","1910185","400032265","AK-FAS-2016-611315","INTERAGCY","IA-AKACC","ST/C&L","USAKFAS","Fairbanks Area","AKFAS","Fairbanks Area Forestry","315","611315","KB5U","2016 WASHINGTON CREEK","","","","","","2016","2016/06/25 00:00:00+00","177","","Natural","Natural","","2016/07/02 00:00:00+00","184","","38.2","C","65.184","-147.6589166","STATE","AK","","",""
"-149.396976706","61.559526102","1910186","400032269","AK-MSS-2016-601637","INTERAGCY","IA-AKACC","ST/C&L","USAKMSS","Mat-Su Area","AKMSS","Mat-Su Area Forestry","637","601637","","GROSHAN","","","","","","2016","2016/10/17 00:00:00+00","291","","Human","Missing data/not specified/undetermined","","2016/10/17 00:00:00+00","291","","0.5","B","61.5595278","-149.397","PRIVATE","AK","","",""
"-149.623976725","61.537215338","1910187","400032270","AK-MSS-2016-601034","INTERAGCY","IA-AKACC","ST/C&L","USAKMSS","Mat-Su Area","AKMSS","Mat-Su Area Forestry","034","601034","","VAN GORDER","","","","","","2016","2016/04/14 00:00:00+00","105","","Human","Missing data/not specified/undetermined","","2016/04/14 00:00:00+00","105","","0.1","A","61.537217","-149.624","PRIVATE","AK","","",""
"-151.273283223","60.263137421","1910188","400032271","AK-KKS-2016-603045","INTERAGCY","IA-AKACC","ST/C&L","USAKKKS","Kenai-Kodiak Area","AKKKS","Kenai-Kodiak Area Forestry","045","603045","","RUNNING WATER","","","","","","2016","2016/04/17 00:00:00+00","108","","Human","Missing data/not specified/undetermined","","2016/04/17 00:00:00+00","108","","0.1","A","60.2631389","-151.2733056","PRIVATE","AK","","",""
"-151.103838523","60.563109614","1910189","400032272","AK-KKS-2016-603057","INTERAGCY","IA-AKACC","ST/C&L","USAKKKS","Kenai-Kodiak Area","AKKKS","Kenai-Kodiak Area Forestry","057","603057","","DOGWOOD","","","","","","2016","2016/04/21 00:00:00+00","112","","Human","Missing data/not specified/undetermined","","2016/04/21 00:00:00+00","112","","0.1","A","60.5631111","-151.1038611","PRIVATE","AK","","",""
"-148.060279644","64.76566498","1910190","400032273","AK-FAS-2016-611059","INTERAGCY","IA-AKACC","ST/C&L","USAKFAS","Fairbanks Area","AKFAS","Fairbanks Area Forestry","059","611059","","KALLENBERG","","","","","","2016","2016/04/21 00:00:00+00","112","","Human","Missing data/not specified/undetermined","","2016/04/21 00:00:00+00","112","","0.1","A","64.7656667","-148.0603056","PRIVATE","AK","","",""
"-149.338993702","61.565248293","1910191","400032276","AK-MSS-2016-601044","INTERAGCY","IA-AKACC","ST/C&L","USAKMSS","Mat-Su Area","AKMSS","Mat-Su Area Forestry","044","601044","","FAIRVIEW LOOP","","","","","","2016","2016/04/16 00:00:00+00","107","","Human","Missing data/not specified/undetermined","","2016/04/16 00:00:00+00","107","","0.2","A","61.56525","-149.339017","PRIVATE","AK","","",""
"-148.893558124","63.914692769","1910192","400032277","AK-FAS-2016-611042","INTERAGCY","IA-AKACC","ST/C&L","USAKFAS","Fairbanks Area","AKFAS","Fairbanks Area Forestry","042","611042","","2016 LIGNITE CREEK","","","","","","2016","2016/04/16 00:00:00+00","107","","Human","Missing data/not specified/undetermined","","2016/04/18 00:00:00+00","109","","10","C","63.9146944","-148.8935833","STATE","AK","","",""
"-148.887643432","61.519664916","1910193","400032282","AK-MSS-2016-601619","INTERAGCY","IA-AKACC","ST/C&L","USAKMSS","Mat-Su Area","AKMSS","Mat-Su Area Forestry","619","601619","","SWAN LAKE","","","","","","2016","2016/09/20 00:00:00+00","264","","Human","Missing data/not specified/undetermined","","2016/09/22 00:00:00+00","266","","0.1","A","61.5196667","-148.8876667","STATE","AK","","",""
"-145.736641416","64.062831138","1910194","400032283","AK-DAS-2016-612620","INTERAGCY","IA-AKACC","ST/C&L","USAKDAS","Delta Area","AKDAS","Delta Area Forestry","620","612620","","BREWIS","","","","","","2016","2016/09/21 00:00:00+00","265","","Human","Missing data/not specified/undetermined","","2016/09/21 00:00:00+00","265","","0.1","A","64.0628333","-145.7366667","PRIVATE","AK","","",""
"-146.830807644","64.452831349","1910195","400032284","AK-FAS-2016-611217","INTERAGCY","IA-AKACC","ST/C&L","USAKFAS","Fairbanks Area","AKFAS","Fairbanks Area Forestry","217","611217","","HARDING AG","","","","","","2016","2016/05/31 00:00:00+00","152","","Human","Missing data/not specified/undetermined","","2016/05/31 00:00:00+00","152","","0.1","A","64.4528333","-146.8308333","PRIVATE","AK","","",""
"-145.69083581","64.071414531","1910196","400032285","AK-DAS-2016-612223","INTERAGCY","IA-AKACC","ST/C&L","USAKDAS","Delta Area","AKDAS","Delta Area Forestry","223","612223","","JACK WARREN HILL","","","","","","2016","2016/06/01 00:00:00+00","153","","Human","Missing data/not specified/undetermined","","2016/06/01 00:00:00+00","153","","0.1","A","64.0714167","-145.6908611","STATE","AK","","",""
"-148.314476516","61.81413704","1910197","400032288","AK-MSS-2016-601222","INTERAGCY","IA-AKACC","ST/C&L","USAKMSS","Mat-Su Area","AKMSS","Mat-Su Area Forestry","222","601222","","BONNIE LAKE","","","","","","2016","2016/06/01 00:00:00+00","153","","Human","Missing data/not specified/undetermined","","2016/06/01 00:00:00+00","153","","1","B","61.8141389","-148.3145","PRIVATE","AK","","",""
"-151.284160432","60.555581543","1910198","400032289","AK-KKS-2016-603173","INTERAGCY","IA-AKACC","ST/C&L","USAKKKS","Kenai-Kodiak Area","AKKKS","Kenai-Kodiak Area Forestry","173","603173","","SEWAGE TREATMENT","","","","","","2016","2016/05/26 00:00:00+00","147","","Human","Missing data/not specified/undetermined","","2016/05/26 00:00:00+00","147","","0.1","A","60.555583","-151.284183","PRIVATE","AK","","",""
"-150.121976565","61.765609535","1910199","400032290","AK-MSS-2016-601212","INTERAGCY","IA-AKACC","ST/C&L","USAKMSS","Mat-Su Area","AKMSS","Mat-Su Area Forestry","212","601212","","CRYSTAL LAKE","","","","","","2016","2016/05/30 00:00:00+00","151","","Human","Missing data/not specified/undetermined","","2016/05/30 00:00:00+00","151","","0.1","A","61.7656111","-150.122","COUNTY","AK","","",""
"-149.114646668","61.609968259","1910200","400032294","AK-MSS-2016-601253","INTERAGCY","IA-AKACC","ST/C&L","USAKMSS","Mat-Su Area","AKMSS","Mat-Su Area Forestry","253","601253","","ALASKA STREET","","","","","","2016","2016/06/10 00:00:00+00","162","","Human","Missing data/not specified/undetermined","","2016/06/10 00:00:00+00","162","","0.2","A","61.60997","-149.11467","PRIVATE","AK","","",""
"-151.10756077","60.49213741","1910201","400032295","AK-KKS-2016-603021","INTERAGCY","IA-AKACC","ST/C&L","USAKKKS","Kenai-Kodiak Area","AKKKS","Kenai-Kodiak Area Forestry","021","603021","","RIVERWATCH 2","","","","","","2016","2016/04/09 00:00:00+00","100","","Human","Missing data/not specified/undetermined","","2016/04/09 00:00:00+00","100","","0.1","A","60.4921389","-151.1075833","PRIVATE","AK","","",""
"-151.10719967","60.49235961","1910202","400032296","AK-KKS-2016-603020","INTERAGCY","IA-AKACC","ST/C&L","USAKKKS","Kenai-Kodiak Area","AKKKS","Kenai-Kodiak Area Forestry","020","603020","","RIVERWATCH","","","","","","2016","2016/04/09 00:00:00+00","100","","Human","Missing data/not specified/undetermined","","2016/04/09 00:00:00+00","100","","0.1","A","60.4923611","-151.1072222","PRIVATE","AK","","",""
"-151.699005936","59.464220734","1910203","400032297","AK-KKS-2016-603152","INTERAGCY","IA-AKACC","ST/C&L","USAKKKS","Kenai-Kodiak Area","AKKKS","Kenai-Kodiak Area Forestry","152","603152","","JAKOLOF BAY","","","","","","2016","2016/05/19 00:00:00+00","140","","Human","Missing data/not specified/undetermined","","2016/05/20 00:00:00+00","141","","0.1","A","59.4642222","-151.6990278","PRIVATE","AK","","",""
"-150.642810759","60.494470635","1910204","400032299","AK-KKS-2016-603225","INTERAGCY","IA-AKACC","ST/C&L","USAKKKS","Kenai-Kodiak Area","AKKKS","Kenai-Kodiak Area Forestry","225","603225","J9R2","POWER LINE TRAIL","","","","","","2016","2016/06/01 00:00:00+00","153","","Human","Missing data/not specified/undetermined","","2016/06/01 00:00:00+00","153","","0.2","A","60.4944722","-150.6428333","COUNTY","AK","","",""
"-147.279973763","65.061164863","1910205","400032303","AK-FAS-2016-611466","INTERAGCY","IA-AKACC","ST/C&L","USAKFAS","Fairbanks Area","AKFAS","Fairbanks Area Forestry","466","611466","","CLEARY","","","","","","2016","2016/07/14 00:00:00+00","196","","Natural","Natural","","","","","0.1","A","65.0611667","-147.28","STATE","AK","","",""
"-150.878560729","60.545831877","1910206","400032307","AK-KKS-2016-603066","INTERAGCY","IA-AKACC","ST/C&L","USAKKKS","Kenai-Kodiak Area","AKKKS","Kenai-Kodiak Area Forestry","066","603066","","DOUBLE PILE","","","","","","2016","2016/04/23 00:00:00+00","114","","Human","Missing data/not specified/undetermined","","2016/04/23 00:00:00+00","114","","0.1","A","60.5458334","-150.8785833","PRIVATE","AK","","",""
"-149.261526657","61.625765284","1910207","400032308","AK-MSS-2016-601069","INTERAGCY","IA-AKACC","ST/C&L","USAKMSS","Mat-Su Area","AKMSS","Mat-Su Area Forestry","069","601069","","ENGSTROM","","","","","","2016","2016/04/23 00:00:00+00","114","","Human","Missing data/not specified/undetermined","","2016/04/23 00:00:00+00","114","","0.1","A","61.625767","-149.26155","PRIVATE","AK","","",""
"-148.897576755","61.487465216","1910208","400032309","AK-MSS-2016-601071","INTERAGCY","IA-AKACC","ST/C&L","USAKMSS","Mat-Su Area","AKMSS","Mat-Su Area Forestry","071","601071","J8F2","KNIK RIVER","","","","","","2016","2016/04/23 00:00:00+00","114","","Human","Missing data/not specified/undetermined","","2016/04/23 00:00:00+00","114","","0.2","A","61.487467","-148.8976","PRIVATE","AK","","",""
"-149.391390616","64.907054019","1910209","400032319","AK-FAS-2016-611194","INTERAGCY","IA-AKACC","ST/C&L","USAKFAS","Fairbanks Area","AKFAS","Fairbanks Area Forestry","194","611194","","CRESENT","","","","","","2016","2016/05/29 00:00:00+00","150","","Human","Missing data/not specified/undetermined","","2016/05/29 00:00:00+00","150","","0.1","A","64.9070555","-149.3914167","STATE","AK","","",""
"-147.864946171","64.842970451","1910210","400032320","AK-FAS-2016-611196","INTERAGCY","IA-AKACC","ST/C&L","USAKFAS","Fairbanks Area","AKFAS","Fairbanks Area Forestry","196","611196","","DRAKE","","","","","","2016","2016/05/29 00:00:00+00","150","","Human","Missing data/not specified/undetermined","","","","","0.1","A","64.8429722","-147.8649722","PRIVATE","AK","","",""
"-149.678004763","61.202137225","1910211","400032322","AK-MSS-2016-632205","INTERAGCY","IA-AKACC","ST/C&L","USAKMSS","Mat-Su Area","AKMSS","Mat-Su Area Forestry","205","632205","EK3T","MILITARY RESERVATION","","","","","","2016","2016/05/29 00:00:00+00","150","","Human","Missing data/not specified/undetermined","","2016/05/29 00:00:00+00","150","","0.1","A","61.2021389","-149.6780278","OTHER FEDERAL","AK","","",""
"-149.221193665","61.614931277","1910212","400032323","AK-MSS-2016-601008","INTERAGCY","IA-AKACC","ST/C&L","USAKMSS","Mat-Su Area","AKMSS","Mat-Su Area Forestry","008","601008","","SEAGULL","","","","","","2016","2016/03/10 00:00:00+00","70","","Human","Missing data/not specified/undetermined","","2016/03/10 00:00:00+00","70","","0.4","B","61.614933","-149.221217","PRIVATE","AK","","",""
"-149.583666651","61.638888338","1910213","400032324","AK-MSS-2016-601252","INTERAGCY","IA-AKACC","ST/C&L","USAKMSS","Mat-Su Area","AKMSS","Mat-Su Area Forestry","252","601252","","GREENSWARD","","","","","","2016","2016/06/10 00:00:00+00","162","","Human","Missing data/not specified/undetermined","","2016/06/10 00:00:00+00","162","","0.1","A","61.63889","-149.58369","PRIVATE","AK","","",""
"-146.97616868","64.520886978","1910214","400032326","AK-FAS-2016-611294","INTERAGCY","IA-AKACC","ST/C&L","USAKFAS","Fairbanks Area","AKFAS","Fairbanks Area Forestry","294","611294","","SCHMAUSS LANE","","","","","","2016","2016/06/21 00:00:00+00","173","","Human","Missing data/not specified/undetermined","","2016/06/21 00:00:00+00","173","","0.1","A","64.5208889","-146.9761944","PRIVATE","AK","","",""
"-145.731530237","64.040108936","1910215","400032330","AK-DAS-2016-612099","INTERAGCY","IA-AKACC","ST/C&L","USAKDAS","Delta Area","AKDAS","Delta Area Forestry","099","612099","","JACKS","","","","","","2016","2016/05/04 00:00:00+00","125","","Human","Missing data/not specified/undetermined","","2016/05/04 00:00:00+00","125","","0.3","B","64.0401111","-145.7315555","PRIVATE","AK","","",""
"-151.409644695","59.682276304","1910216","400032331","AK-KKS-2016-603065","INTERAGCY","IA-AKACC","ST/C&L","USAKKKS","Kenai-Kodiak Area","AKKKS","Kenai-Kodiak Area Forestry","065","603065","","GARRETT CIRCLE","","","","","","2016","2016/04/23 00:00:00+00","114","","Human","Missing data/not specified/undetermined","","2016/04/23 00:00:00+00","114","","0.1","A","59.6822778","-151.4096667","PRIVATE","AK","","",""
"-143.034225424","63.346497341","1910217","400032333","AK-TAS-2016-613038","INTERAGCY","IA-AKACC","ST/C&L","USAKTAS","Tok Area","AKTAS","Tok Area Forestry","038","613038","","MIDNIGHT SUN #1","","","","","","2016","2016/04/15 00:00:00+00","106","","Human","Missing data/not specified/undetermined","","2016/04/15 00:00:00+00","106","","0.1","A","63.3465","-143.03425","PRIVATE","AK","","",""
"-145.435224732","64.053358886","1910218","400032334","AK-DAS-2016-612164","INTERAGCY","IA-AKACC","ST/C&L","USAKDAS","Delta Area","AKDAS","Delta Area Forestry","164","612164","","CLEARWATER CAMPGROUND","","","","","","2016","2016/05/24 00:00:00+00","145","","Human","Missing data/not specified/undetermined","","2016/05/24 00:00:00+00","145","","0.1","A","64.0533611","-145.43525","PRIVATE","AK","","",""
"-149.359286778","61.45913829","1910219","400032336","AK-MSS-2016-601376","INTERAGCY","IA-AKACC","ST/C&L","USAKMSS","Mat-Su Area","AKMSS","Mat-Su Area Forestry","376","601376","","MILE 26","","","","","","2016","2016/06/29 00:00:00+00","181","","Human","Missing data/not specified/undetermined","","2016/06/29 00:00:00+00","181","","0.1","A","61.45914","-149.35931","STATE","AK","","",""
"-151.251394157","60.515470735","1910220","400032341","AK-KKS-2016-603575","INTERAGCY","IA-AKACC","ST/C&L","USAKKKS","Kenai-Kodiak Area","AKKKS","Kenai-Kodiak Area Forestry","575","603575","","SOCKEYE POWERLINE","","","","","","2016","2016/07/30 00:00:00+00","212","","Human","Missing data/not specified/undetermined","","2016/07/30 00:00:00+00","212","","0.1","A","60.5154722","-151.2514167","PRIVATE","AK","","",""
"-145.347474769","64.013831069","1910221","400032343","AK-DAS-2016-612641","INTERAGCY","IA-AKACC","ST/C&L","USAKDAS","Delta Area","AKDAS","Delta Area Forestry","641","612641","","HANSON RD","","","","","","2016","2016/10/18 00:00:00+00","292","","Human","Missing data/not specified/undetermined","","2016/10/18 00:00:00+00","292","","0.8","B","64.0138333","-145.3475","PRIVATE","AK","","",""
"-145.735335834","64.043525637","1910222","400032344","AK-DAS-2016-612076","INTERAGCY","IA-AKACC","ST/C&L","USAKDAS","Delta Area","AKDAS","Delta Area Forestry","076","612076","","POST OFFICE","","","","","","2016","2016/04/25 00:00:00+00","116","","Human","Missing data/not specified/undetermined","","2016/04/25 00:00:00+00","116","","0.1","A","64.0435278","-145.7353611","PRIVATE","AK","","",""
"-149.433393378","61.598442711","1910223","400032345","AK-MSS-2016-601211","INTERAGCY","IA-AKACC","ST/C&L","USAKMSS","Mat-Su Area","AKMSS","Mat-Su Area Forestry","211","601211","","SPRUCE","","","","","","2016","2016/05/30 00:00:00+00","151","","Human","Missing data/not specified/undetermined","","2016/05/30 00:00:00+00","151","","0.1","A","61.5984444","-149.4334167","PRIVATE","AK","","",""
"-150.634244162","60.489181734","1910224","400032347","AK-KKS-2016-603259","INTERAGCY","IA-AKACC","ST/C&L","USAKKKS","Kenai-Kodiak Area","AKKKS","Kenai-Kodiak Area Forestry","259","603259","","KILLEY","","","","","","2016","2016/06/13 00:00:00+00","165","","Human","Missing data/not specified/undetermined","","2016/06/13 00:00:00+00","165","","0.1","A","60.4891833","-150.6342667","PRIVATE","AK","","",""
"-147.040696438","64.564859192","1910225","400032353","AK-FAS-2016-611049","INTERAGCY","IA-AKACC","ST/C&L","USAKFAS","Fairbanks Area","AKFAS","Fairbanks Area Forestry","049","611049","","MAGGIE","","","","","","2016","2016/04/18 00:00:00+00","109","","Human","Missing data/not specified/undetermined","","2016/04/18 00:00:00+00","109","","0.1","A","64.5648611","-147.0407222","PRIVATE","AK","","",""
"-147.662723995","64.818720415","1910226","400032354","AK-FAS-2016-611048","INTERAGCY","IA-AKACC","ST/C&L","USAKFAS","Fairbanks Area","AKFAS","Fairbanks Area Forestry","048","611048","","DITCH FIRE","","","","","","2016","2016/04/18 00:00:00+00","109","","Human","Missing data/not specified/undetermined","","2016/04/18 00:00:00+00","109","","0.1","A","64.8187222","-147.66275","OTHER FEDERAL","AK","","",""
"-150.983838581","60.470887389","1910227","400032356","AK-KKS-2016-603075","INTERAGCY","IA-AKACC","ST/C&L","USAKKKS","Kenai-Kodiak Area","AKKKS","Kenai-Kodiak Area Forestry","075","603075","","JOHNSON DRIVE","","","","","","2016","2016/04/25 00:00:00+00","116","","Human","Missing data/not specified/undetermined","","2016/04/25 00:00:00+00","116","","0.1","A","60.4708889","-150.9838611","PRIVATE","AK","","",""
"-151.831505727","59.807776379","1910228","400032357","AK-KKS-2016-603144","INTERAGCY","IA-AKACC","ST/C&L","USAKKKS","Kenai-Kodiak Area","AKKKS","Kenai-Kodiak Area Forestry","144","603144","","TOY FIRE","","","","","","2016","2016/05/15 00:00:00+00","136","","Human","Missing data/not specified/undetermined","","2016/05/15 00:00:00+00","136","","0.1","A","59.8077778","-151.8315278","PRIVATE","AK","","",""
"-149.270559945","61.642803787","1910229","400032358","AK-MSS-2016-601165","INTERAGCY","IA-AKACC","ST/C&L","USAKMSS","Mat-Su Area","AKMSS","Mat-Su Area Forestry","165","601165","J9E7","WOLF LAKE DRIVE","","","","","","2016","2016/05/24 00:00:00+00","145","","Human","Missing data/not specified/undetermined","","2016/05/24 00:00:00+00","145","","0.1","A","61.6428055","-149.2705833","STATE","AK","","",""
"-151.663422183","60.029442968","1910230","400032364","AK-KKS-2016-603023","INTERAGCY","IA-AKACC","ST/C&L","USAKKKS","Kenai-Kodiak Area","AKKKS","Kenai-Kodiak Area Forestry","023","603023","","HAPPY O","","","","","","2016","2016/04/10 00:00:00+00","101","","Human","Missing data/not specified/undetermined","","2016/04/10 00:00:00+00","101","","0.1","A","60.0294444","-151.6634444","PRIVATE","AK","","",""
"-151.540195025","59.637515521","1910231","400032365","AK-KKS-2016-603186","INTERAGCY","IA-AKACC","ST/C&L","USAKKKS","Kenai-Kodiak Area","AKKKS","Kenai-Kodiak Area Forestry","186","603186","J9J1","BEAUTY","","","","","","2016","2016/05/28 00:00:00+00","149","","Human","Missing data/not specified/undetermined","","2016/05/28 00:00:00+00","149","","0.1","A","59.637517","-151.540217","MUNICIPAL/LOCAL","AK","","",""
"-146.379310321","61.131664482","1910232","400032366","AK-CRS-2016-614181","INTERAGCY","IA-AKACC","ST/C&L","USAKCRS","Valdez-Copper River Area","AKCRS","Valdez-Copper River Area Forestry","181","614181","","VALDEZ #1","","","","","","2016","2016/05/27 00:00:00+00","148","","Human","Missing data/not specified/undetermined","","2016/05/27 00:00:00+00","148","","0.1","A","61.1316667","-146.3793333","PRIVATE","AK","","",""
"-149.042059683","61.588248246","1910233","400032372","AK-MSS-2016-601029","INTERAGCY","IA-AKACC","ST/C&L","USAKMSS","Mat-Su Area","AKMSS","Mat-Su Area Forestry","029","601029","","BRADFORD","","","","","","2016","2016/04/12 00:00:00+00","103","","Human","Missing data/not specified/undetermined","","2016/04/12 00:00:00+00","103","","0.1","A","61.58825","-149.042083","PRIVATE","AK","","",""
"-149.427724685","64.077109571","1910234","400032375","AK-FAS-2016-611469","INTERAGCY","IA-AKACC","ST/C&L","USAKFAS","Fairbanks Area","AKFAS","Fairbanks Area Forestry","469","611469","KF05","16 BEAR","","","","","","2016","2016/07/14 00:00:00+00","196","","Natural","Natural","","2016/07/16 00:00:00+00","198","","17.4","C","64.0771111","-149.42775","STATE","AK","","",""
"-149.224866559","61.760108287","1910235","400032381","AK-MSS-2016-601498","INTERAGCY","IA-AKACC","ST/C&L","USAKMSS","Mat-Su Area","AKMSS","Mat-Su Area Forestry","498","601498","","MILE 12 PALMER FISHHOOK","","","","","","2016","2016/07/14 00:00:00+00","196","","Human","Missing data/not specified/undetermined","","2016/07/15 00:00:00+00","197","","0.1","A","61.76011","-149.22489","PRIVATE","AK","","",""
"-149.72197709","61.020581621","1910236","400032384","AK-MSS-2016-601541","INTERAGCY","IA-AKACC","ST/C&L","USAKMSS","Mat-Su Area","AKMSS","Mat-Su Area Forestry","541","601541","KF8R","MCHUGH","2016_4377554_MCHUGH","","","","","2016","2016/07/16 00:00:00+00","198","","Human","Missing data/not specified/undetermined","","2016/09/30 00:00:00+00","274","","777.5","E","61.0205833","-149.722","STATE","AK","","",""
"-156.381727377","60.965059393","1910237","400032385","AK-SWS-2016-604546","INTERAGCY","IA-AKACC","ST/C&L","USAKSWS","Southwest Area","AKSWS","Southwest Area Forestry","546","604546","","HOHOLITNA RIVER","2016_4440505_HOHOLITNA RIVER","","","","","2016","2016/07/17 00:00:00+00","199","","Natural","Natural","","2016/07/29 00:00:00+00","211","","122.8","D","60.96506","-156.38175","STATE","AK","","",""
"-151.044171826","60.556137404","1910238","400032388","AK-KKS-2016-603560","INTERAGCY","IA-AKACC","ST/C&L","USAKKKS","Kenai-Kodiak Area","AKKKS","Kenai-Kodiak Area Forestry","560","603560","","EAGLE LAKE","","","","","","2016","2016/07/21 00:00:00+00","203","","Human","Missing data/not specified/undetermined","","2016/07/21 00:00:00+00","203","","0.1","A","60.5561389","-151.0441944","PRIVATE","AK","","",""
"-154.922806844","61.605999209","1910239","400032390","AK-SWS-2016-604569","INTERAGCY","IA-AKACC","ST/C&L","USAKSWS","Southwest Area","AKSWS","Southwest Area Forestry","569","604569","","NORTH FORK SWIFT RIVER","","","","","","2016","2016/07/26 00:00:00+00","208","","Natural","Natural","","2016/07/28 00:00:00+00","210","","1","B","61.606","-154.92283","STATE","AK","","",""
"-149.303143365","61.61499829","1910240","400032391","AK-MSS-2016-601112","INTERAGCY","IA-AKACC","ST/C&L","USAKMSS","Mat-Su Area","AKMSS","Mat-Su Area Forestry","112","601112","","BEAR CUB","","","","","","2016","2016/05/06 00:00:00+00","127","","Human","Missing data/not specified/undetermined","","2016/05/06 00:00:00+00","127","","0.1","A","61.615","-149.3031667","PRIVATE","AK","","",""
"-151.081199633","60.54591521","1910241","400032392","AK-KKS-2016-603140","INTERAGCY","IA-AKACC","ST/C&L","USAKKKS","Kenai-Kodiak Area","AKKKS","Kenai-Kodiak Area Forestry","140","603140","","WISCONSIN FIRE","","","","","","2016","2016/05/15 00:00:00+00","136","","Human","Missing data/not specified/undetermined","","2016/05/15 00:00:00+00","136","","0.1","A","60.5459167","-151.0812222","PRIVATE","AK","","",""
"-144.93755834","63.717442083","1910242","400032399","AK-DAS-2016-612526","INTERAGCY","IA-AKACC","ST/C&L","USAKDAS","Delta Area","AKDAS","Delta Area Forestry","526","612526","","LITTLE GERSTLE","","","","","","2016","2016/07/15 00:00:00+00","197","","Human","Missing data/not specified/undetermined","","2016/09/30 00:00:00+00","274","","25.9","C","63.7174444","-144.9375833","STATE","AK","","",""
"-145.475335824","64.060692193","1910243","400032401","AK-DAS-2016-612083","INTERAGCY","IA-AKACC","ST/C&L","USAKDAS","Delta Area","AKDAS","Delta Area Forestry","083","612083","","DAVENPORT ROAD","","","","","","2016","2016/04/29 00:00:00+00","120","","Human","Missing data/not specified/undetermined","","2016/04/29 00:00:00+00","120","","0.2","A","64.0606944","-145.4753611","PRIVATE","AK","","",""
"-148.998782224","61.668359343","1910244","400032402","AK-MSS-2016-601084","INTERAGCY","IA-AKACC","ST/C&L","USAKMSS","Mat-Su Area","AKMSS","Mat-Su Area Forestry","084","601084","","HARDING","","","","","","2016","2016/04/29 00:00:00+00","120","","Human","Missing data/not specified/undetermined","","2016/04/29 00:00:00+00","120","","0.5","B","61.6683611","-148.9988056","PRIVATE","AK","","",""
"-148.664612741","64.979359498","1910245","400032403","AK-FAS-2016-611249","INTERAGCY","IA-AKACC","ST/C&L","USAKFAS","Fairbanks Area","AKFAS","Fairbanks Area Forestry","249","611249","","MURPHY DOME RD EXTENSION","","","","","","2016","2016/06/09 00:00:00+00","161","","Human","Missing data/not specified/undetermined","","2016/06/09 00:00:00+00","161","","0.1","A","64.9793611","-148.6646389","STATE","AK","","",""
"-135.195812563","58.605551513","1910246","400032404","AK-TNF-2016-631581","INTERAGCY","IA-AKACC","FS","USAKTNF","Tongass National Forest","AKTNF","Tongass National Forest","581","631581","KK8A","CAVE","","","","","","2016","2016/08/06 00:00:00+00","219","","Human","Missing data/not specified/undetermined","","2016/08/07 00:00:00+00","220","","0.1","A","58.6055556","-135.1958333","MUNICIPAL/LOCAL","AK","","",""
"-145.388363632","64.053608878","1910247","400032407","AK-DAS-2016-612627","INTERAGCY","IA-AKACC","ST/C&L","USAKDAS","Delta Area","AKDAS","Delta Area Forestry","627","612627","","11.5 CLEARWATER RIVER","","","","","","2016","2016/10/12 00:00:00+00","286","","Human","Missing data/not specified/undetermined","","2016/10/13 00:00:00+00","287","","0.1","A","64.0536111","-145.3883889","STATE","AK","","",""
"-143.421708393","63.363614407","1910248","400032408","AK-TAS-2016-613645","INTERAGCY","IA-AKACC","ST/C&L","USAKTAS","Tok Area","AKTAS","Tok Area Forestry","645","613645","","MP 1328 ALASKA HIGWAY","","","","","","2016","2016/11/12 00:00:00+00","317","","Human","Missing data/not specified/undetermined","","2016/11/12 00:00:00+00","317","","0.1","A","63.363617","-143.421733","PRIVATE","AK","","",""
"-145.711141432","64.045831133","1910249","400032409","AK-DAS-2016-612651","INTERAGCY","IA-AKACC","ST/C&L","USAKDAS","Delta Area","AKDAS","Delta Area Forestry","651","612651","","WINTER SOLSTICE","","","","","","2016","2016/12/20 00:00:00+00","355","","Human","Missing data/not specified/undetermined","","2016/12/23 00:00:00+00","358","","0.1","A","64.0458333","-145.7111667","STATE","AK","","",""
