"ï»¿X","Y","OBJECTID","FOD_ID","FPA_ID","SOURCE_SYSTEM_TYPE","SOURCE_SYSTEM","NWCG_REPORTING_AGENCY","NWCG_REPORTING_UNIT_ID","NWCG_REPORTING_UNIT_NAME","SOURCE_REPORTING_UNIT","SOURCE_REPORTING_UNIT_NAME","LOCAL_FIRE_REPORT_ID","LOCAL_INCIDENT_ID","FIRE_CODE","FIRE_NAME","ICS_209_PLUS_INCIDENT_JOIN_ID","ICS_209_PLUS_COMPLEX_JOIN_ID","MTBS_ID","MTBS_FIRE_NAME","COMPLEX_NAME","FIRE_YEAR","DISCOVERY_DATE","DISCOVERY_DOY","DISCOVERY_TIME","NWCG_CAUSE_CLASSIFICATION","NWCG_GENERAL_CAUSE","NWCG_CAUSE_AGE_CATEGORY","CONT_DATE","CONT_DOY","CONT_TIME","FIRE_SIZE","FIRE_SIZE_CLASS","LATITUDE","LONGITUDE","OWNER_DESCR","STATE","COUNTY","FIPS_CODE","FIPS_NAME"
"-96.210492439","35.537573726","1210001","1468175","W-608954","FED","DOI-WFMI","BIA","USOKOMA","Okmulgee Field Office","OKOMA","Okmulgee Field Office","71","","FR97","SHEPARD","","","","","","2010","2010/08/19 00:00:00+00","231","1510","Human","Debris and open burning","","2010/08/19 00:00:00+00","231","1550","35","C","35.53758","-96.2105","BIA","OK","","",""
"-96.315792424","35.383893759","1210002","1468176","W-608958","FED","DOI-WFMI","BIA","USOKOMA","Okmulgee Field Office","OKOMA","Okmulgee Field Office","72","","FR98","RENOLYDS","","","","","","2010","2010/08/19 00:00:00+00","231","1627","Human","Missing data/not specified/undetermined","","2010/08/19 00:00:00+00","231","2000","65","C","35.3839","-96.3158","PRIVATE","OK","","",""
"-96.216692448","35.404993751","1210003","1468177","W-608962","FED","DOI-WFMI","BIA","USOKOMA","Okmulgee Field Office","OKOMA","Okmulgee Field Office","73","","FSG7","CREEK CHAPPEL","","","","","","2010","2010/08/20 00:00:00+00","232","1520","Human","Debris and open burning","","2010/08/20 00:00:00+00","232","1545","0.2","A","35.405","-96.2167","BIA","OK","","",""
"-96.350492413","35.406393757","1210004","1468178","W-608964","FED","DOI-WFMI","BIA","USOKOMA","Okmulgee Field Office","OKOMA","Okmulgee Field Office","74","","FSN6","BROWN","","","","","","2010","2010/08/21 00:00:00+00","233","1348","Human","Debris and open burning","","2010/08/21 00:00:00+00","233","1427","1.4","B","35.4064","-96.3505","BIA","OK","","",""
"-96.387792397","35.497193743","1210005","1468179","W-608967","FED","DOI-WFMI","BIA","USOKOMA","Okmulgee Field Office","OKOMA","Okmulgee Field Office","75","","FTN4","WATER TOWER","","","","","","2010","2010/08/26 00:00:00+00","238","1300","Human","Equipment and vehicle use","","2010/08/26 00:00:00+00","238","1355","1.7","B","35.4972","-96.3878","PRIVATE","OK","","",""
"-95.959692521","35.310493755","1210006","1468180","W-608969","FED","DOI-WFMI","BIA","USOKOMA","Okmulgee Field Office","OKOMA","Okmulgee Field Office","76","","FT06","DON'T KNOW","","","","","","2010","2010/08/29 00:00:00+00","241","1140","Human","Missing data/not specified/undetermined","","2010/08/29 00:00:00+00","241","1620","1.4","B","35.3105","-95.9597","PRIVATE","OK","","",""
"-95.80779255","35.450793722","1210007","1468181","W-609904","FED","DOI-WFMI","BIA","USOKOMA","Okmulgee Field Office","OKOMA","Okmulgee Field Office","79","","FT5B","RAINBOW FIRE","","","","","","2010","2010/08/31 00:00:00+00","243","1636","Human","Missing data/not specified/undetermined","","2010/08/31 00:00:00+00","243","1807","18","C","35.4508","-95.8078","PRIVATE","OK","","",""
"-95.951072523","35.305463756","1210008","1468182","W-613599","FED","DOI-WFMI","BIA","USOKOMA","Okmulgee Field Office","OKOMA","Okmulgee Field Office","80","","FUC3","INDIAN NATIONS","","","","","","2010","2010/09/04 00:00:00+00","247","1745","Human","Missing data/not specified/undetermined","","2010/09/04 00:00:00+00","247","1830","0.3","B","35.30547","-95.95108","STATE","OK","","",""
"-95.9552925","35.602493702","1210009","1468183","W-613676","FED","DOI-WFMI","BIA","USOKOMA","Okmulgee Field Office","OKOMA","Okmulgee Field Office","82","","FV2M","3 RUNNERS","","","","","","2010","2010/09/23 00:00:00+00","266","1545","Human","Missing data/not specified/undetermined","","2010/09/23 00:00:00+00","266","1640","0.3","B","35.6025","-95.9553","PRIVATE","OK","","",""
"-95.940146489","35.799117666","1210010","1468184","W-614474","FED","DOI-WFMI","BIA","USOKOMA","Okmulgee Field Office","OKOMA","Okmulgee Field Office","83","","FXN9","240 RD","","","","","","2010","2010/10/15 00:00:00+00","288","1533","Human","Missing data/not specified/undetermined","","2010/10/16 00:00:00+00","289","1623","51.2","C","35.799124","-95.940154","PRIVATE","OK","","",""
"-96.604992298","36.048893655","1210011","1468185","W-615398","FED","DOI-WFMI","BIA","USOKOMA","Okmulgee Field Office","OKOMA","Okmulgee Field Office","84","","FXU9","EXPOSURE","","","","","","2010","2010/10/17 00:00:00+00","290","1410","Human","Missing data/not specified/undetermined","","2010/10/19 00:00:00+00","292","1600","37","C","36.0489","-96.605","PRIVATE","OK","","",""
"-96.565792314","35.976093666","1210012","1468186","W-615416","FED","DOI-WFMI","BIA","USOKOMA","Okmulgee Field Office","OKOMA","Okmulgee Field Office","85","","FXY3","ARC","","","","","","2010","2010/10/17 00:00:00+00","290","1735","Human","Missing data/not specified/undetermined","","2010/10/17 00:00:00+00","290","1827","2.4","B","35.9761","-96.5658","PRIVATE","OK","","",""
"-96.59189231","35.942193674","1210013","1468187","W-615417","FED","DOI-WFMI","BIA","USOKOMA","Okmulgee Field Office","OKOMA","Okmulgee Field Office","86","","FXY4","SOUTH DRUM","","","","","","2010","2010/10/17 00:00:00+00","290","1754","Human","Missing data/not specified/undetermined","","2010/10/17 00:00:00+00","290","1835","2.7","B","35.9422","-96.5919","PRIVATE","OK","","",""
"-96.227792394","36.073293632","1210014","1468188","W-615418","FED","DOI-WFMI","BIA","USOKOMA","Okmulgee Field Office","OKOMA","Okmulgee Field Office","87","","FX5B","BURNING BEAR","","","","","","2010","2010/10/26 00:00:00+00","299","1450","Human","Missing data/not specified/undetermined","","2010/10/26 00:00:00+00","299","1610","4.3","B","36.0733","-96.2278","PRIVATE","OK","","",""
"-96.375792379","35.769693693","1210015","1468189","W-615419","FED","DOI-WFMI","BIA","USOKOMA","Okmulgee Field Office","OKOMA","Okmulgee Field Office","88","","FX72","SOUTH 48","","","","","","2010","2010/10/28 00:00:00+00","301","1350","Human","Missing data/not specified/undetermined","","2010/10/29 00:00:00+00","302","1600","217.4","D","35.7697","-96.3758","PRIVATE","OK","","",""
"-96.161892437","35.72719369","1210016","1468190","W-615420","FED","DOI-WFMI","BIA","USOKOMA","Okmulgee Field Office","OKOMA","Okmulgee Field Office","89","","FX73","DIESEL WELL","","","","","","2010","2010/10/28 00:00:00+00","301","1427","Human","Missing data/not specified/undetermined","","2010/10/28 00:00:00+00","301","1800","37","C","35.7272","-96.1619","PRIVATE","OK","","",""
"-96.298892418","35.510793736","1210017","1468191","W-615421","FED","DOI-WFMI","BIA","USOKOMA","Okmulgee Field Office","OKOMA","Okmulgee Field Office","90","","FX74","DONUT HOLE","","","","","","2010","2010/10/28 00:00:00+00","301","1526","Human","Missing data/not specified/undetermined","","2010/10/29 00:00:00+00","302","1300","43","C","35.5108","-96.2989","PRIVATE","OK","","",""
"-95.522492625","35.43719371","1210018","1468192","W-615422","FED","DOI-WFMI","BIA","USOKOMA","Okmulgee Field Office","OKOMA","Okmulgee Field Office","91","","FX8Q","DRIVE-IN","","","","","","2010","2010/10/30 00:00:00+00","303","1237","Human","Missing data/not specified/undetermined","","2010/10/30 00:00:00+00","303","1410","6","B","35.4372","-95.5225","PRIVATE","OK","","",""
"-96.577492324","35.806093697","1210019","1468193","W-615423","FED","DOI-WFMI","BIA","USOKOMA","Okmulgee Field Office","OKOMA","Okmulgee Field Office","92","","FX8S","STROUD LAKE","","","","","","2010","2010/10/30 00:00:00+00","303","1522","Human","Missing data/not specified/undetermined","","2010/10/31 00:00:00+00","304","1800","117.4","D","35.8061","-96.5775","PRIVATE","OK","","",""
"-96.197902399","36.098513626","1210020","1468194","W-615424","FED","DOI-WFMI","BIA","USOKOMA","Okmulgee Field Office","OKOMA","Okmulgee Field Office","93","","FX9M","COYOTE TRAIL","","","","","","2010","2010/10/31 00:00:00+00","304","1448","Human","Missing data/not specified/undetermined","","2010/11/02 00:00:00+00","306","1600","264","D","36.09852","-96.19791","PRIVATE","OK","","",""
"-96.392792357","35.998293653","1210021","1468195","W-615425","FED","DOI-WFMI","BIA","USOKOMA","Okmulgee Field Office","OKOMA","Okmulgee Field Office","94","","FX9N","CAMBRIDGE","","","","","","2010","2010/10/31 00:00:00+00","304","1621","Human","Missing data/not specified/undetermined","","2010/11/01 00:00:00+00","305","1030","37","C","35.9983","-96.3928","PRIVATE","OK","","",""
"-96.31549237","36.090293633","1210022","1468196","W-615426","FED","DOI-WFMI","BIA","USOKOMA","Okmulgee Field Office","OKOMA","Okmulgee Field Office","95","","FYJ8","PEA RIDGE","","","","","","2010","2010/11/03 00:00:00+00","307","1506","Human","Missing data/not specified/undetermined","","2010/11/04 00:00:00+00","308","1600","76","C","36.0903","-96.3155","TRIBAL","OK","","",""
"-96.5929923","36.073293651","1210023","1468197","W-615427","FED","DOI-WFMI","BIA","USOKOMA","Okmulgee Field Office","OKOMA","Okmulgee Field Office","96","","FYJ9","BRIAR","","","","","","2010","2010/11/03 00:00:00+00","307","1744","Human","Missing data/not specified/undetermined","","2010/11/04 00:00:00+00","308","0900","21","C","36.0733","-96.593","PRIVATE","OK","","",""
"-96.022992477","35.68549369","1210024","1468198","W-615428","FED","DOI-WFMI","BIA","USOKOMA","Okmulgee Field Office","OKOMA","Okmulgee Field Office","97","","FYK0","LEE","","","","","","2010","2010/11/03 00:00:00+00","307","2103","Human","Missing data/not specified/undetermined","","2010/11/03 00:00:00+00","307","2200","1.4","B","35.6855","-96.023","PRIVATE","OK","","",""
"-96.296092376","36.071393636","1210025","1468199","W-615429","FED","DOI-WFMI","BIA","USOKOMA","Okmulgee Field Office","OKOMA","Okmulgee Field Office","98","","FYK1","MERRIMAK","","","","","","2010","2010/11/04 00:00:00+00","308","1337","Human","Missing data/not specified/undetermined","","2010/11/04 00:00:00+00","308","1430","6","B","36.0714","-96.2961","PRIVATE","OK","","",""
"-96.354692412","35.406093757","1210026","1468200","W-616445","FED","DOI-WFMI","BIA","USOKOMA","Okmulgee Field Office","OKOMA","Okmulgee Field Office","101","","FYS3","WRONG GPS","","","","","","2010","2010/11/04 00:00:00+00","308","1515","Human","Missing data/not specified/undetermined","","2010/11/04 00:00:00+00","308","1610","1","B","35.4061","-96.3547","PRIVATE","OK","","",""
"-96.182992422","35.854193668","1210027","1468201","W-615430","FED","DOI-WFMI","BIA","USOKOMA","Okmulgee Field Office","OKOMA","Okmulgee Field Office","99","","FXM5","PEEPER","2010_OK-OMA-010099_PEEPER","","","","","2010","2010/11/05 00:00:00+00","309","1010","Human","Missing data/not specified/undetermined","","2010/11/08 00:00:00+00","312","1800","464","E","35.8542","-96.183","TRIBAL","OK","","",""
"-96.557192319","35.943593672","1210028","1468202","W-616416","FED","DOI-WFMI","BIA","USOKOMA","Okmulgee Field Office","OKOMA","Okmulgee Field Office","105","","FY0E","BUG","","","","","","2010","2010/11/05 00:00:00+00","309","1910","Human","Missing data/not specified/undetermined","","2010/11/19 00:00:00+00","323","1900","37","C","35.9436","-96.5572","PRIVATE","OK","","",""
"-96.205492458","35.306893768","1210029","1468203","W-615344","FED","DOI-WFMI","BIA","USOKOMA","Okmulgee Field Office","OKOMA","Okmulgee Field Office","100","","FYP3","FOUR POINT","","","","","","2010","2010/11/06 00:00:00+00","310","1228","Human","Recreation and ceremony","","2010/11/08 00:00:00+00","312","1800","50.9","C","35.3069","-96.2055","PRIVATE","OK","","",""
"-96.25859239","36.022793642","1210030","1468204","W-615433","FED","DOI-WFMI","BIA","USOKOMA","Okmulgee Field Office","OKOMA","Okmulgee Field Office","106","","FY0F","WOODLAND","","","","","","2010","2010/11/06 00:00:00+00","310","1315","Human","Missing data/not specified/undetermined","","2010/11/07 00:00:00+00","311","1400","143","D","36.0228","-96.2586","PRIVATE","OK","","",""
"-96.494992356","35.665493718","1210031","1468205","W-615434","FED","DOI-WFMI","BIA","USOKOMA","Okmulgee Field Office","OKOMA","Okmulgee Field Office","107","","FY0G","SEC. 30","","","","","","2010","2010/11/07 00:00:00+00","311","1410","Human","Missing data/not specified/undetermined","","2010/11/08 00:00:00+00","312","1600","708","E","35.6655","-96.495","TRIBAL","OK","","",""
"-96.01799255","34.700793869","1210032","1468206","W-615432","FED","DOI-WFMI","BIA","USOKOMA","Okmulgee Field Office","OKOMA","Okmulgee Field Office","104","","FYZ2","GREEN STAND","","","","","","2010","2010/11/08 00:00:00+00","312","1022","Human","Missing data/not specified/undetermined","","2010/11/08 00:00:00+00","312","1500","42","C","34.7008","-96.018","PRIVATE","OK","","",""
"-96.601392299","36.046893656","1210033","1468207","W-615435","FED","DOI-WFMI","BIA","USOKOMA","Okmulgee Field Office","OKOMA","Okmulgee Field Office","109","","FY0H","VIDEWAY","","","","","","2010","2010/11/08 00:00:00+00","312","1500","Human","Missing data/not specified/undetermined","","2010/11/09 00:00:00+00","313","1200","102","D","36.0469","-96.6014","PRIVATE","OK","","",""
"-96.272192396","35.896393665","1210034","1468208","W-615431","FED","DOI-WFMI","BIA","USOKOMA","Okmulgee Field Office","OKOMA","Okmulgee Field Office","102","","FYZ0","241ST","","","","","","2010","2010/11/09 00:00:00+00","313","1307","Human","Missing data/not specified/undetermined","","2010/11/10 00:00:00+00","314","1100","81","C","35.8964","-96.2722","PRIVATE","OK","","",""
"-96.215792438","35.536693727","1210035","1468209","W-615862","FED","DOI-WFMI","BIA","USOKOMA","Okmulgee Field Office","OKOMA","Okmulgee Field Office","103","","FYZ3","BLACK OPS","","","","","","2010","2010/11/09 00:00:00+00","313","1500","Human","Arson/incendiarism","","2010/11/09 00:00:00+00","313","1800","7.3","B","35.5367","-96.2158","BIA","OK","","",""
"-96.051092453","35.895293654","1210036","1468210","W-615436","FED","DOI-WFMI","BIA","USOKOMA","Okmulgee Field Office","OKOMA","Okmulgee Field Office","110","","FY0L","WARM-UP","","","","","","2010","2010/11/10 00:00:00+00","314","1427","Human","Missing data/not specified/undetermined","","2010/11/10 00:00:00+00","314","1450","3.7","B","35.8953","-96.0511","PRIVATE","OK","","",""
"-96.429392341","36.08669364","1210037","1468211","W-615437","FED","DOI-WFMI","BIA","USOKOMA","Okmulgee Field Office","OKOMA","Okmulgee Field Office","111","","FY1M","CARTER","","","","","","2010","2010/11/14 00:00:00+00","318","1327","Human","Missing data/not specified/undetermined","","2010/11/14 00:00:00+00","318","1410","3","B","36.0867","-96.4294","PRIVATE","OK","","",""
"-96.137992462","35.479693733","1210038","1468212","W-616401","FED","DOI-WFMI","BIA","USOKOMA","Okmulgee Field Office","OKOMA","Okmulgee Field Office","112","","FY36","SUNRISE BALE","","","","","","2010","2010/11/17 00:00:00+00","321","1248","Human","Missing data/not specified/undetermined","","2010/11/19 00:00:00+00","323","1600","487","E","35.4797","-96.138","PRIVATE","OK","","",""
"-96.534192321","35.992793662","1210039","1468213","W-615794","FED","DOI-WFMI","BIA","USOKOMA","Okmulgee Field Office","OKOMA","Okmulgee Field Office","113","","FY4P","QUAWPAW HILL","","","","","","2010","2010/11/19 00:00:00+00","323","1300","Human","Missing data/not specified/undetermined","","2010/11/20 00:00:00+00","324","0800","1.4","B","35.9928","-96.5342","PRIVATE","OK","","",""
"-96.265792433","35.426393749","1210040","1468214","W-615795","FED","DOI-WFMI","BIA","USOKOMA","Okmulgee Field Office","OKOMA","Okmulgee Field Office","114","","FY41","RACCOON","","","","","","2010","2010/11/20 00:00:00+00","324","1045","Human","Missing data/not specified/undetermined","","2010/11/20 00:00:00+00","324","1230","4","B","35.4264","-96.2658","PRIVATE","OK","","",""
"-96.235792404","35.908593661","1210041","1468215","W-615797","FED","DOI-WFMI","BIA","USOKOMA","Okmulgee Field Office","OKOMA","Okmulgee Field Office","116","","FY5K","CROW","","","","","","2010","2010/11/21 00:00:00+00","325","1300","Human","Missing data/not specified/undetermined","","2010/11/23 00:00:00+00","327","0900","69.7","C","35.9086","-96.2358","TRIBAL","OK","","",""
"-96.610792309","35.890293684","1210042","1468216","W-616424","FED","DOI-WFMI","BIA","USOKOMA","Okmulgee Field Office","OKOMA","Okmulgee Field Office","115","","FY7C","HUNTER","","","","","","2010","2010/11/26 00:00:00+00","330","1520","Human","Missing data/not specified/undetermined","","2010/11/29 00:00:00+00","333","1800","117.9","D","35.8903","-96.6108","PRIVATE","OK","","",""
"-96.561692318","35.938893673","1210043","1468217","W-615798","FED","DOI-WFMI","BIA","USOKOMA","Okmulgee Field Office","OKOMA","Okmulgee Field Office","117","","FY7D","LITCHFIELD HILL","","","","","","2010","2010/11/27 00:00:00+00","331","1300","Human","Missing data/not specified/undetermined","","2010/11/29 00:00:00+00","333","1600","321","E","35.9389","-96.5617","TRIBAL","OK","","",""
"-96.207192442","35.508893731","1210044","1468218","W-615799","FED","DOI-WFMI","BIA","USOKOMA","Okmulgee Field Office","OKOMA","Okmulgee Field Office","118","","FY7F","BEDLAM","","","","","","2010","2010/11/27 00:00:00+00","331","1440","Human","Missing data/not specified/undetermined","","2010/11/28 00:00:00+00","332","1400","42","C","35.5089","-96.2072","PRIVATE","OK","","",""
"-96.611892296","36.051093655","1210045","1468219","W-615801","FED","DOI-WFMI","BIA","USOKOMA","Okmulgee Field Office","OKOMA","Okmulgee Field Office","119","","FY7N","D.A. PILE","","","","","","2010","2010/11/28 00:00:00+00","332","1625","Human","Missing data/not specified/undetermined","","2010/11/29 00:00:00+00","333","1000","22","C","36.0511","-96.6119","PRIVATE","OK","","",""
"-96.511092322","36.05299365","1210046","1468220","W-615802","FED","DOI-WFMI","BIA","USOKOMA","Okmulgee Field Office","OKOMA","Okmulgee Field Office","120","","FY8D","HARVEST INT.","","","","","","2010","2010/11/29 00:00:00+00","333","1340","Human","Missing data/not specified/undetermined","","2010/11/29 00:00:00+00","333","1420","1.6","B","36.053","-96.5111","TRIBAL","OK","","",""
"-95.884192544","35.255493761","1210047","1468221","W-615927","FED","DOI-WFMI","BIA","USOKOMA","Okmulgee Field Office","OKOMA","Okmulgee Field Office","121","","FY99","52 END","","","","","","2010","2010/11/30 00:00:00+00","334","1223","Human","Missing data/not specified/undetermined","","2010/12/01 00:00:00+00","335","1900","110.5","D","35.2555","-95.8842","TRIBAL","OK","","",""
"-96.040792479","35.590493708","1210048","1468222","W-615928","FED","DOI-WFMI","BIA","USOKOMA","Okmulgee Field Office","OKOMA","Okmulgee Field Office","122","","FZA0","LIGHTHORSE DC","","","","","","2010","2010/12/01 00:00:00+00","335","1610","Human","Debris and open burning","","2010/12/01 00:00:00+00","335","1900","0.8","B","35.5905","-96.0408","PRIVATE","OK","","",""
"-96.358592402","35.524693736","1210049","1468223","W-616981","FED","DOI-WFMI","BIA","USOKOMA","Okmulgee Field Office","OKOMA","Okmulgee Field Office","123","","FZA1","BUCKEYE","","","","","","2010","2010/12/02 00:00:00+00","336","1424","Human","Debris and open burning","","2010/12/03 00:00:00+00","337","1100","17","C","35.5247","-96.3586","BIA","OK","","",""
"-96.423892381","35.582193729","1210050","1468224","W-616982","FED","DOI-WFMI","BIA","USOKOMA","Okmulgee Field Office","OKOMA","Okmulgee Field Office","124","","FZM7","GORDON","","","","","","2010","2010/12/03 00:00:00+00","337","1115","Human","Debris and open burning","","2010/12/05 00:00:00+00","339","1000","261","D","35.5822","-96.4239","PRIVATE","OK","","",""
"-96.229992435","35.52109373","1210051","1468225","W-616984","FED","DOI-WFMI","BIA","USOKOMA","Okmulgee Field Office","OKOMA","Okmulgee Field Office","126","","FZM8","LAST LAST CHANCE","","","","","","2010","2010/12/03 00:00:00+00","337","1321","Human","Missing data/not specified/undetermined","","2010/12/04 00:00:00+00","338","1200","119","D","35.5211","-96.23","PRIVATE","OK","","",""
"-96.298292429","35.365793762","1210052","1468226","W-616983","FED","DOI-WFMI","BIA","USOKOMA","Okmulgee Field Office","OKOMA","Okmulgee Field Office","125","","FZF9","CAT FACE","","","","","","2010","2010/12/03 00:00:00+00","337","1430","Human","Debris and open burning","","2010/12/05 00:00:00+00","339","1600","109.3","D","35.3658","-96.2983","PRIVATE","OK","","",""
"-95.834392542","35.456693722","1210053","1468227","W-616985","FED","DOI-WFMI","BIA","USOKOMA","Okmulgee Field Office","OKOMA","Okmulgee Field Office","127","","FZD5","SNAG FOREST","","","","","","2010","2010/12/04 00:00:00+00","338","1542","Human","Missing data/not specified/undetermined","","2010/12/04 00:00:00+00","338","1920","38.8","C","35.4567","-95.8344","PRIVATE","OK","","",""
"-96.47079237","35.561393735","1210054","1468228","W-616986","FED","DOI-WFMI","BIA","USOKOMA","Okmulgee Field Office","OKOMA","Okmulgee Field Office","128","","FZV1","GOAT","","","","","","2010","2010/12/11 00:00:00+00","345","1648","Human","Missing data/not specified/undetermined","","2010/12/12 00:00:00+00","346","1330","71","C","35.5614","-96.4708","PRIVATE","OK","","",""
"-96.408292388","35.544193735","1210055","1468229","W-616987","FED","DOI-WFMI","BIA","USOKOMA","Okmulgee Field Office","OKOMA","Okmulgee Field Office","129","","FZ00","OKFUSKEE","","","","","","2010","2010/12/14 00:00:00+00","348","1306","Human","Arson/incendiarism","","2010/12/14 00:00:00+00","348","1500","22.2","C","35.5442","-96.4083","PRIVATE","OK","","",""
"-96.437192417","35.046093826","1210056","1468230","W-616988","FED","DOI-WFMI","BIA","USOKOMA","Okmulgee Field Office","OKOMA","Okmulgee Field Office","130","","FZ01","SPAULDING","","","","","","2010","2010/12/15 00:00:00+00","349","1456","Human","Missing data/not specified/undetermined","","2010/12/15 00:00:00+00","349","1800","10.5","C","35.0461","-96.4372","PRIVATE","OK","","",""
"-96.075792478","35.47829373","1210057","1468231","W-616989","FED","DOI-WFMI","BIA","USOKOMA","Okmulgee Field Office","OKOMA","Okmulgee Field Office","131","","FZ1T","WILSON","","","","","","2010","2010/12/16 00:00:00+00","350","1300","Human","Missing data/not specified/undetermined","","2010/12/16 00:00:00+00","350","1430","20","C","35.4783","-96.0758","PRIVATE","OK","","",""
"-96.157192442","35.676693699","1210058","1468232","W-617002","FED","DOI-WFMI","BIA","USOKOMA","Okmulgee Field Office","OKOMA","Okmulgee Field Office","132","","FZ29","FISHER'S PLACE","","","","","","2010","2010/12/20 00:00:00+00","354","1603","Human","Arson/incendiarism","","2010/12/21 00:00:00+00","355","1300","69.7","C","35.6767","-96.1572","PRIVATE","OK","","",""
"-96.17969236","36.646693528","1210059","1468233","W-598162","FED","DOI-WFMI","BIA","USOKOSA","Osage Agency","OKOSA","Osage Agency","1","","E9BR","GRASSROOTS","","","","","","2010","2010/01/19 00:00:00+00","19","2153","Human","Power generation/transmission/distribution","","2010/01/20 00:00:00+00","20","1345","2.5","B","36.6467","-96.1797","PRIVATE","OK","","",""
"-96.348592312","36.696093528","1210060","1468234","W-598163","FED","DOI-WFMI","BIA","USOKOSA","Osage Agency","OKOSA","Osage Agency","2","","E9CA","NOSEY CALF","","","","","","2010","2010/01/24 00:00:00+00","24","1430","Human","Debris and open burning","","2010/01/24 00:00:00+00","24","1700","13.2","C","36.6961","-96.3486","PRIVATE","OK","","",""
"-96.401892332","36.287493603","1210061","1468235","W-598164","FED","DOI-WFMI","BIA","USOKOSA","Osage Agency","OKOSA","Osage Agency","3","","E9CP","BIG EAGLE","","","","","","2010","2010/01/26 00:00:00+00","26","1423","Human","Arson/incendiarism","","2010/01/26 00:00:00+00","26","1638","3.7","B","36.2875","-96.4019","PRIVATE","OK","","",""
"-96.32859234","36.422193575","1210062","1468236","W-598170","FED","DOI-WFMI","BIA","USOKOSA","Osage Agency","OKOSA","Osage Agency","4","","E9C3","JAKE","","","","","","2010","2010/01/26 00:00:00+00","26","1815","Human","Arson/incendiarism","","2010/01/26 00:00:00+00","26","1915","0.3","B","36.4222","-96.3286","BIA","OK","","",""
"-96.688892234","36.579393567","1210063","1468237","W-598172","FED","DOI-WFMI","BIA","USOKOSA","Osage Agency","OKOSA","Osage Agency","5","","E9DF","MASHBURN","","","","","","2010","2010/01/28 00:00:00+00","28","1427","Human","Debris and open burning","","2010/01/28 00:00:00+00","28","1520","0.2","A","36.5794","-96.6889","PRIVATE","OK","","",""
"-96.723292216","36.696693548","1210064","1468238","W-598773","FED","DOI-WFMI","BIA","USOKOSA","Osage Agency","OKOSA","Osage Agency","6","","E9EZ","CHICKEN COUPE","","","","","","2010","2010/02/09 00:00:00+00","40","1330","Human","Other causes","","2010/02/09 00:00:00+00","40","1400","0.2","A","36.6967","-96.7233","PRIVATE","OK","","",""
"-96.427792318","36.378893588","1210065","1468239","W-598776","FED","DOI-WFMI","BIA","USOKOSA","Osage Agency","OKOSA","Osage Agency","7","","E9FB","STANDING BEAR","","","","","","2010","2010/02/11 00:00:00+00","42","1500","Human","Debris and open burning","","2010/02/11 00:00:00+00","42","1530","0.1","A","36.3789","-96.4278","PRIVATE","OK","","",""
"-96.22939237","36.361893581","1210066","1468240","W-598780","FED","DOI-WFMI","BIA","USOKOSA","Osage Agency","OKOSA","Osage Agency","9","","E9FL","PAC FIRE","","","","","","2010","2010/02/14 00:00:00+00","45","1305","Human","Power generation/transmission/distribution","","2010/02/14 00:00:00+00","45","1430","1","B","36.3619","-96.2294","PRIVATE","OK","","",""
"-96.098292359","36.919993476","1210067","1468241","W-598778","FED","DOI-WFMI","BIA","USOKOSA","Osage Agency","OKOSA","Osage Agency","8","","E9FK","WHITE CAP","","","","","","2010","2010/02/14 00:00:00+00","45","1700","Human","Arson/incendiarism","","2010/02/14 00:00:00+00","45","1945","56","C","36.92","-96.0983","STATE","OK","","",""
"-96.329192319","36.67919353","1210068","1468242","W-598783","FED","DOI-WFMI","BIA","USOKOSA","Osage Agency","OKOSA","Osage Agency","10","","E9FM","LYNN","","","","","","2010","2010/02/15 00:00:00+00","46","1444","Human","Debris and open burning","","2010/02/15 00:00:00+00","46","1525","0.1","A","36.6792","-96.3292","PRIVATE","OK","","",""
"-96.40139232","36.433893577","1210069","1468243","W-598895","FED","DOI-WFMI","BIA","USOKOSA","Osage Agency","OKOSA","Osage Agency","12","","E9F4","STALLARD","","","","","","2010","2010/02/17 00:00:00+00","48","1630","Human","Debris and open burning","","2010/02/18 00:00:00+00","49","1610","2.3","B","36.4339","-96.4014","BIA","OK","","",""
"-96.720492207","36.811093528","1210070","1468244","W-598893","FED","DOI-WFMI","BIA","USOKOSA","Osage Agency","OKOSA","Osage Agency","11","","E9F5","YOUNG","","","","","","2010","2010/02/17 00:00:00+00","48","1730","Human","Arson/incendiarism","","2010/02/17 00:00:00+00","48","1835","3.7","B","36.8111","-96.7205","PRIVATE","OK","","",""
"-96.439392312","36.419693582","1210071","1468245","W-598898","FED","DOI-WFMI","BIA","USOKOSA","Osage Agency","OKOSA","Osage Agency","13","","E9GB","OTIS","","","","","","2010","2010/02/18 00:00:00+00","49","1430","Human","Recreation and ceremony","","2010/02/19 00:00:00+00","50","1420","2.2","B","36.4197","-96.4394","BIA","OK","","",""
"-96.40669232","36.41689358","1210072","1468246","W-598901","FED","DOI-WFMI","BIA","USOKOSA","Osage Agency","OKOSA","Osage Agency","14","","E9GC","WALKING DRUNK","","","","","","2010","2010/02/18 00:00:00+00","49","1543","Human","Arson/incendiarism","","2010/02/18 00:00:00+00","49","1615","1","B","36.4169","-96.4067","PRIVATE","OK","","",""
"-96.439692312","36.418593582","1210073","1468247","W-599133","FED","DOI-WFMI","BIA","USOKOSA","Osage Agency","OKOSA","Osage Agency","15","","E9HN","SHEBAR","","","","","","2010","2010/02/23 00:00:00+00","54","1545","Human","Debris and open burning","","2010/02/25 00:00:00+00","56","1630","1","B","36.4186","-96.4397","PRIVATE","OK","","",""
"-96.183292366","36.559193543","1210074","1468248","W-599455","FED","DOI-WFMI","BIA","USOKOSA","Osage Agency","OKOSA","Osage Agency","16","","E9HY","CHAINSAW","","","","","","2010","2010/02/25 00:00:00+00","56","1511","Human","Debris and open burning","","2010/02/25 00:00:00+00","56","1603","9.4","B","36.5592","-96.1833","PRIVATE","OK","","",""
"-96.111392396","36.424693563","1210075","1468249","W-599456","FED","DOI-WFMI","BIA","USOKOSA","Osage Agency","OKOSA","Osage Agency","17","","E9JJ","LOMA VISTA","","","","","","2010","2010/02/27 00:00:00+00","58","1700","Human","Debris and open burning","","2010/02/27 00:00:00+00","58","1836","2.1","B","36.4247","-96.1114","PRIVATE","OK","","",""
"-96.142192369","36.657793524","1210076","1468250","W-599572","FED","DOI-WFMI","BIA","USOKOSA","Osage Agency","OKOSA","Osage Agency","18","","E9JM","5 POINT","2010_OK-OSA-100020_OSAGE-MIAMI COMPLEX","2010_OK-OSA-100020_OSAGE-MIAMI COMPLEX","","","OSAGE-MIAMI COMPLEX","2010","2010/02/28 00:00:00+00","59","1345","Human","Debris and open burning","","2010/03/02 00:00:00+00","61","1200","25.5","C","36.6578","-96.1422","PRIVATE","OK","","",""
"-96.002992395","36.788593494","1210077","1468251","W-599575","FED","DOI-WFMI","BIA","USOKOSA","Osage Agency","OKOSA","Osage Agency","22","","E9KK","EARLE","2010_OK-OSA-100020_OSAGE-MIAMI COMPLEX","2010_OK-OSA-100020_OSAGE-MIAMI COMPLEX","","","OSAGE-MIAMI COMPLEX","2010","2010/02/28 00:00:00+00","59","1530","Human","Debris and open burning","","2010/03/02 00:00:00+00","61","1200","88.3","C","36.7886","-96.003","PRIVATE","OK","","",""
"-96.304992331","36.61359354","1210078","1468252","W-599573","FED","DOI-WFMI","BIA","USOKOSA","Osage Agency","OKOSA","Osage Agency","19","","E9KB","BRONZE HORSE","2010_OK-OSA-100020_OSAGE-MIAMI COMPLEX","2010_OK-OSA-100020_OSAGE-MIAMI COMPLEX","","","OSAGE-MIAMI COMPLEX","2010","2010/03/01 00:00:00+00","60","1315","Human","Equipment and vehicle use","","2010/03/01 00:00:00+00","60","1345","0.1","A","36.6136","-96.305","PRIVATE","OK","","",""
"-96.128292387","36.485793554","1210079","1468253","W-599574","FED","DOI-WFMI","BIA","USOKOSA","Osage Agency","OKOSA","Osage Agency","21","","E9KJ","BULL CREEK","2010_OK-OSA-100020_OSAGE-MIAMI COMPLEX","2010_OK-OSA-100020_OSAGE-MIAMI COMPLEX","","","OSAGE-MIAMI COMPLEX","2010","2010/03/02 00:00:00+00","61","1145","Human","Arson/incendiarism","","2010/03/02 00:00:00+00","61","1200","2.2","B","36.4858","-96.1283","PRIVATE","OK","","",""
"-96.03299239","36.752193502","1210080","1468254","W-599578","FED","DOI-WFMI","BIA","USOKOSA","Osage Agency","OKOSA","Osage Agency","25","","E9LL","HUFF","2010_OK-OSA-100020_OSAGE-MIAMI COMPLEX","2010_OK-OSA-100020_OSAGE-MIAMI COMPLEX","","","OSAGE-MIAMI COMPLEX","2010","2010/03/02 00:00:00+00","61","1453","Human","Debris and open burning","","2010/03/03 00:00:00+00","62","1200","2","B","36.7522","-96.033","PRIVATE","OK","","",""
"-96.097492389","36.55109354","1210081","1468255","W-599576","FED","DOI-WFMI","BIA","USOKOSA","Osage Agency","OKOSA","Osage Agency","23","","E9KQ","TULIP","","","","","","2010","2010/03/02 00:00:00+00","61","1532","Human","Debris and open burning","","2010/03/02 00:00:00+00","61","1630","1","B","36.5511","-96.0975","PRIVATE","OK","","",""
"-96.134192388","36.447493561","1210082","1468256","W-599577","FED","DOI-WFMI","BIA","USOKOSA","Osage Agency","OKOSA","Osage Agency","24","","E9K9","OLDSMOBILE","2010_OK-OSA-100020_OSAGE-MIAMI COMPLEX","2010_OK-OSA-100020_OSAGE-MIAMI COMPLEX","","","OSAGE-MIAMI COMPLEX","2010","2010/03/02 00:00:00+00","61","1900","Human","Debris and open burning","","2010/03/03 00:00:00+00","62","1200","52","C","36.4475","-96.1342","PRIVATE","OK","","",""
"-96.213892348","36.689393522","1210083","1468257","W-599579","FED","DOI-WFMI","BIA","USOKOSA","Osage Agency","OKOSA","Osage Agency","26","","E9LM","JOHN DEERE","2010_OK-OSA-100020_OSAGE-MIAMI COMPLEX","2010_OK-OSA-100020_OSAGE-MIAMI COMPLEX","","","OSAGE-MIAMI COMPLEX","2010","2010/03/03 00:00:00+00","62","1300","Human","Debris and open burning","","2010/03/04 00:00:00+00","63","1200","20.5","C","36.6894","-96.2139","PRIVATE","OK","","",""
"-96.826392199","36.571393576","1210084","1468258","W-599580","FED","DOI-WFMI","BIA","USOKOSA","Osage Agency","OKOSA","Osage Agency","27","","E9LN","STEPPEN","2010_OK-OSA-100020_OSAGE-MIAMI COMPLEX","2010_OK-OSA-100020_OSAGE-MIAMI COMPLEX","","","OSAGE-MIAMI COMPLEX","2010","2010/03/03 00:00:00+00","62","1405","Human","Debris and open burning","","2010/03/04 00:00:00+00","63","1200","80","C","36.5714","-96.8264","PRIVATE","OK","","",""
"-96.340492346","36.304393597","1210085","1468259","W-599591","FED","DOI-WFMI","BIA","USOKOSA","Osage Agency","OKOSA","Osage Agency","29","","E9MD","KEMOHAH","2010_OK-OSA-100020_OSAGE-MIAMI COMPLEX","2010_OK-OSA-100020_OSAGE-MIAMI COMPLEX","","","OSAGE-MIAMI COMPLEX","2010","2010/03/03 00:00:00+00","62","1608","Human","Arson/incendiarism","","2010/03/03 00:00:00+00","62","1630","0.1","A","36.3044","-96.3405","BIA","OK","","",""
"-96.26419237","36.250793602","1210086","1468260","W-599590","FED","DOI-WFMI","BIA","USOKOSA","Osage Agency","OKOSA","Osage Agency","28","","E9L4","ROOKIE","2010_OK-OSA-100020_OSAGE-MIAMI COMPLEX","2010_OK-OSA-100020_OSAGE-MIAMI COMPLEX","","","OSAGE-MIAMI COMPLEX","2010","2010/03/04 00:00:00+00","63","1337","Human","Debris and open burning","","2010/03/04 00:00:00+00","63","1500","1.6","B","36.2508","-96.2642","PRIVATE","OK","","",""
"-96.40799232","36.41969358","1210087","1468261","W-599592","FED","DOI-WFMI","BIA","USOKOSA","Osage Agency","OKOSA","Osage Agency","30","","E9ME","LOOKOUT","2010_OK-OSA-100020_OSAGE-MIAMI COMPLEX","2010_OK-OSA-100020_OSAGE-MIAMI COMPLEX","OK3640709642320100304","LOOKOUT","OSAGE-MIAMI COMPLEX","2010","2010/03/04 00:00:00+00","63","1507","Human","Debris and open burning","","2010/03/10 00:00:00+00","69","1200","1475.2","F","36.4197","-96.408","BIA","OK","","",""
"-96.451692299","36.538893561","1210088","1468262","W-599593","FED","DOI-WFMI","BIA","USOKOSA","Osage Agency","OKOSA","Osage Agency","31","","E9M5","BJ","2010_OK-OSA-100020_OSAGE-MIAMI COMPLEX","2010_OK-OSA-100020_OSAGE-MIAMI COMPLEX","","","OSAGE-MIAMI COMPLEX","2010","2010/03/05 00:00:00+00","64","0945","Human","Arson/incendiarism","","2010/03/06 00:00:00+00","65","1200","19","C","36.5389","-96.4517","PRIVATE","OK","","",""
"-96.652992231","36.730493539","1210089","1468263","W-599594","FED","DOI-WFMI","BIA","USOKOSA","Osage Agency","OKOSA","Osage Agency","32","","E9M6","LOVE","2010_OK-OSA-100020_OSAGE-MIAMI COMPLEX","2010_OK-OSA-100020_OSAGE-MIAMI COMPLEX","","","OSAGE-MIAMI COMPLEX","2010","2010/03/05 00:00:00+00","64","1214","Human","Arson/incendiarism","","2010/03/06 00:00:00+00","65","1200","59","C","36.7305","-96.653","PRIVATE","OK","","",""
"-96.212792332","36.885493488","1210090","1468264","W-599595","FED","DOI-WFMI","BIA","USOKOSA","Osage Agency","OKOSA","Osage Agency","33","","E9NF","CLEARWATER","2010_OK-OSA-100020_OSAGE-MIAMI COMPLEX","2010_OK-OSA-100020_OSAGE-MIAMI COMPLEX","","","OSAGE-MIAMI COMPLEX","2010","2010/03/05 00:00:00+00","64","1500","Human","Power generation/transmission/distribution","","2010/03/05 00:00:00+00","64","1600","1.2","B","36.8855","-96.2128","PRIVATE","OK","","",""
"-96.286892363","36.2696936","1210091","1468265","W-599599","FED","DOI-WFMI","BIA","USOKOSA","Osage Agency","OKOSA","Osage Agency","37","","E9QM","PITTS","2010_OK-OSA-100020_OSAGE-MIAMI COMPLEX","2010_OK-OSA-100020_OSAGE-MIAMI COMPLEX","","","OSAGE-MIAMI COMPLEX","2010","2010/03/06 00:00:00+00","65","0500","Human","Arson/incendiarism","","2010/03/06 00:00:00+00","65","1200","4.1","B","36.2697","-96.2869","BIA","OK","","",""
"-96.191692342","36.825493497","1210092","1468266","W-599598","FED","DOI-WFMI","BIA","USOKOSA","Osage Agency","OKOSA","Osage Agency","36","","E9NX","MASSEY","2010_OK-OSA-100020_OSAGE-MIAMI COMPLEX","2010_OK-OSA-100020_OSAGE-MIAMI COMPLEX","","","OSAGE-MIAMI COMPLEX","2010","2010/03/06 00:00:00+00","65","1200","Human","Arson/incendiarism","","2010/03/07 00:00:00+00","66","1200","13","C","36.8255","-96.1917","PRIVATE","OK","","",""
"-96.353292326","36.510293561","1210093","1468267","W-599596","FED","DOI-WFMI","BIA","USOKOSA","Osage Agency","OKOSA","Osage Agency","34","","E9NS","MUD BOG","2010_OK-OSA-100020_OSAGE-MIAMI COMPLEX","2010_OK-OSA-100020_OSAGE-MIAMI COMPLEX","","","OSAGE-MIAMI COMPLEX","2010","2010/03/06 00:00:00+00","65","1230","Human","Debris and open burning","","2010/03/06 00:00:00+00","65","1400","14","C","36.5103","-96.3533","PRIVATE","OK","","",""
"-96.156892376","36.521093549","1210094","1468268","W-599597","FED","DOI-WFMI","BIA","USOKOSA","Osage Agency","OKOSA","Osage Agency","35","","E9NT","CHICKEN","2010_OK-OSA-100020_OSAGE-MIAMI COMPLEX","2010_OK-OSA-100020_OSAGE-MIAMI COMPLEX","","","OSAGE-MIAMI COMPLEX","2010","2010/03/06 00:00:00+00","65","1719","Human","Arson/incendiarism","","2010/03/06 00:00:00+00","65","1900","12.2","C","36.5211","-96.1569","PRIVATE","OK","","",""
"-96.349392312","36.694393529","1210095","1468269","W-599600","FED","DOI-WFMI","BIA","USOKOSA","Osage Agency","OKOSA","Osage Agency","38","","E9QN","T-BONE","2010_OK-OSA-100020_OSAGE-MIAMI COMPLEX","2010_OK-OSA-100020_OSAGE-MIAMI COMPLEX","","","OSAGE-MIAMI COMPLEX","2010","2010/03/06 00:00:00+00","65","2256","Human","Arson/incendiarism","","2010/03/07 00:00:00+00","66","1200","0.1","A","36.6944","-96.3494","PRIVATE","OK","","",""
"-96.13609239","36.415493566","1210096","1468270","W-599601","FED","DOI-WFMI","BIA","USOKOSA","Osage Agency","OKOSA","Osage Agency","39","","E9QP","IRONIC 2","2010_OK-OSA-100020_OSAGE-MIAMI COMPLEX","2010_OK-OSA-100020_OSAGE-MIAMI COMPLEX","","","OSAGE-MIAMI COMPLEX","2010","2010/03/06 00:00:00+00","65","2353","Human","Arson/incendiarism","","2010/03/07 00:00:00+00","66","1200","0.5","B","36.4155","-96.1361","PRIVATE","OK","","",""
"-96.16689238","36.438593564","1210097","1468271","W-599602","FED","DOI-WFMI","BIA","USOKOSA","Osage Agency","OKOSA","Osage Agency","40","","E9QQ","WEST","2010_OK-OSA-100020_OSAGE-MIAMI COMPLEX","2010_OK-OSA-100020_OSAGE-MIAMI COMPLEX","","","OSAGE-MIAMI COMPLEX","2010","2010/03/07 00:00:00+00","66","0015","Human","Arson/incendiarism","","2010/03/07 00:00:00+00","66","1200","0.1","A","36.4386","-96.1669","BIA","OK","","",""
"-96.186892373","36.46529356","1210098","1468272","W-599603","FED","DOI-WFMI","BIA","USOKOSA","Osage Agency","OKOSA","Osage Agency","41","","E9QR","QUARTER MOON","2010_OK-OSA-100020_OSAGE-MIAMI COMPLEX","2010_OK-OSA-100020_OSAGE-MIAMI COMPLEX","","","OSAGE-MIAMI COMPLEX","2010","2010/03/07 00:00:00+00","66","0015","Human","Arson/incendiarism","","2010/03/07 00:00:00+00","66","1200","1.6","B","36.4653","-96.1869","PRIVATE","OK","","",""
"-96.045792394","36.664193518","1210099","1468273","W-599604","FED","DOI-WFMI","BIA","USOKOSA","Osage Agency","OKOSA","Osage Agency","42","","E9QS","PC LOOKOUT","2010_OK-OSA-100020_OSAGE-MIAMI COMPLEX","2010_OK-OSA-100020_OSAGE-MIAMI COMPLEX","","","OSAGE-MIAMI COMPLEX","2010","2010/03/07 00:00:00+00","66","1330","Human","Power generation/transmission/distribution","","2010/03/07 00:00:00+00","66","1800","7.5","B","36.6642","-96.0458","PRIVATE","OK","","",""
"-96.537792293","36.337793601","1210100","1468274","W-599609","FED","DOI-WFMI","BIA","USOKOSA","Osage Agency","OKOSA","Osage Agency","47","","E9SV","HOG SHOOTER","","","","","","2010","2010/03/07 00:00:00+00","66","1434","Human","Missing data/not specified/undetermined","","2010/03/07 00:00:00+00","66","1600","2.4","B","36.3378","-96.5378","PRIVATE","OK","","",""
"-96.560492287","36.332193603","1210101","1468275","W-599610","FED","DOI-WFMI","BIA","USOKOSA","Osage Agency","OKOSA","Osage Agency","48","","E9SW","BOTTOM OF THE POOL","","","","","","2010","2010/03/07 00:00:00+00","66","1434","Human","Arson/incendiarism","","2010/03/09 00:00:00+00","68","1200","46.4","C","36.3322","-96.5605","BIA","OK","","",""
"-96.547992291","36.321693604","1210102","1468276","W-599611","FED","DOI-WFMI","BIA","USOKOSA","Osage Agency","OKOSA","Osage Agency","49","","E9SX","BOSTON POOL","","","","","","2010","2010/03/07 00:00:00+00","66","1434","Human","Arson/incendiarism","","2010/03/09 00:00:00+00","68","1200","891","E","36.3217","-96.548","BIA","OK","","",""
"-96.491092277","36.680493539","1210103","1468277","W-599605","FED","DOI-WFMI","BIA","USOKOSA","Osage Agency","OKOSA","Osage Agency","43","","E9QT","FARM HOUSE","2010_OK-OSA-100020_OSAGE-MIAMI COMPLEX","2010_OK-OSA-100020_OSAGE-MIAMI COMPLEX","","","OSAGE-MIAMI COMPLEX","2010","2010/03/07 00:00:00+00","66","1612","Human","Equipment and vehicle use","","2010/03/07 00:00:00+00","66","1900","47.3","C","36.6805","-96.4911","PRIVATE","OK","","",""
"-96.473592279","36.709193533","1210104","1468278","W-599606","FED","DOI-WFMI","BIA","USOKOSA","Osage Agency","OKOSA","Osage Agency","44","","E9QU","MILES","2010_OK-OSA-100020_OSAGE-MIAMI COMPLEX","2010_OK-OSA-100020_OSAGE-MIAMI COMPLEX","","","OSAGE-MIAMI COMPLEX","2010","2010/03/08 00:00:00+00","67","1150","Human","Debris and open burning","","2010/03/08 00:00:00+00","67","1300","0.1","A","36.7092","-96.4736","BIA","OK","","",""
"-96.278592358","36.363893583","1210105","1468279","W-599607","FED","DOI-WFMI","BIA","USOKOSA","Osage Agency","OKOSA","Osage Agency","45","","E9R7","HANEY BELL","2010_OK-OSA-100020_OSAGE-MIAMI COMPLEX","2010_OK-OSA-100020_OSAGE-MIAMI COMPLEX","","","OSAGE-MIAMI COMPLEX","2010","2010/03/09 00:00:00+00","68","1200","Human","Arson/incendiarism","","2010/03/11 00:00:00+00","70","1200","100","D","36.3639","-96.2786","BIA","OK","","",""
"-96.207492377","36.349693582","1210106","1468280","W-599608","FED","DOI-WFMI","BIA","USOKOSA","Osage Agency","OKOSA","Osage Agency","46","","E9R8","LYN","2010_OK-OSA-100020_OSAGE-MIAMI COMPLEX","2010_OK-OSA-100020_OSAGE-MIAMI COMPLEX","","","OSAGE-MIAMI COMPLEX","2010","2010/03/09 00:00:00+00","68","1714","Human","Debris and open burning","","2010/03/09 00:00:00+00","68","1900","0.7","B","36.3497","-96.2075","PRIVATE","OK","","",""
"-96.196392389","36.232793602","1210107","1468281","W-599612","FED","DOI-WFMI","BIA","USOKOSA","Osage Agency","OKOSA","Osage Agency","50","","E9SY","GROUCHY","","","","","","2010","2010/03/10 00:00:00+00","69","1637","Human","Debris and open burning","","2010/03/10 00:00:00+00","69","1700","0.1","A","36.2328","-96.1964","PRIVATE","OK","","",""
"-96.407992322","36.390493585","1210108","1468282","W-599613","FED","DOI-WFMI","BIA","USOKOSA","Osage Agency","OKOSA","Osage Agency","51","","E9SZ","WILSON","","","","","","2010","2010/03/11 00:00:00+00","70","1120","Human","Debris and open burning","","2010/03/11 00:00:00+00","70","1600","26.3","C","36.3905","-96.408","BIA","OK","","",""
"-96.189192364","36.576093541","1210109","1468283","W-599614","FED","DOI-WFMI","BIA","USOKOSA","Osage Agency","OKOSA","Osage Agency","52","","E9S0","RED EAGLE","","","","","","2010","2010/03/11 00:00:00+00","70","1522","Human","Power generation/transmission/distribution","","2010/03/11 00:00:00+00","70","1900","18.6","C","36.5761","-96.1892","BIA","OK","","",""
"-96.13579239","36.417993566","1210110","1468284","W-599616","FED","DOI-WFMI","BIA","USOKOSA","Osage Agency","OKOSA","Osage Agency","53","","E9TA","SAGA","","","","","","2010","2010/03/11 00:00:00+00","70","2210","Human","Arson/incendiarism","","2010/03/11 00:00:00+00","70","2335","18.7","C","36.418","-96.1358","PRIVATE","OK","","",""
"-96.398592318","36.468893571","1210111","1468285","W-599615","FED","DOI-WFMI","BIA","USOKOSA","Osage Agency","OKOSA","Osage Agency","54","","E9TB","ANTWINE","","","","","","2010","2010/03/12 00:00:00+00","71","1600","Human","Power generation/transmission/distribution","","2010/03/12 00:00:00+00","71","1800","0.1","A","36.4689","-96.3986","BIA","OK","","",""
"-96.412192327","36.314993598","1210112","1468286","W-599617","FED","DOI-WFMI","BIA","USOKOSA","Osage Agency","OKOSA","Osage Agency","55","","E9TT","DICKSON","","","","","","2010","2010/03/13 00:00:00+00","72","1511","Human","Debris and open burning","","2010/03/14 00:00:00+00","73","1800","18.3","C","36.315","-96.4122","PRIVATE","OK","","",""
"-96.707492235","36.50919358","1210113","1468287","W-599618","FED","DOI-WFMI","BIA","USOKOSA","Osage Agency","OKOSA","Osage Agency","56","","E9TU","BOBBY LEE","","","","","","2010","2010/03/13 00:00:00+00","72","1600","Human","Debris and open burning","","2010/03/13 00:00:00+00","72","1700","4","B","36.5092","-96.7075","PRIVATE","OK","","",""
"-96.325792327","36.592793545","1210114","1468288","W-599619","FED","DOI-WFMI","BIA","USOKOSA","Osage Agency","OKOSA","Osage Agency","57","","E9T5","CAT","","","","","","2010","2010/03/14 00:00:00+00","73","1735","Human","Debris and open burning","","2010/03/14 00:00:00+00","73","1750","0.3","B","36.5928","-96.3258","PRIVATE","OK","","",""
"-96.104392385","36.586093535","1210115","1468289","W-599661","FED","DOI-WFMI","BIA","USOKOSA","Osage Agency","OKOSA","Osage Agency","58","","E9U1","TEMPLEMEYER","","","","","","2010","2010/03/15 00:00:00+00","74","0015","Human","Missing data/not specified/undetermined","","2010/03/15 00:00:00+00","74","0200","6.2","B","36.5861","-96.1044","PRIVATE","OK","","",""
"-96.761892207","36.679993553","1210116","1468290","W-599662","FED","DOI-WFMI","BIA","USOKOSA","Osage Agency","OKOSA","Osage Agency","59","","E9U2","ODETTE","","","","","","2010","2010/03/15 00:00:00+00","74","1654","Human","Missing data/not specified/undetermined","","2010/03/15 00:00:00+00","74","1800","0.5","B","36.68","-96.7619","PRIVATE","OK","","",""
"-96.26639236","36.37499358","1210117","1468291","W-599668","FED","DOI-WFMI","BIA","USOKOSA","Osage Agency","OKOSA","Osage Agency","60","","E9U3","SCOTT","","","","","","2010","2010/03/15 00:00:00+00","74","1730","Human","Debris and open burning","","2010/03/15 00:00:00+00","74","2000","13","C","36.375","-96.2664","PRIVATE","OK","","",""
"-96.151392372","36.594193536","1210118","1468292","W-599664","FED","DOI-WFMI","BIA","USOKOSA","Osage Agency","OKOSA","Osage Agency","62","","E9VK","FAROL","","","","","","2010","2010/03/16 00:00:00+00","75","1000","Human","Missing data/not specified/undetermined","","2010/03/16 00:00:00+00","75","1030","0.1","A","36.5942","-96.1514","PRIVATE","OK","","",""
"-96.454692298","36.532993562","1210119","1468293","W-599663","FED","DOI-WFMI","BIA","USOKOSA","Osage Agency","OKOSA","Osage Agency","61","","E9U4","SOUTH KEYS","","","","","","2010","2010/03/16 00:00:00+00","75","1036","Human","Missing data/not specified/undetermined","","2010/03/16 00:00:00+00","75","1300","24.3","C","36.533","-96.4547","PRIVATE","OK","","",""
"-96.110292397","36.411693566","1210120","1468294","W-599665","FED","DOI-WFMI","BIA","USOKOSA","Osage Agency","OKOSA","Osage Agency","63","","E9VL","POLARIS","","","","","","2010","2010/03/16 00:00:00+00","75","1530","Human","Debris and open burning","","2010/03/16 00:00:00+00","75","1630","11.5","C","36.4117","-96.1103","PRIVATE","OK","","",""
"-96.137792388","36.440493562","1210121","1468295","W-599666","FED","DOI-WFMI","BIA","USOKOSA","Osage Agency","OKOSA","Osage Agency","64","","E9WG","SPURGEON","","","","","","2010","2010/03/17 00:00:00+00","76","1815","Human","Missing data/not specified/undetermined","","2010/03/17 00:00:00+00","76","2000","15.5","C","36.4405","-96.1378","PRIVATE","OK","","",""
"-96.277992335","36.645793533","1210122","1468296","W-599667","FED","DOI-WFMI","BIA","USOKOSA","Osage Agency","OKOSA","Osage Agency","65","","E9WM","BUD LIGHT","","","","","","2010","2010/03/17 00:00:00+00","76","1830","Human","Missing data/not specified/undetermined","","2010/03/17 00:00:00+00","76","1845","0.1","A","36.6458","-96.278","PRIVATE","OK","","",""
"-96.233292333","36.805293503","1210123","1468297","W-599670","FED","DOI-WFMI","BIA","USOKOSA","Osage Agency","OKOSA","Osage Agency","66","","E9WN","MAJORS","","","","","","2010","2010/03/18 00:00:00+00","77","1048","Human","Debris and open burning","","2010/03/18 00:00:00+00","77","1200","2.9","B","36.8053","-96.2333","PRIVATE","OK","","",""
"-96.340792317","36.669693532","1210124","1468298","W-599671","FED","DOI-WFMI","BIA","USOKOSA","Osage Agency","OKOSA","Osage Agency","67","","E9W2","ELDERLY","","","","","","2010","2010/03/18 00:00:00+00","77","1530","Human","Debris and open burning","","2010/03/18 00:00:00+00","77","1615","0.8","B","36.6697","-96.3408","BIA","OK","","",""
"-96.246692362","36.417193572","1210125","1468299","W-599990","FED","DOI-WFMI","BIA","USOKOSA","Osage Agency","OKOSA","Osage Agency","71","","E9YC","DOG HOTEL","2010_OK-OSA-100020_OSAGE-MIAMI COMPLEX","2010_OK-OSA-100020_OSAGE-MIAMI COMPLEX","","","OSAGE-MIAMI COMPLEX","2010","2010/03/18 00:00:00+00","77","1552","Human","Debris and open burning","","2010/03/20 00:00:00+00","79","1200","123.7","D","36.4172","-96.2467","PRIVATE","OK","","",""
"-96.311092348","36.374693583","1210126","1468300","W-599995","FED","DOI-WFMI","BIA","USOKOSA","Osage Agency","OKOSA","Osage Agency","73","","E90R","WILSON","","","","","","2010","2010/03/18 00:00:00+00","77","1600","Human","Debris and open burning","","2010/03/20 00:00:00+00","79","1200","250","D","36.3747","-96.3111","BIA","OK","","",""
"-96.398592317","36.477493569","1210127","1468301","W-599998","FED","DOI-WFMI","BIA","USOKOSA","Osage Agency","OKOSA","Osage Agency","74","","E90S","ROAN","","","","","","2010","2010/03/18 00:00:00+00","77","1847","Human","Missing data/not specified/undetermined","","2010/03/18 00:00:00+00","77","2100","1.3","B","36.4775","-96.3986","BIA","OK","","",""
"-96.335792317","36.687193529","1210128","1468302","W-599942","FED","DOI-WFMI","BIA","USOKOSA","Osage Agency","OKOSA","Osage Agency","68","","E9X6","PAWHUSKA","2010_OK-OSA-100020_OSAGE-MIAMI COMPLEX","2010_OK-OSA-100020_OSAGE-MIAMI COMPLEX","","","OSAGE-MIAMI COMPLEX","2010","2010/03/18 00:00:00+00","77","1900","Human","Debris and open burning","","2010/03/19 00:00:00+00","78","1200","42","C","36.6872","-96.3358","PRIVATE","OK","","",""
"-96.306392349","36.380793581","1210129","1468303","W-599943","FED","DOI-WFMI","BIA","USOKOSA","Osage Agency","OKOSA","Osage Agency","69","","E9X7","BONE","2010_OK-OSA-100020_OSAGE-MIAMI COMPLEX","2010_OK-OSA-100020_OSAGE-MIAMI COMPLEX","","","OSAGE-MIAMI COMPLEX","2010","2010/03/18 00:00:00+00","77","2000","Human","Debris and open burning","","2010/03/18 00:00:00+00","77","2100","0.5","B","36.3808","-96.3064","PRIVATE","OK","","",""
"-96.312992347","36.383293581","1210130","1468304","W-599944","FED","DOI-WFMI","BIA","USOKOSA","Osage Agency","OKOSA","Osage Agency","70","","E9X8","BONE 2","2010_OK-OSA-100020_OSAGE-MIAMI COMPLEX","2010_OK-OSA-100020_OSAGE-MIAMI COMPLEX","","","OSAGE-MIAMI COMPLEX","2010","2010/03/18 00:00:00+00","77","2000","Human","Arson/incendiarism","","2010/03/19 00:00:00+00","78","1200","43.3","C","36.3833","-96.313","PRIVATE","OK","","",""
"-96.384692326","36.41219358","1210131","1468305","W-600000","FED","DOI-WFMI","BIA","USOKOSA","Osage Agency","OKOSA","Osage Agency","75","","E90U","INDIAN VILLAGE","","","","","","2010","2010/03/19 00:00:00+00","78","1030","Human","Missing data/not specified/undetermined","","2010/03/19 00:00:00+00","78","1200","0.3","B","36.4122","-96.3847","BIA","OK","","",""
"-96.119992385","36.535493544","1210132","1468306","W-599991","FED","DOI-WFMI","BIA","USOKOSA","Osage Agency","OKOSA","Osage Agency","72","","E9YD","AIRSTREAM","2010_OK-OSA-100020_OSAGE-MIAMI COMPLEX","2010_OK-OSA-100020_OSAGE-MIAMI COMPLEX","OK3652009611420100319","AIRSTREAM","OSAGE-MIAMI COMPLEX","2010","2010/03/19 00:00:00+00","78","1454","Human","Missing data/not specified/undetermined","","2010/03/20 00:00:00+00","79","1200","1567","F","36.5355","-96.12","PRIVATE","OK","","",""
"-96.24109236","36.450293566","1210133","1468307","W-600004","FED","DOI-WFMI","BIA","USOKOSA","Osage Agency","OKOSA","Osage Agency","77","","E92A","PISTOL PETE","","","OK3644009625320100319","PISTOL PETE","","2010","2010/03/19 00:00:00+00","78","1500","Human","Debris and open burning","","2010/03/22 00:00:00+00","81","1200","1621","F","36.4503","-96.2411","BIA","OK","","",""
"-96.002192398","36.7549935","1210134","1468308","W-600001","FED","DOI-WFMI","BIA","USOKOSA","Osage Agency","OKOSA","Osage Agency","76","","E90V","MOUND","","","","","","2010","2010/03/22 00:00:00+00","81","1545","Human","Equipment and vehicle use","","2010/03/22 00:00:00+00","81","1700","0.1","A","36.755","-96.0022","PRIVATE","OK","","",""
"-96.32859234","36.425793575","1210135","1468309","W-600007","FED","DOI-WFMI","BIA","USOKOSA","Osage Agency","OKOSA","Osage Agency","78","","E92B","KETAL","","","","","","2010","2010/03/22 00:00:00+00","81","1725","Human","Missing data/not specified/undetermined","","2010/03/22 00:00:00+00","81","1800","0.2","A","36.4258","-96.3286","BIA","OK","","",""
"-96.453292299","36.526693563","1210136","1468310","W-600010","FED","DOI-WFMI","BIA","USOKOSA","Osage Agency","OKOSA","Osage Agency","80","","E92X","BLUESTEM COMPLEX","","","","","BLUESTEM COMPLEX","2010","2010/03/23 00:00:00+00","82","1034","Human","Arson/incendiarism","","2010/03/24 00:00:00+00","83","1200","35.1","C","36.5267","-96.4533","PRIVATE","OK","","",""
"-96.787792199","36.695293552","1210137","1468311","W-600008","FED","DOI-WFMI","BIA","USOKOSA","Osage Agency","OKOSA","Osage Agency","79","","E92C","ARROWHEAD","","","","","","2010","2010/03/23 00:00:00+00","82","1500","Human","Missing data/not specified/undetermined","","2010/03/24 00:00:00+00","83","1200","26","C","36.6953","-96.7878","PRIVATE","OK","","",""
"-96.318892332","36.548893552","1210138","1468312","W-600021","FED","DOI-WFMI","BIA","USOKOSA","Osage Agency","OKOSA","Osage Agency","85","","FAG5","DISABLED","","","","","","2010","2010/03/23 00:00:00+00","82","1842","Human","Other causes","","2010/03/24 00:00:00+00","83","1200","0.1","A","36.5489","-96.3189","PRIVATE","OK","","",""
"-96.438592316","36.367493591","1210139","1468313","W-600014","FED","DOI-WFMI","BIA","USOKOSA","Osage Agency","OKOSA","Osage Agency","81","","E98P","STANDINGBEAR","","","","","","2010","2010/03/28 00:00:00+00","87","1345","Human","Arson/incendiarism","","2010/03/29 00:00:00+00","88","1200","54.8","C","36.3675","-96.4386","BIA","OK","","",""
"-96.437492315","36.381893588","1210140","1468314","W-600018","FED","DOI-WFMI","BIA","USOKOSA","Osage Agency","OKOSA","Osage Agency","83","","E98R","ISLAND","","","","","","2010","2010/03/28 00:00:00+00","87","1345","Human","Arson/incendiarism","","2010/03/28 00:00:00+00","87","1800","3.2","B","36.3819","-96.4375","BIA","OK","","",""
"-96.439392315","36.375793589","1210141","1468315","W-600017","FED","DOI-WFMI","BIA","USOKOSA","Osage Agency","OKOSA","Osage Agency","82","","E98Q","REVEREND","","","","","","2010","2010/03/28 00:00:00+00","87","1345","Human","Arson/incendiarism","","2010/03/28 00:00:00+00","87","1900","19.9","C","36.3758","-96.4394","BIA","OK","","",""
"-96.398892325","36.385493585","1210142","1468316","W-600574","FED","DOI-WFMI","BIA","USOKOSA","Osage Agency","OKOSA","Osage Agency","98","","FA11","FLETCHER","","","","","","2010","2010/03/29 00:00:00+00","88","1355","Human","Debris and open burning","","2010/03/30 00:00:00+00","89","1200","18","C","36.3855","-96.3989","BIA","OK","","",""
"-96.166392397","36.2360936","1210143","1468317","W-600019","FED","DOI-WFMI","BIA","USOKOSA","Osage Agency","OKOSA","Osage Agency","84","","FAG4","SOUIX","2010_OK-OSA-100084_SIOUX","","","","","2010","2010/03/29 00:00:00+00","88","1415","Human","Debris and open burning","","2010/04/10 00:00:00+00","100","1200","700","E","36.2361","-96.1664","BIA","OK","","",""
"-96.265292369","36.268893599","1210144","1468318","W-600022","FED","DOI-WFMI","BIA","USOKOSA","Osage Agency","OKOSA","Osage Agency","86","","FAN3","CROSS HILL","","","","","","2010","2010/03/29 00:00:00+00","88","2100","Human","Debris and open burning","","2010/03/30 00:00:00+00","89","1200","50.4","C","36.2689","-96.2653","PRIVATE","OK","","",""
"-96.396092322","36.433893577","1210145","1468319","W-600564","FED","DOI-WFMI","BIA","USOKOSA","Osage Agency","OKOSA","Osage Agency","93","","FA1W","DAILEY","","","","","","2010","2010/03/29 00:00:00+00","88","2305","Human","Arson/incendiarism","","2010/03/31 00:00:00+00","90","1200","143","D","36.4339","-96.3961","BIA","OK","","",""
"-96.114392379","36.626693528","1210146","1468320","W-600025","FED","DOI-WFMI","BIA","USOKOSA","Osage Agency","OKOSA","Osage Agency","88","","FA0H","WILLDIL","","","","","","2010","2010/03/30 00:00:00+00","89","0945","Human","Debris and open burning","","2010/03/30 00:00:00+00","89","1100","23.3","C","36.6267","-96.1144","PRIVATE","OK","","",""
"-96.222192336","36.803893503","1210147","1468321","W-600565","FED","DOI-WFMI","BIA","USOKOSA","Osage Agency","OKOSA","Osage Agency","94","","FA1X","DEER LAKE","2010_OK-OSA-100094_DEER LAKE","","OK3680409622120100330","DEER LAKE","","2010","2010/03/30 00:00:00+00","89","1027","Human","Arson/incendiarism","","2010/04/02 00:00:00+00","92","0830","2613","F","36.8039","-96.2222","PRIVATE","OK","","",""
"-96.192192344","36.802193501","1210148","1468322","W-600566","FED","DOI-WFMI","BIA","USOKOSA","Osage Agency","OKOSA","Osage Agency","95","","FA1Y","COLLINS","2010_OK-OSA-100095_COLLINS","","OK3678909617820100330","COLLINS","","2010","2010/03/30 00:00:00+00","89","1027","Human","Arson/incendiarism","","2010/03/31 00:00:00+00","90","1500","1133","F","36.8022","-96.1922","BIA","OK","","",""
"-96.305792359","36.262793602","1210149","1468323","W-600645","FED","DOI-WFMI","BIA","USOKOSA","Osage Agency","OKOSA","Osage Agency","108","","FA6C","1575 RD","","","","","","2010","2010/03/30 00:00:00+00","89","1100","Human","Debris and open burning","","2010/03/30 00:00:00+00","89","1500","0.8","B","36.2628","-96.3058","BIA","OK","","",""
"-96.317492336","36.501893561","1210150","1468324","W-600026","FED","DOI-WFMI","BIA","USOKOSA","Osage Agency","OKOSA","Osage Agency","89","","FA0J","MCKINLEY","","","","","","2010","2010/03/30 00:00:00+00","89","1330","Human","Debris and open burning","","2010/03/31 00:00:00+00","90","1200","80","C","36.5019","-96.3175","PRIVATE","OK","","",""
"-96.310492339","36.491893562","1210151","1468325","W-600646","FED","DOI-WFMI","BIA","USOKOSA","Osage Agency","OKOSA","Osage Agency","109","","FA6D","RANKIN","","","","","","2010","2010/03/30 00:00:00+00","89","1545","Human","Debris and open burning","","2010/04/02 00:00:00+00","92","1200","100","D","36.4919","-96.3105","BIA","OK","","",""
"-96.344192338","36.395493581","1210152","1468326","W-600571","FED","DOI-WFMI","BIA","USOKOSA","Osage Agency","OKOSA","Osage Agency","96","","FA1Z","CRAFT","","","","","","2010","2010/03/30 00:00:00+00","89","1730","Human","Arson/incendiarism","","2010/03/31 00:00:00+00","90","1200","37","C","36.3955","-96.3442","BIA","OK","","",""
"-96.261092352","36.492493559","1210153","1468327","W-600644","FED","DOI-WFMI","BIA","USOKOSA","Osage Agency","OKOSA","Osage Agency","107","","FA42","WALKING CANE","","","","","","2010","2010/03/30 00:00:00+00","89","1830","Human","Debris and open burning","","2010/04/02 00:00:00+00","92","1200","588","E","36.4925","-96.2611","PRIVATE","OK","","",""
"-96.266392368","36.274693598","1210154","1468328","W-600028","FED","DOI-WFMI","BIA","USOKOSA","Osage Agency","OKOSA","Osage Agency","90","","FA0K","PEACH ORCHARD","2010_OK-OSA-100090_PEACH ORCHARD","","OK3630509626920100330","PEACH ORCHARD","","2010","2010/03/30 00:00:00+00","89","2000","Human","Debris and open burning","","2010/04/10 00:00:00+00","100","1200","992","E","36.2747","-96.2664","BIA","OK","","",""
"-96.207192358","36.592193539","1210155","1468329","W-600575","FED","DOI-WFMI","BIA","USOKOSA","Osage Agency","OKOSA","Osage Agency","99","","FA16","TALLANT HILL","2010_OK-OSA-100099_TALLANT HILL","","OK3658409622020100330","TALLANT HILL","","2010","2010/03/30 00:00:00+00","89","2005","Human","Debris and open burning","","2010/04/10 00:00:00+00","100","1200","2180","F","36.5922","-96.2072","BIA","OK","","",""
"-96.410492325","36.349193592","1210156","1468330","W-600572","FED","DOI-WFMI","BIA","USOKOSA","Osage Agency","OKOSA","Osage Agency","97","","FA10","COX","2010_OK-OSA-100097_COX","","","","","2010","2010/03/30 00:00:00+00","89","2018","Human","Debris and open burning","","2010/03/31 00:00:00+00","90","1200","300","E","36.3492","-96.4105","BIA","OK","","",""
"-96.656892244","36.558893569","1210157","1468331","W-600029","FED","DOI-WFMI","BIA","USOKOSA","Osage Agency","OKOSA","Osage Agency","91","","FA0L","BADLEY","","","","","","2010","2010/03/31 00:00:00+00","90","0030","Human","Arson/incendiarism","","2010/03/31 00:00:00+00","90","0500","7.3","B","36.5589","-96.6569","BIA","OK","","",""
"-96.259392341","36.632993535","1210158","1468332","W-600561","FED","DOI-WFMI","BIA","USOKOSA","Osage Agency","OKOSA","Osage Agency","92","","FA1T","ROSEMARY","","","","","","2010","2010/03/31 00:00:00+00","90","1015","Human","Debris and open burning","","2010/04/01 00:00:00+00","91","1200","19.1","C","36.633","-96.2594","BIA","OK","","",""
"-96.467192298","36.49579357","1210159","1468333","W-600647","FED","DOI-WFMI","BIA","USOKOSA","Osage Agency","OKOSA","Osage Agency","110","","FA6E","WHITEHORN","","","","","","2010","2010/03/31 00:00:00+00","90","1551","Human","Power generation/transmission/distribution","","2010/03/31 00:00:00+00","90","1800","2.4","B","36.4958","-96.4672","BIA","OK","","",""
"-96.116892384","36.554693541","1210160","1468334","W-600547","FED","DOI-WFMI","BIA","USOKOSA","Osage Agency","OKOSA","Osage Agency","87","","FAZ5","TAURUS","","","","","","2010","2010/03/31 00:00:00+00","90","2140","Human","Arson/incendiarism","","2010/03/31 00:00:00+00","90","2200","2","B","36.5547","-96.1169","PRIVATE","OK","","",""
"-96.395792333","36.292993602","1210161","1468335","W-600638","FED","DOI-WFMI","BIA","USOKOSA","Osage Agency","OKOSA","Osage Agency","101","","FA2U","RUSSELL","","","","","","2010","2010/04/01 00:00:00+00","91","1000","Human","Debris and open burning","","2010/04/02 00:00:00+00","92","1200","12.2","C","36.293","-96.3958","BIA","OK","","",""
"-96.403592331","36.291393602","1210162","1468336","W-600576","FED","DOI-WFMI","BIA","USOKOSA","Osage Agency","OKOSA","Osage Agency","100","","FA17","BIG CHIEF","","","","","","2010","2010/04/02 00:00:00+00","92","1620","Human","Debris and open burning","","2010/04/03 00:00:00+00","93","1200","7.5","B","36.2914","-96.4036","PRIVATE","OK","","",""
"-96.229192348","36.636093532","1210163","1468337","W-600640","FED","DOI-WFMI","BIA","USOKOSA","Osage Agency","OKOSA","Osage Agency","103","","FA2W","DODSON","","","","","","2010","2010/04/03 00:00:00+00","93","1048","Human","Debris and open burning","","2010/04/04 00:00:00+00","94","1200","160","D","36.6361","-96.2292","BIA","OK","","",""
"-96.057992381","36.774993499","1210164","1468338","W-600639","FED","DOI-WFMI","BIA","USOKOSA","Osage Agency","OKOSA","Osage Agency","102","","FA2V","3102","","","","","","2010","2010/04/03 00:00:00+00","93","1400","Human","Debris and open burning","","2010/04/03 00:00:00+00","93","1500","2","B","36.775","-96.058","PRIVATE","OK","","",""
"-96.036392399","36.623293524","1210165","1468339","W-600641","FED","DOI-WFMI","BIA","USOKOSA","Osage Agency","OKOSA","Osage Agency","104","","FA2Y","HUGHES","","","","","","2010","2010/04/03 00:00:00+00","93","1916","Human","Debris and open burning","","2010/04/05 00:00:00+00","95","1200","287","D","36.6233","-96.0364","PRIVATE","OK","","",""
"-96.117192377","36.634393527","1210166","1468340","W-600643","FED","DOI-WFMI","BIA","USOKOSA","Osage Agency","OKOSA","Osage Agency","106","","FA21","PONCA","","","","","","2010","2010/04/03 00:00:00+00","93","2005","Human","Debris and open burning","","2010/04/04 00:00:00+00","94","1200","45","C","36.6344","-96.1172","BIA","OK","","",""
"-96.156392376","36.531693547","1210167","1468341","W-600642","FED","DOI-WFMI","BIA","USOKOSA","Osage Agency","OKOSA","Osage Agency","105","","FA2Z","BIRCH DAM","","","","","","2010","2010/04/04 00:00:00+00","94","1300","Human","Arson/incendiarism","","2010/04/05 00:00:00+00","95","1200","40.3","C","36.5317","-96.1564","PRIVATE","OK","","",""
"-96.391092326","36.393893584","1210168","1468342","W-600648","FED","DOI-WFMI","BIA","USOKOSA","Osage Agency","OKOSA","Osage Agency","111","","FA66","WHITEHORN II","","","","","","2010","2010/04/05 00:00:00+00","95","0036","Human","Debris and open burning","","2010/04/05 00:00:00+00","95","1200","18","C","36.3939","-96.3911","BIA","OK","","",""
"-96.43799232","36.322793598","1210169","1468343","W-600649","FED","DOI-WFMI","BIA","USOKOSA","Osage Agency","OKOSA","Osage Agency","112","","FA67","CIRCLE M","","","","","","2010","2010/04/06 00:00:00+00","96","1300","Human","Arson/incendiarism","","2010/04/06 00:00:00+00","96","1800","1.1","B","36.3228","-96.438","PRIVATE","OK","","",""
"-96.470792298","36.480293573","1210170","1468344","W-600651","FED","DOI-WFMI","BIA","USOKOSA","Osage Agency","OKOSA","Osage Agency","114","","FA84","BUFORD","","","","","","2010","2010/04/06 00:00:00+00","96","1631","Human","Debris and open burning","","2010/04/06 00:00:00+00","96","1800","0.5","B","36.4803","-96.4708","PRIVATE","OK","","",""
"-96.520792297","36.341693599","1210171","1468345","W-600650","FED","DOI-WFMI","BIA","USOKOSA","Osage Agency","OKOSA","Osage Agency","113","","FA73","3Y","","","","","","2010","2010/04/06 00:00:00+00","96","2010","Human","Debris and open burning","","2010/04/06 00:00:00+00","96","2230","5.5","B","36.3417","-96.5208","BIA","OK","","",""
"-96.270492345","36.539693552","1210172","1468346","W-600652","FED","DOI-WFMI","BIA","USOKOSA","Osage Agency","OKOSA","Osage Agency","115","","FA85","NEO","","","","","","2010","2010/04/07 00:00:00+00","97","1437","Human","Debris and open burning","","2010/04/07 00:00:00+00","97","1600","14.2","C","36.5397","-96.2705","PRIVATE","OK","","",""
"-96.522192297","36.3402936","1210173","1468347","W-600658","FED","DOI-WFMI","BIA","USOKOSA","Osage Agency","OKOSA","Osage Agency","121","","FBQ4","TAP WIRE","","","","","","2010","2010/04/07 00:00:00+00","97","2010","Human","Debris and open burning","","2010/04/08 00:00:00+00","98","1200","42.9","C","36.3403","-96.5222","PRIVATE","OK","","",""
"-96.22389235","36.636693532","1210174","1468348","W-600653","FED","DOI-WFMI","BIA","USOKOSA","Osage Agency","OKOSA","Osage Agency","116","","FBD5","DODSON 2","","","","","","2010","2010/04/08 00:00:00+00","98","1015","Human","Debris and open burning","","2010/04/09 00:00:00+00","99","1200","80","C","36.6367","-96.2239","BIA","OK","","",""
"-96.003892404","36.669693515","1210175","1468349","W-600654","FED","DOI-WFMI","BIA","USOKOSA","Osage Agency","OKOSA","Osage Agency","117","","FBP0","THUNDERBIRD","","","","","","2010","2010/04/09 00:00:00+00","99","1015","Human","Debris and open burning","","2010/04/10 00:00:00+00","100","1200","128","D","36.6697","-96.0039","BIA","OK","","",""
"-96.22919238","36.242793602","1210176","1468350","W-600664","FED","DOI-WFMI","BIA","USOKOSA","Osage Agency","OKOSA","Osage Agency","128","","FB5W","PULARE","","","","","","2010","2010/04/09 00:00:00+00","99","1600","Human","Debris and open burning","","2010/04/09 00:00:00+00","99","1900","37.9","C","36.2428","-96.2292","BIA","OK","","",""
"-96.408292329","36.300493601","1210177","1468351","W-600656","FED","DOI-WFMI","BIA","USOKOSA","Osage Agency","OKOSA","Osage Agency","119","","FBQ1","MAMIE","","","","","","2010","2010/04/09 00:00:00+00","99","1800","Human","Debris and open burning","","2010/04/11 00:00:00+00","101","1200","143","D","36.3005","-96.4083","BIA","OK","","",""
"-96.286392354","36.379193581","1210178","1468352","W-600655","FED","DOI-WFMI","BIA","USOKOSA","Osage Agency","OKOSA","Osage Agency","118","","FBP1","HANEY BELL 2","","","","","","2010","2010/04/09 00:00:00+00","99","1936","Human","Debris and open burning","","2010/04/10 00:00:00+00","100","1200","122","D","36.3792","-96.2864","BIA","OK","","",""
"-96.107992372","36.72939351","1210179","1468353","W-600657","FED","DOI-WFMI","BIA","USOKOSA","Osage Agency","OKOSA","Osage Agency","120","","FBQ2","ROCK FACE","","","","","","2010","2010/04/10 00:00:00+00","100","1223","Human","Debris and open burning","","2010/04/10 00:00:00+00","100","1900","27","C","36.7294","-96.108","PRIVATE","OK","","",""
"-96.098892384","36.61029353","1210180","1468354","W-600661","FED","DOI-WFMI","BIA","USOKOSA","Osage Agency","OKOSA","Osage Agency","125","","FB17","WAPP","","","","","","2010","2010/04/10 00:00:00+00","100","1445","Human","Debris and open burning","","2010/04/10 00:00:00+00","100","2000","24.1","C","36.6103","-96.0989","BIA","OK","","",""
"-96.288592363","36.2685936","1210181","1468355","W-600659","FED","DOI-WFMI","BIA","USOKOSA","Osage Agency","OKOSA","Osage Agency","122","","FBS5","PRUE WALNUT","","","","","","2010","2010/04/11 00:00:00+00","101","1100","Human","Debris and open burning","","2010/04/11 00:00:00+00","101","1200","0.1","A","36.2686","-96.2886","BIA","OK","","",""
"-96.414692321","36.384193586","1210182","1468356","W-600660","FED","DOI-WFMI","BIA","USOKOSA","Osage Agency","OKOSA","Osage Agency","123","","FBT9","BLACK DOG RD","","","","","","2010","2010/04/11 00:00:00+00","101","1147","Human","Debris and open burning","","2010/04/11 00:00:00+00","101","1600","21","C","36.3842","-96.4147","BIA","OK","","",""
"-96.308892332","36.578293547","1210183","1468357","W-601093","FED","DOI-WFMI","BIA","USOKOSA","Osage Agency","OKOSA","Osage Agency","124","","FB01","BRANSETTER","","","","","","2010","2010/04/12 00:00:00+00","102","1155","Human","Arson/incendiarism","","2010/04/12 00:00:00+00","102","1356","0.4","B","36.5783","-96.3089","PRIVATE","OK","","",""
"-96.109692381","36.61249353","1210184","1468358","W-600662","FED","DOI-WFMI","BIA","USOKOSA","Osage Agency","OKOSA","Osage Agency","127","","FB4Z","BIGHORSE 2","","","","","","2010","2010/04/13 00:00:00+00","103","1659","Human","Debris and open burning","","2010/04/13 00:00:00+00","103","1800","0.5","B","36.6125","-96.1097","BIA","OK","","",""
"-96.182992345","36.817493498","1210185","1468359","W-600663","FED","DOI-WFMI","BIA","USOKOSA","Osage Agency","OKOSA","Osage Agency","126","","FB4X","VANN","","","","","","2010","2010/04/13 00:00:00+00","103","1748","Human","Equipment and vehicle use","","2010/04/13 00:00:00+00","103","2000","0.3","B","36.8175","-96.183","PRIVATE","OK","","",""
"-96.262792331","36.746093515","1210186","1468360","W-600672","FED","DOI-WFMI","BIA","USOKOSA","Osage Agency","OKOSA","Osage Agency","130","","FB65","MEDICINE BOW","","","","","","2010","2010/04/13 00:00:00+00","103","1930","Human","Equipment and vehicle use","","2010/04/13 00:00:00+00","103","2000","2","B","36.7461","-96.2628","PRIVATE","OK","","",""
"-96.273292367","36.2674936","1210187","1468361","W-600676","FED","DOI-WFMI","BIA","USOKOSA","Osage Agency","OKOSA","Osage Agency","129","","FB61","ZINK","","","","","","2010","2010/04/14 00:00:00+00","104","1559","Human","Debris and open burning","","2010/04/15 00:00:00+00","105","1200","17.9","C","36.2675","-96.2733","PRIVATE","OK","","",""
"-96.337192316","36.694393528","1210188","1468362","W-601096","FED","DOI-WFMI","BIA","USOKOSA","Osage Agency","OKOSA","Osage Agency","131","","FB9T","MILLER","","","","","","2010","2010/04/16 00:00:00+00","106","0945","Human","Debris and open burning","","2010/04/16 00:00:00+00","106","1015","6.5","B","36.6944","-96.3372","BIA","OK","","",""
"-96.336092316","36.693893528","1210189","1468363","W-603394","FED","DOI-WFMI","BIA","USOKOSA","Osage Agency","OKOSA","Osage Agency","132","","FH27","LAKE VIEW","","","","","","2010","2010/07/01 00:00:00+00","182","1500","Human","Debris and open burning","","2010/07/02 00:00:00+00","183","1600","0.2","A","36.6939","-96.3361","PRIVATE","OK","","",""
"-96.329992319","36.67999353","1210190","1468364","W-603397","FED","DOI-WFMI","BIA","USOKOSA","Osage Agency","OKOSA","Osage Agency","133","","FJ4K","FREEMAN","","","","","","2010","2010/07/02 00:00:00+00","183","1403","Human","Arson/incendiarism","","2010/07/02 00:00:00+00","183","1438","0.1","A","36.68","-96.33","PRIVATE","OK","","",""
"-96.63999225","36.541693571","1210191","1468365","W-607843","FED","DOI-WFMI","BIA","USOKOSA","Osage Agency","OKOSA","Osage Agency","134","","FP34","HOLLOWAY","","","","","","2010","2010/08/04 00:00:00+00","216","1412","Human","Debris and open burning","","2010/08/05 00:00:00+00","217","1630","2.5","B","36.5417","-96.64","BIA","OK","","",""
"-96.131092375","36.626893529","1210192","1468366","W-607844","FED","DOI-WFMI","BIA","USOKOSA","Osage Agency","OKOSA","Osage Agency","135","","FQ23","DEER PLOT","","","","","","2010","2010/08/10 00:00:00+00","222","1430","Human","Debris and open burning","","2010/08/12 00:00:00+00","224","1930","55.7","C","36.6269","-96.1311","BIA","OK","","",""
"-96.388292326","36.407793581","1210193","1468367","W-607845","FED","DOI-WFMI","BIA","USOKOSA","Osage Agency","OKOSA","Osage Agency","136","","FRB0","WHISKEY","","","","","","2010","2010/08/12 00:00:00+00","224","2214","Human","Debris and open burning","","2010/08/13 00:00:00+00","225","0945","0.1","A","36.4078","-96.3883","BIA","OK","","",""
"-96.186392354","36.706693518","1210194","1468368","W-607846","FED","DOI-WFMI","BIA","USOKOSA","Osage Agency","OKOSA","Osage Agency","138","","FRD1","LAWNMOWER","","","","","","2010","2010/08/13 00:00:00+00","225","1145","Human","Equipment and vehicle use","","2010/08/14 00:00:00+00","226","1436","1.9","B","36.7067","-96.1864","PRIVATE","OK","","",""
"-96.397492318","36.469393571","1210195","1468369","W-607847","FED","DOI-WFMI","BIA","USOKOSA","Osage Agency","OKOSA","Osage Agency","137","","FRB1","PRISON","","","","","","2010","2010/08/13 00:00:00+00","225","1432","Human","Debris and open burning","","2010/08/14 00:00:00+00","226","1115","11.5","C","36.4694","-96.3975","STATE","OK","","",""
"-96.404692325","36.369393589","1210196","1468370","W-607848","FED","DOI-WFMI","BIA","USOKOSA","Osage Agency","OKOSA","Osage Agency","139","","FRW5","CARTER","","","","","","2010","2010/08/16 00:00:00+00","228","1336","Human","Railroad operations and maintenance","","2010/08/16 00:00:00+00","228","1625","0.4","B","36.3694","-96.4047","PRIVATE","OK","","",""
"-96.316892342","36.437493572","1210197","1468371","W-612593","FED","DOI-WFMI","BIA","USOKOSA","Osage Agency","OKOSA","Osage Agency","140","","FT6B","LIGHTNING STRIKE","","","","","","2010","2010/09/01 00:00:00+00","244","0130","Natural","Natural","","2010/09/02 00:00:00+00","245","1600","46","C","36.4375","-96.3169","BIA","OK","","",""
"-96.336692337","36.437793573","1210198","1468372","W-612594","FED","DOI-WFMI","BIA","USOKOSA","Osage Agency","OKOSA","Osage Agency","141","","FT6C","LATE NIGHT","","","","","","2010","2010/09/01 00:00:00+00","244","0225","Human","Equipment and vehicle use","","2010/09/01 00:00:00+00","244","0245","0.1","A","36.4378","-96.3367","BIA","OK","","",""
"-96.32859234","36.421893575","1210199","1468373","W-612595","FED","DOI-WFMI","BIA","USOKOSA","Osage Agency","OKOSA","Osage Agency","142","","FT82","JAKE 2","","","","","","2010","2010/09/03 00:00:00+00","246","1612","Human","Misuse of fire by a minor","Minor","2010/09/03 00:00:00+00","246","1730","2.1","B","36.4219","-96.3286","BIA","OK","","",""
"-96.437192314","36.397993585","1210200","1468374","W-612596","FED","DOI-WFMI","BIA","USOKOSA","Osage Agency","OKOSA","Osage Agency","143","","FT9X","JADE","","","","","","2010","2010/09/04 00:00:00+00","247","1126","Human","Fireworks","","2010/09/04 00:00:00+00","247","1238","3","B","36.398","-96.4372","PRIVATE","OK","","",""
"-96.382792327","36.40999358","1210201","1468375","W-614046","FED","DOI-WFMI","BIA","USOKOSA","Osage Agency","OKOSA","Osage Agency","144","","FWE9","TEEPEE","","","","","","2010","2010/09/23 00:00:00+00","266","1612","Human","Arson/incendiarism","","2010/09/23 00:00:00+00","266","1830","4.3","B","36.41","-96.3828","BIA","OK","","",""
"-96.297992346","36.44109357","1210202","1468376","W-614351","FED","DOI-WFMI","BIA","USOKOSA","Osage Agency","OKOSA","Osage Agency","145","","FW5T","FINN","","","","","","2010","2010/10/08 00:00:00+00","281","1514","Human","Debris and open burning","","2010/10/09 00:00:00+00","282","1830","65.3","C","36.4411","-96.298","BIA","OK","","",""
"-96.720292223","36.619393562","1210203","1468377","W-614375","FED","DOI-WFMI","BIA","USOKOSA","Osage Agency","OKOSA","Osage Agency","146","","FW9Z","LUNSFORD","","","","","","2010","2010/10/10 00:00:00+00","283","1856","Natural","Natural","","2010/10/10 00:00:00+00","283","2025","2.2","B","36.6194","-96.7203","BIA","OK","","",""
"-96.116892384","36.55889354","1210204","1468378","W-615030","FED","DOI-WFMI","BIA","USOKOSA","Osage Agency","OKOSA","Osage Agency","147","","FXY7","WELLS","","","","","","2010","2010/10/18 00:00:00+00","291","1159","Human","Power generation/transmission/distribution","","2010/10/18 00:00:00+00","291","1345","1.1","B","36.5589","-96.1169","PRIVATE","OK","","",""
"-96.263892366","36.300293593","1210205","1468379","W-615031","FED","DOI-WFMI","BIA","USOKOSA","Osage Agency","OKOSA","Osage Agency","148","","FX52","MOSELEY","","","","","","2010","2010/10/25 00:00:00+00","298","1659","Human","Power generation/transmission/distribution","","2010/10/25 00:00:00+00","298","2015","21","C","36.3003","-96.2639","PRIVATE","OK","","",""
"-96.256892368","36.297993593","1210206","1468380","W-615032","FED","DOI-WFMI","BIA","USOKOSA","Osage Agency","OKOSA","Osage Agency","149","","FX53","TOOTHMAN","2010_OK-OSA-010149_TOOTHMAN","","","","","2010","2010/10/25 00:00:00+00","298","1659","Human","Power generation/transmission/distribution","","2010/10/25 00:00:00+00","298","2045","123","D","36.298","-96.2569","BIA","OK","","",""
"-96.656892235","36.66389355","1210207","1468381","W-615033","FED","DOI-WFMI","BIA","USOKOSA","Osage Agency","OKOSA","Osage Agency","150","","FX59","LUCKY","","","","","","2010","2010/10/26 00:00:00+00","299","1532","Human","Power generation/transmission/distribution","","2010/10/26 00:00:00+00","299","1615","1.3","B","36.6639","-96.6569","PRIVATE","OK","","",""
"-96.232492355","36.53749355","1210208","1468382","W-615034","FED","DOI-WFMI","BIA","USOKOSA","Osage Agency","OKOSA","Osage Agency","151","","FX7G","MCGILL","2010_OK-OSA-010151_MCGILL","","","","","2010","2010/10/28 00:00:00+00","301","1155","Human","Equipment and vehicle use","","2010/10/29 00:00:00+00","302","1645","234","D","36.5375","-96.2325","BIA","OK","","",""
"-96.236692364","36.412993572","1210209","1468383","W-615035","FED","DOI-WFMI","BIA","USOKOSA","Osage Agency","OKOSA","Osage Agency","152","","FX8H","BURRIS","","","","","","2010","2010/10/29 00:00:00+00","302","1430","Human","Debris and open burning","","2010/10/29 00:00:00+00","302","1715","29.3","C","36.413","-96.2367","PRIVATE","OK","","",""
"-96.508592288","36.489693573","1210210","1468384","W-615036","FED","DOI-WFMI","BIA","USOKOSA","Osage Agency","OKOSA","Osage Agency","153","","FX8J","TATANKA","","","","","","2010","2010/10/29 00:00:00+00","302","1752","Human","Arson/incendiarism","","2010/10/29 00:00:00+00","302","1945","6.7","B","36.4897","-96.5086","PRIVATE","OK","","",""
"-96.209992359","36.568893543","1210211","1468385","W-615041","FED","DOI-WFMI","BIA","USOKOSA","Osage Agency","OKOSA","Osage Agency","154","","FX8K","WELDER","","","","","","2010","2010/10/30 00:00:00+00","303","1200","Human","Equipment and vehicle use","","2010/10/30 00:00:00+00","303","1310","1.1","B","36.5689","-96.21","PRIVATE","OK","","",""
"-96.309192348","36.38919358","1210212","1468386","W-615042","FED","DOI-WFMI","BIA","USOKOSA","Osage Agency","OKOSA","Osage Agency","155","","FX8V","TITAN","","","","","","2010","2010/10/30 00:00:00+00","303","1548","Human","Recreation and ceremony","","2010/10/30 00:00:00+00","303","1625","0.3","B","36.3892","-96.3092","PRIVATE","OK","","",""
"-96.422992326","36.296693602","1210213","1468387","W-615043","FED","DOI-WFMI","BIA","USOKOSA","Osage Agency","OKOSA","Osage Agency","156","","FX9D","RIVER'S EDGE","","","","","","2010","2010/10/31 00:00:00+00","304","1412","Human","Debris and open burning","","2010/10/31 00:00:00+00","304","1545","1.9","B","36.2967","-96.423","PRIVATE","OK","","",""
"-96.194992389","36.2402936","1210214","1468388","W-615044","FED","DOI-WFMI","BIA","USOKOSA","Osage Agency","OKOSA","Osage Agency","157","","FX9E","SENECA","","","","","","2010","2010/10/31 00:00:00+00","304","1532","Human","Debris and open burning","","2010/10/31 00:00:00+00","304","1645","0.5","B","36.2403","-96.195","PRIVATE","OK","","",""
"-96.076392421","36.222793597","1210215","1468389","W-615516","FED","DOI-WFMI","BIA","USOKOSA","Osage Agency","OKOSA","Osage Agency","158","","FYJ7","ECKER LANE","2010_OK-OKS-_ECKER LANE","","","","","2010","2010/11/04 00:00:00+00","308","1426","Human","Debris and open burning","","2010/11/06 00:00:00+00","310","1200","68","C","36.2228","-96.0764","PRIVATE","OK","","",""
"-96.429992307","36.507793566","1210216","1468390","W-615519","FED","DOI-WFMI","BIA","USOKOSA","Osage Agency","OKOSA","Osage Agency","159","","FYP4","NELLIE","","","","","","2010","2010/11/06 00:00:00+00","310","0600","Human","Power generation/transmission/distribution","","2010/11/06 00:00:00+00","310","0700","1.6","B","36.5078","-96.43","BIA","OK","","",""
"-96.646692251","36.502193578","1210217","1468391","W-615520","FED","DOI-WFMI","BIA","USOKOSA","Osage Agency","OKOSA","Osage Agency","160","","FYP5","GREASY","2010_OK-OSA-010160_GREASY","","","","","2010","2010/11/06 00:00:00+00","310","1316","Human","Equipment and vehicle use","","2010/11/15 00:00:00+00","319","1200","840","E","36.5022","-96.6467","BIA","OK","","",""
"-96.141092378","36.553593542","1210218","1468392","W-615522","FED","DOI-WFMI","BIA","USOKOSA","Osage Agency","OKOSA","Osage Agency","161","","FYP6","TIME MACHINE","","","","","","2010","2010/11/06 00:00:00+00","310","2137","Human","Equipment and vehicle use","","2010/11/06 00:00:00+00","310","2200","0.1","A","36.5536","-96.1411","PRIVATE","OK","","",""
"-96.394992324","36.401693582","1210219","1468393","W-615524","FED","DOI-WFMI","BIA","USOKOSA","Osage Agency","OKOSA","Osage Agency","162","","FYU1","WOO WEE","","","","","","2010","2010/11/07 00:00:00+00","311","1418","Human","Power generation/transmission/distribution","","2010/11/08 00:00:00+00","312","1200","0.3","B","36.4017","-96.395","PRIVATE","OK","","",""
"-96.12829238","36.567993539","1210220","1468394","W-615527","FED","DOI-WFMI","BIA","USOKOSA","Osage Agency","OKOSA","Osage Agency","163","","FYU2","TURTLE","","","","","","2010","2010/11/08 00:00:00+00","312","1114","Human","Debris and open burning","","2010/11/09 00:00:00+00","313","1200","1.9","B","36.568","-96.1283","PRIVATE","OK","","",""
"-96.131092386","36.479393555","1210221","1468395","W-615532","FED","DOI-WFMI","BIA","USOKOSA","Osage Agency","OKOSA","Osage Agency","165","","FZX0","INSURED","","","","","","2010","2010/11/08 00:00:00+00","312","1458","Human","Debris and open burning","","2010/11/09 00:00:00+00","313","1200","32","C","36.4794","-96.1311","PRIVATE","OK","","",""
"-96.385292303","36.69889353","1210222","1468396","W-615530","FED","DOI-WFMI","BIA","USOKOSA","Osage Agency","OKOSA","Osage Agency","164","","FYY1","KENWORTHY","2010_OK-OSA-010164_KENWORTHY","","","","","2010","2010/11/08 00:00:00+00","312","1636","Human","Arson/incendiarism","","2010/11/12 00:00:00+00","316","1200","525","E","36.6989","-96.3853","BIA","OK","","",""
"-96.297492321","36.757793515","1210223","1468397","W-616177","FED","DOI-WFMI","BIA","USOKOSA","Osage Agency","OKOSA","Osage Agency","166","","FY4R","TOWER","","","","","","2010","2010/11/19 00:00:00+00","323","1109","Human","Equipment and vehicle use","","2010/11/19 00:00:00+00","323","1245","1","B","36.7578","-96.2975","PRIVATE","OK","","",""
"-96.393592325","36.398293583","1210224","1468398","W-616236","FED","DOI-WFMI","BIA","USOKOSA","Osage Agency","OKOSA","Osage Agency","169","","FY8Y","HORN","","","","","","2010","2010/11/27 00:00:00+00","331","1406","Human","Arson/incendiarism","","2010/11/27 00:00:00+00","331","1455","0.1","A","36.3983","-96.3936","BIA","OK","","",""
"-96.142192381","36.516393549","1210225","1468399","W-616235","FED","DOI-WFMI","BIA","USOKOSA","Osage Agency","OKOSA","Osage Agency","168","","FY7R","JURASSIC PARK","","","","","","2010","2010/11/27 00:00:00+00","331","1611","Human","Arson/incendiarism","","2010/11/28 00:00:00+00","332","1215","85","C","36.5164","-96.1422","PRIVATE","OK","","",""
"-96.624392242","36.684993545","1210226","1468400","W-616178","FED","DOI-WFMI","BIA","USOKOSA","Osage Agency","OKOSA","Osage Agency","167","","FY7Q","GULF","","","OK3671609662720101128","GULF","","2010","2010/11/28 00:00:00+00","332","1228","Human","Arson/incendiarism","","2010/12/04 00:00:00+00","338","1830","1659","F","36.685","-96.6244","BIA","OK","","",""
"-96.370492335","36.35329359","1210227","1468401","W-616237","FED","DOI-WFMI","BIA","USOKOSA","Osage Agency","OKOSA","Osage Agency","170","","FY8Z","RAINWATER","","","","","","2010","2010/11/28 00:00:00+00","332","1640","Human","Arson/incendiarism","","2010/11/28 00:00:00+00","332","1857","43.3","C","36.3533","-96.3705","PRIVATE","OK","","",""
"-96.13669239","36.413293567","1210228","1468402","W-616274","FED","DOI-WFMI","BIA","USOKOSA","Osage Agency","OKOSA","Osage Agency","171","","FY80","BROOKS","","","","","","2010","2010/11/28 00:00:00+00","332","1645","Human","Missing data/not specified/undetermined","","2010/11/30 00:00:00+00","334","1200","88.6","C","36.4133","-96.1367","PRIVATE","OK","","",""
"-96.238592325","36.887793489","1210229","1468403","W-616275","FED","DOI-WFMI","BIA","USOKOSA","Osage Agency","OKOSA","Osage Agency","172","","FY81","COOPER","","","","","","2010","2010/11/29 00:00:00+00","333","1231","Human","Power generation/transmission/distribution","","2010/11/30 00:00:00+00","334","1200","105","D","36.8878","-96.2386","PRIVATE","OK","","",""
"-96.240292345","36.639393532","1210230","1468404","W-616276","FED","DOI-WFMI","BIA","USOKOSA","Osage Agency","OKOSA","Osage Agency","173","","FY9S","YAHTZEE","","","","","","2010","2010/11/30 00:00:00+00","334","2011","Human","Missing data/not specified/undetermined","","2010/12/01 00:00:00+00","335","1200","2.6","B","36.6394","-96.2403","PRIVATE","OK","","",""
"-96.315492322","36.67889353","1210231","1468405","W-616277","FED","DOI-WFMI","BIA","USOKOSA","Osage Agency","OKOSA","Osage Agency","174","","FY9T","CAN'T PAY","","","","","","2010","2010/12/02 00:00:00+00","336","1059","Human","Debris and open burning","","2010/12/02 00:00:00+00","336","1200","0.1","A","36.6789","-96.3155","BIA","OK","","",""
"-96.241392342","36.676393526","1210232","1468406","W-616278","FED","DOI-WFMI","BIA","USOKOSA","Osage Agency","OKOSA","Osage Agency","175","","FZF5","BOBBIE","","","","","","2010","2010/12/02 00:00:00+00","336","2145","Human","Missing data/not specified/undetermined","","2010/12/02 00:00:00+00","336","2230","5","B","36.6764","-96.2414","PRIVATE","OK","","",""
"-96.029392413","36.47719355","1210233","1468407","W-616279","FED","DOI-WFMI","BIA","USOKOSA","Osage Agency","OKOSA","Osage Agency","176","","FZF6","BRIAR PATCH","","","","","","2010","2010/12/03 00:00:00+00","337","1324","Human","Missing data/not specified/undetermined","","2010/12/04 00:00:00+00","338","1200","9.2","B","36.4772","-96.0294","PRIVATE","OK","","",""
"-96.297492359","36.286393598","1210234","1468408","W-616280","FED","DOI-WFMI","BIA","USOKOSA","Osage Agency","OKOSA","Osage Agency","177","","FZF7","BUTLER","","","","","","2010","2010/12/05 00:00:00+00","339","1123","Human","Missing data/not specified/undetermined","","2010/12/07 00:00:00+00","341","1200","53.5","C","36.2864","-96.2975","BIA","OK","","",""
"-96.298292322","36.744193517","1210235","1468409","W-616281","FED","DOI-WFMI","BIA","USOKOSA","Osage Agency","OKOSA","Osage Agency","178","","FZG2","GIPPER","","","","","","2010","2010/12/06 00:00:00+00","340","1335","Human","Debris and open burning","","2010/12/07 00:00:00+00","341","1200","0.1","A","36.7442","-96.2983","BIA","OK","","",""
"-96.058892424","36.242193593","1210236","1468410","W-616777","FED","DOI-WFMI","BIA","USOKOSA","Osage Agency","OKOSA","Osage Agency","179","","FZJ8","FUGITIVE","","","","","","2010","2010/12/07 00:00:00+00","341","1453","Human","Missing data/not specified/undetermined","","2010/12/08 00:00:00+00","342","1200","3.6","B","36.2422","-96.0589","PRIVATE","OK","","",""
"-96.323892344","36.390493581","1210237","1468411","W-616778","FED","DOI-WFMI","BIA","USOKOSA","Osage Agency","OKOSA","Osage Agency","180","","FZN2","COWBOY FRIES","","","","","","2010","2010/12/09 00:00:00+00","343","1203","Human","Missing data/not specified/undetermined","","2010/12/10 00:00:00+00","344","1200","16.4","C","36.3905","-96.3239","PRIVATE","OK","","",""
"-96.031392421","36.375293568","1210238","1468412","W-616782","FED","DOI-WFMI","BIA","USOKOSA","Osage Agency","OKOSA","Osage Agency","181","","FZW7","WATERED DOWN","","","","","","2010","2010/12/11 00:00:00+00","345","1409","Human","Missing data/not specified/undetermined","","2010/12/13 00:00:00+00","347","1200","14","C","36.3753","-96.0314","PRIVATE","OK","","",""
"-96.129692393","36.404393568","1210239","1468413","W-616791","FED","DOI-WFMI","BIA","USOKOSA","Osage Agency","OKOSA","Osage Agency","182","","FZ0V","STUMPY","","","","","","2010","2010/12/14 00:00:00+00","348","1045","Human","Debris and open burning","","2010/12/15 00:00:00+00","349","1200","1.2","B","36.4044","-96.1297","PRIVATE","OK","","",""
"-96.157192373","36.564193541","1210240","1468414","W-616792","FED","DOI-WFMI","BIA","USOKOSA","Osage Agency","OKOSA","Osage Agency","183","","FZ1H","JOHN DEERE","","","","","","2010","2010/12/15 00:00:00+00","349","1400","Human","Debris and open burning","","2010/12/15 00:00:00+00","349","2000","0.1","A","36.5642","-96.1572","PRIVATE","OK","","",""
"-96.40719232","36.41749358","1210241","1468415","W-616811","FED","DOI-WFMI","BIA","USOKOSA","Osage Agency","OKOSA","Osage Agency","184","","FZ1S","ABBOTT","","","","","","2010","2010/12/16 00:00:00+00","350","0900","Human","Missing data/not specified/undetermined","","2010/12/16 00:00:00+00","350","1200","0.1","A","36.4175","-96.4072","BIA","OK","","",""
"-96.693592231","36.600293563","1210242","1468416","W-616813","FED","DOI-WFMI","BIA","USOKOSA","Osage Agency","OKOSA","Osage Agency","185","","FZ1V","BENNIE","","","","","","2010","2010/12/17 00:00:00+00","351","1045","Human","Missing data/not specified/undetermined","","2010/12/17 00:00:00+00","351","1500","0.7","B","36.6003","-96.6936","BIA","OK","","",""
"-96.347992319","36.624393541","1210243","1468417","W-616814","FED","DOI-WFMI","BIA","USOKOSA","Osage Agency","OKOSA","Osage Agency","186","","FZ2J","HULL","","","","","","2010","2010/12/17 00:00:00+00","351","2145","Human","Missing data/not specified/undetermined","","2010/12/18 00:00:00+00","352","1200","0.6","B","36.6244","-96.348","PRIVATE","OK","","",""
"-96.433292295","36.642193542","1210244","1468418","W-616876","FED","DOI-WFMI","BIA","USOKOSA","Osage Agency","OKOSA","Osage Agency","187","","FZ3F","ASHES","","","","","","2010","2010/12/20 00:00:00+00","354","1329","Human","Other causes","","2010/12/20 00:00:00+00","354","1458","4","B","36.6422","-96.4333","PRIVATE","OK","","",""
"-96.7857922","36.689393553","1210245","1468419","W-616877","FED","DOI-WFMI","BIA","USOKOSA","Osage Agency","OKOSA","Osage Agency","188","","FZ3G","JIM CREEK","","","","","","2010","2010/12/20 00:00:00+00","354","1405","Human","Arson/incendiarism","","2010/12/20 00:00:00+00","354","1645","117.8","D","36.6894","-96.7858","PRIVATE","OK","","",""
"-96.237992352","36.561393546","1210246","1468420","W-616879","FED","DOI-WFMI","BIA","USOKOSA","Osage Agency","OKOSA","Osage Agency","189","","FZ3V","THIEF","","","","","","2010","2010/12/22 00:00:00+00","356","1006","Human","Arson/incendiarism","","2010/12/22 00:00:00+00","356","1135","10.8","C","36.5614","-96.238","PRIVATE","OK","","",""
"-96.32219233","36.56499355","1210247","1468421","W-616918","FED","DOI-WFMI","BIA","USOKOSA","Osage Agency","OKOSA","Osage Agency","190","","FZ31","FRANCES","","","","","","2010","2010/12/22 00:00:00+00","356","1441","Human","Missing data/not specified/undetermined","","2010/12/22 00:00:00+00","356","1625","1.2","B","36.565","-96.3222","BIA","OK","","",""
"-96.648292252","36.483893581","1210248","1468422","W-616919","FED","DOI-WFMI","BIA","USOKOSA","Osage Agency","OKOSA","Osage Agency","191","","FZ4M","TURKEY","","","","","","2010","2010/12/22 00:00:00+00","356","1627","Human","Missing data/not specified/undetermined","","2010/12/23 00:00:00+00","357","1200","14.6","C","36.4839","-96.6483","PRIVATE","OK","","",""
"-96.32219233","36.56439355","1210249","1468423","W-616920","FED","DOI-WFMI","BIA","USOKOSA","Osage Agency","OKOSA","Osage Agency","192","","FZ4N","STRIKES AGAIN","","","","","","2010","2010/12/23 00:00:00+00","357","0345","Human","Missing data/not specified/undetermined","","2010/12/23 00:00:00+00","357","0525","14.2","C","36.5644","-96.3222","BIA","OK","","",""
"-96.607792254","36.59329356","1210250","1468424","W-617016","FED","DOI-WFMI","BIA","USOKOSA","Osage Agency","OKOSA","Osage Agency","193","","FZ43","KIRK","","","","","","2010","2010/12/27 00:00:00+00","361","1521","Human","Missing data/not specified/undetermined","","2010/12/27 00:00:00+00","361","1745","75","C","36.5933","-96.6078","BIA","OK","","",""
"-95.495792697","34.516093879","1210251","1468425","W-597986","FED","DOI-WFMI","BIA","USOKTLA","Talihina Agency","OKTLA","Talihina Agency","1001","","E89W","CRUMB CREEK","","","","","","2010","2010/01/12 00:00:00+00","12","1300","Human","Debris and open burning","","2010/01/12 00:00:00+00","12","2000","23","C","34.5161","-95.4958","BIA","OK","","",""
"-95.796692588","34.968293809","1210252","1468426","W-598860","FED","DOI-WFMI","BIA","USOKTLA","Talihina Agency","OKTLA","Talihina Agency","1002","","E9GD","LETTA BURN","","","","","","2010","2010/02/18 00:00:00+00","49","1500","Human","Debris and open burning","","2010/02/18 00:00:00+00","49","1930","380","E","34.9683","-95.7967","BIA","OK","","",""
"-95.797792587","34.981093807","1210253","1468427","W-599402","FED","DOI-WFMI","BIA","USOKTLA","Talihina Agency","OKTLA","Talihina Agency","1003","","E9LB","WATER WORKS","","","","","","2010","2010/03/03 00:00:00+00","62","1020","Human","Arson/incendiarism","","2010/03/03 00:00:00+00","62","1300","38","C","34.9811","-95.7978","BIA","OK","","",""
"-94.840292866","34.542193843","1210254","1468428","W-599464","FED","DOI-WFMI","BIA","USOKTLA","Talihina Agency","OKTLA","Talihina Agency","1004","","E9P3","EC40","","","","","","2010","2010/03/06 00:00:00+00","65","1143","Human","Debris and open burning","","2010/03/06 00:00:00+00","65","1720","52","C","34.5422","-94.8403","BIA","OK","","",""
"-96.160292499","34.893293841","1210255","1468429","W-599629","FED","DOI-WFMI","BIA","USOKTLA","Talihina Agency","OKTLA","Talihina Agency","1005","","E9RR","HICKORY HILLS","","","","","","2010","2010/03/07 00:00:00+00","66","1330","Human","Debris and open burning","","2010/03/07 00:00:00+00","66","1500","12.1","C","34.8933","-96.1603","PRIVATE","OK","","",""
"-96.062792541","34.65389388","1210256","1468430","W-599588","FED","DOI-WFMI","BIA","USOKTLA","Talihina Agency","OKTLA","Talihina Agency","1006","","E9TR","LOMAN","","","","","","2010","2010/03/13 00:00:00+00","72","1130","Human","Debris and open burning","","2010/03/13 00:00:00+00","72","1300","640","E","34.6539","-96.0628","BIA","OK","","",""
"-95.776692592","34.977493807","1210257","1468431","W-599648","FED","DOI-WFMI","BIA","USOKTLA","Talihina Agency","OKTLA","Talihina Agency","1007","","E9VR","TALAWANDA","2010_OK-TLA-001007_TALAWANDA","","","","","2010","2010/03/16 00:00:00+00","75","1600","Human","Debris and open burning","","2010/03/18 00:00:00+00","77","1200","248","D","34.9775","-95.7767","BIA","OK","","",""
"-95.797992587","34.976393808","1210258","1468432","W-599650","FED","DOI-WFMI","BIA","USOKTLA","Talihina Agency","OKTLA","Talihina Agency","1009","","E9WD","TALAWANDA 2","","","","","","2010","2010/03/17 00:00:00+00","76","1200","Human","Debris and open burning","","2010/03/17 00:00:00+00","76","1202","13","C","34.9764","-95.798","BIA","OK","","",""
"-95.796392586","34.987493806","1210259","1468433","W-599651","FED","DOI-WFMI","BIA","USOKTLA","Talihina Agency","OKTLA","Talihina Agency","1010","","E9WE","TALAWANDA 3","","","","","","2010","2010/03/17 00:00:00+00","76","1200","Human","Debris and open burning","","2010/03/17 00:00:00+00","76","1202","27","C","34.9875","-95.7964","BIA","OK","","",""
"-95.78389259","34.989193805","1210260","1468434","W-599649","FED","DOI-WFMI","BIA","USOKTLA","Talihina Agency","OKTLA","Talihina Agency","1008","","E9WC","OMG","","","","","","2010","2010/03/17 00:00:00+00","76","1500","Human","Debris and open burning","","2010/03/17 00:00:00+00","76","1645","41","C","34.9892","-95.7839","BIA","OK","","",""
"-94.625292932","34.402793859","1210261","1468435","W-600437","FED","DOI-WFMI","BIA","USOKTLA","Talihina Agency","OKTLA","Talihina Agency","1015","","FA9T","SOUTH NANICHITO","2010_OK-SEU-10-10046_SOUTH NANICHITO","","","","","2010","2010/03/19 00:00:00+00","78","1315","Human","Arson/incendiarism","","2010/03/22 00:00:00+00","81","1730","257","D","34.4028","-94.6253","BIA","OK","","",""
"-95.092698785","34.766725813","1210262","1468436","W-599910","FED","DOI-WFMI","BIA","USOKTLA","Talihina Agency","OKTLA","Talihina Agency","1011","","FAH3","REHAB FIRE","","","","","","2010","2010/03/29 00:00:00+00","88","0910","Human","Debris and open burning","","2010/03/30 00:00:00+00","89","1200","1","B","34.766732","-95.092706","BIA","OK","","",""
"-95.109992782","34.738593819","1210263","1468437","W-599962","FED","DOI-WFMI","BIA","USOKTLA","Talihina Agency","OKTLA","Talihina Agency","1013","","FAT4","PLANTATION FIRE","","","","","","2010","2010/03/31 00:00:00+00","90","1310","Human","Equipment and vehicle use","","2010/04/01 00:00:00+00","91","1200","0.5","B","34.7386","-95.11","PRIVATE","OK","","",""
"-95.286892743","34.637193846","1210264","1468438","W-599961","FED","DOI-WFMI","BIA","USOKTLA","Talihina Agency","OKTLA","Talihina Agency","1012","","FAT3","RV FIRE","","","","","","2010","2010/03/31 00:00:00+00","90","1310","Human","Debris and open burning","","2010/04/01 00:00:00+00","91","1200","25","C","34.6372","-95.2869","BIA","OK","","",""
"-95.608292652","34.744993841","1210265","1468439","W-614592","FED","DOI-WFMI","BIA","USOKTLA","Talihina Agency","OKTLA","Talihina Agency","2001","","FG4Z","EC 20094","2010_OK-ECU-10-20094_STRUTTIN TOM","","","","","2010","2010/03/31 00:00:00+00","90","1420","Human","Debris and open burning","","2010/03/31 00:00:00+00","90","1913","155.3","D","34.745","-95.6083","PRIVATE","OK","","",""
"-95.292992742","34.624993849","1210266","1468440","W-600300","FED","DOI-WFMI","BIA","USOKTLA","Talihina Agency","OKTLA","Talihina Agency","1014","","FA79","NEW BRIDGE","","","","","","2010","2010/04/07 00:00:00+00","97","0427","Human","Arson/incendiarism","","2010/04/07 00:00:00+00","97","0527","1","B","34.625","-95.293","BIA","OK","","",""
"-95.321392733","34.655793844","1210267","1468441","W-601215","FED","DOI-WFMI","BIA","USOKTLA","Talihina Agency","OKTLA","Talihina Agency","1016","","FC9T","GREEN FIRE","","","","","","2010","2010/04/29 00:00:00+00","119","1230","Human","Recreation and ceremony","","2010/04/29 00:00:00+00","119","1330","1","B","34.6558","-95.3214","BIA","OK","","",""
"-95.322192733","34.652993845","1210268","1468442","W-604701","FED","DOI-WFMI","BIA","USOKTLA","Talihina Agency","OKTLA","Talihina Agency","1017","","FL9H","CRAWDAD","","","","","","2010","2010/07/19 00:00:00+00","200","2027","Human","Fireworks","","2010/07/19 00:00:00+00","200","2310","0.5","B","34.653","-95.3222","BIA","OK","","",""
"-95.267192749","34.623593848","1210269","1468443","W-605677","FED","DOI-WFMI","BIA","USOKTLA","Talihina Agency","OKTLA","Talihina Agency","1018","","FN5W","WORKMAN FIRE","","","","","","2010","2010/07/30 00:00:00+00","211","1500","Human","Power generation/transmission/distribution","","2010/07/30 00:00:00+00","211","1610","4","B","34.6236","-95.2672","PRIVATE","OK","","",""
