"ï»¿X","Y","OBJECTID","FOD_ID","FPA_ID","SOURCE_SYSTEM_TYPE","SOURCE_SYSTEM","NWCG_REPORTING_AGENCY","NWCG_REPORTING_UNIT_ID","NWCG_REPORTING_UNIT_NAME","SOURCE_REPORTING_UNIT","SOURCE_REPORTING_UNIT_NAME","LOCAL_FIRE_REPORT_ID","LOCAL_INCIDENT_ID","FIRE_CODE","FIRE_NAME","ICS_209_PLUS_INCIDENT_JOIN_ID","ICS_209_PLUS_COMPLEX_JOIN_ID","MTBS_ID","MTBS_FIRE_NAME","COMPLEX_NAME","FIRE_YEAR","DISCOVERY_DATE","DISCOVERY_DOY","DISCOVERY_TIME","NWCG_CAUSE_CLASSIFICATION","NWCG_GENERAL_CAUSE","NWCG_CAUSE_AGE_CATEGORY","CONT_DATE","CONT_DOY","CONT_TIME","FIRE_SIZE","FIRE_SIZE_CLASS","LATITUDE","LONGITUDE","OWNER_DESCR","STATE","COUNTY","FIPS_CODE","FIPS_NAME"
"-120.690949977","38.395794875","1480001","201149790","SFO-2011CACDFAEU022120","NONFED","ST-NASF","ST/C&L","USCAAEU","Amador-El Dorado Unit","CAAEU","Amador-El Dorado Unit","","AEU022120","","QUARTZ","","","","","","2011","2011/09/19 00:00:00+00","262","2235","Human","Missing data/not specified/undetermined","","","","","1","B","38.3958","-120.690963","MISSING/NOT SPECIFIED","CA","AMADOR","06005","Amador County"
"-122.129081908","37.068333094","1480002","201149791","SFO-2011CACDFCZU010218","NONFED","ST-NASF","ST/C&L","USCACZU","San Mateo-Santa Cruz Unit","CACZU","San Mateo-Santa Cruz Unit","","CZU010218","","SUNLIT","","","","","","2011","2011/12/02 00:00:00+00","336","1920","Human","Equipment and vehicle use","","","","","1","B","37.068338","-122.129095","MISSING/NOT SPECIFIED","CA","SANTA CRUZ","06087","Santa Cruz County"
"-117.106377008","34.039995081","1480003","201149792","SFO-2011CACDFBDU011030","NONFED","ST-NASF","ST/C&L","USCABDU","San Bernardino Unit","CABDU","CDF - San Bernardino Unit","","BDU011030","","COLLEGE","","","","","","2011","2011/09/27 00:00:00+00","270","1235","Human","Equipment and vehicle use","","","","","5","B","34.04","-117.106389","MISSING/NOT SPECIFIED","CA","SAN BERNARDINO","06071","San Bernardino County"
"-120.495297262","36.088279072","1480004","201149793","SFO-2011CACDFFKU012189","NONFED","ST-NASF","ST/C&L","USCAFKU","Fresno-Kings Unit","CAFKU","CDF - Fresno-Kings Unit","","FKU012189","","CANYON","","","","","","2011","2011/10/08 00:00:00+00","281","1559","Missing data/not specified/undetermined","Missing data/not specified/undetermined","","","","","1","B","36.088284","-120.49531","MISSING/NOT SPECIFIED","CA","FRESNO","06019","Fresno County"
"-121.660584906","37.719370005","1480005","201149794","SFO-2011CACDFSCU000220","NONFED","ST-NASF","ST/C&L","USCASCU","Santa Clara Unit","CASCU","Santa Clara Unit","","SCU000220","","I 580  / CARROLL RD","","","","","","2011","2011/01/24 00:00:00+00","24","1050","Missing data/not specified/undetermined","Missing data/not specified/undetermined","","","","","0.1","A","37.719375","-121.660598","MISSING/NOT SPECIFIED","CA","ALAMEDA","06001","Alameda County"
"-121.59426565","39.847036825","1480006","201149795","SFO-2011CACDFBTU009150","NONFED","ST-NASF","ST/C&L","USCABTU","Butte Unit","CABTU","Butte Unit","","BTU009150","","DEL ORO DR  MGLA","","","","","","2011","2011/07/30 00:00:00+00","211","1014","Human","Debris and open burning","","","","","0.01","A","39.847042","-121.594279","MISSING/NOT SPECIFIED","CA","BUTTE","06007","Butte County"
"-121.011375878","38.790550866","1480007","201149796","SFO-2011CACDFAEU015594","NONFED","ST-NASF","ST/C&L","USCAAEU","Amador-El Dorado Unit","CAAEU","Amador-El Dorado Unit","","AEU015594","","EQUESTRIAN","","","","","","2011","2011/07/16 00:00:00+00","197","1258","Human","Equipment and vehicle use","","","","","3.4","B","38.790556","-121.011389","MISSING/NOT SPECIFIED","CA","EL DORADO","06017","El Dorado County"
"-117.50012391","34.400866063","1480008","201149797","SFO-2011CACDFBDU007279","NONFED","ST-NASF","ST/C&L","USCABDU","San Bernardino Unit","CABDU","CDF - San Bernardino Unit","","BDU007279","","9G 3","","","","","","2011","2011/07/04 00:00:00+00","185","1023","Human","Missing data/not specified/undetermined","","","","","1","B","34.400871","-117.500136","MISSING/NOT SPECIFIED","CA","SAN BERNARDINO","06071","San Bernardino County"
"-120.864383977","38.168389908","1480009","201149798","SFO-2011CACDFTCU008720","NONFED","ST-NASF","ST/C&L","USCATCU","Tuolumne-Calaveras Unit","CATCU","Tuolumne-Calaveras Unit","","TCU008720","","DIDIER RD  RANCHO_CALAVER","","","","","","2011","2011/10/02 00:00:00+00","275","1417","Human","Debris and open burning","","","","","0.1","A","38.168395","-120.864397","MISSING/NOT SPECIFIED","CA","CALAVERAS","06009","Calaveras County"
"-117.184964072","33.033570203","1480010","201149799","SFO-2011CACDFMVU010684","NONFED","ST-NASF","ST/C&L","USCAMVU","San Diego Unit","CAMVU","CDF - Monte Vista Unit","","MVU010684","","PALMA","","","","","","2011","2011/09/23 00:00:00+00","266","1547","Human","Missing data/not specified/undetermined","","","","","0.2","A","33.033575","-117.184976","MISSING/NOT SPECIFIED","CA","SAN DIEGO","06073","San Diego County"
"-121.609986481","41.010994736","1480011","201149800","SFO-2011CACDFSHU007283","NONFED","ST-NASF","ST/C&L","USCASHU","Shasta-Trinity Unit","CASHU","Shasta-Trinity Unit","","SHU007283","","BATT 1 LCA 1-13","","","","","","2011","2011/09/14 00:00:00+00","257","1300","Natural","Natural","","","","","0.25","A","41.011","-121.61","MISSING/NOT SPECIFIED","CA","SHASTA","06089","Shasta County"
"-122.453597627","39.023050958","1480012","201149801","SFO-2011CACDFLNU007434","NONFED","ST-NASF","ST/C&L","USCALNU","Sonoma-Lake Napa Unit","CALNU","Sonoma-Lake Napa Unit","","LNU007434","","WALKER","","","","","","2011","2011/09/16 00:00:00+00","259","1550","Human","Smoking","","","","","1","B","39.023056","-122.453611","UNDEFINED FEDERAL","CA","LAKE","06033","Lake County"
"-120.200286313","36.050614056","1480013","201149802","SFO-2011CACDFFKU005714","NONFED","ST-NASF","ST/C&L","USCAFKU","Fresno-Kings Unit","CAFKU","CDF - Fresno-Kings Unit","","FKU005714","","SUTTER AV / HWY 33","","","","","","2011","2011/05/28 00:00:00+00","148","1540","Human","Equipment and vehicle use","","","","","1","B","36.050619","-120.200299","MISSING/NOT SPECIFIED","CA","FRESNO","06019","Fresno County"
"-121.177765162","36.024717123","1480014","201149803","SFO-2011CACDFBEU002956","NONFED","ST-NASF","ST/C&L","USCABEU","San Benito-Monterey Unit","CABEU","CDF - San Benito-Monterey Unit","","BEU002956","","ARGYLE","2011_CA-BEU-2956_ARGYLE","","","","","2011","2011/08/27 00:00:00+00","239","1351","Human","Recreation and ceremony","","","","","135","D","36.024722","-121.177778","UNDEFINED FEDERAL","CA","MONTEREY","06053","Monterey County"
"-121.342385969","37.597522993","1480015","201149804","SFO-2011CACDFSCU003326","NONFED","ST-NASF","ST/C&L","USCASCU","Santa Clara Unit","CASCU","Santa Clara Unit","","SCU003326","","I 5  / I 580","","","","","","2011","2011/08/19 00:00:00+00","231","1406","Missing data/not specified/undetermined","Missing data/not specified/undetermined","","","","","1","B","37.597528","-121.342399","MISSING/NOT SPECIFIED","CA","STANISLAUS","06099","Stanislaus County"
"-122.274186457","40.480364832","1480016","201149805","SFO-2011CACDFSHU003507","NONFED","ST-NASF","ST/C&L","USCASHU","Shasta-Trinity Unit","CASHU","Shasta-Trinity Unit","","SHU003507","","DERSCH RD / LOFTUS RD 2","","","","","","2011","2011/05/19 00:00:00+00","139","1300","Missing data/not specified/undetermined","Missing data/not specified/undetermined","","","","","1","B","40.48037","-122.2742","MISSING/NOT SPECIFIED","CA","SHASTA","06089","Shasta County"
"-122.974404581","38.775882018","1480017","201149806","SFO-2011CACDFLNU008221","NONFED","ST-NASF","ST/C&L","USCALNU","Sonoma-Lake Napa Unit","CALNU","Sonoma-Lake Napa Unit","","LNU008221","","RIVER RD  CLOVERDALE","","","","","","2011","2011/10/09 00:00:00+00","282","1818","Human","Debris and open burning","","","","","0.01","A","38.775887","-122.974418","MISSING/NOT SPECIFIED","CA","SONOMA","06097","Sonoma County"
"-122.17551789","37.171635089","1480018","201149808","SFO-2011CACDFCZU010227","NONFED","ST-NASF","ST/C&L","USCACZU","San Mateo-Santa Cruz Unit","CACZU","San Mateo-Santa Cruz Unit","","CZU010227","","HEARTWOOD","","","","","","2011","2011/12/03 00:00:00+00","337","0151","Human","Missing data/not specified/undetermined","","","","","0.1","A","37.17164","-122.175531","MISSING/NOT SPECIFIED","CA","SANTA CRUZ","06087","Santa Cruz County"
"-116.926472127","32.889861206","1480019","201149809","SFO-2011CACDFMVU005682","NONFED","ST-NASF","ST/C&L","USCAMVU","San Diego Unit","CAMVU","CDF - Monte Vista Unit","","MVU005682","","VICENTE","","","","","","2011","2011/05/26 00:00:00+00","146","1137","Human","Equipment and vehicle use","","","","","20","C","32.889866","-116.926484","MISSING/NOT SPECIFIED","CA","SAN DIEGO","06073","San Diego County"
"-121.38516577","39.184497862","1480020","201149810","SFO-2011CACDFNEU021950","NONFED","ST-NASF","ST/C&L","USCANEU","Nevada-Yuba-Placer Unit","CANEU","Nevada-Yuba-Placer Unit","","NEU021950","","HAMMONTON","","","","","","2011","2011/09/30 00:00:00+00","273","0901","Human","Equipment and vehicle use","","","","","1","B","39.184503","-121.385179","MISSING/NOT SPECIFIED","CA","YUBA","06115","Yuba County"
"-122.894255567","38.982892996","1480021","201149811","SFO-2011CACDFLNU005126","NONFED","ST-NASF","ST/C&L","USCALNU","Sonoma-Lake Napa Unit","CALNU","Sonoma-Lake Napa Unit","","LNU005126","","HIGHLAND","","","","","","2011","2011/07/04 00:00:00+00","185","1432","Human","Equipment and vehicle use","","","","","5","B","38.982898","-122.894269","MISSING/NOT SPECIFIED","CA","LAKE","06033","Lake County"
"-121.777208869","37.881939","1480022","201149812","SFO-2011CACDFSCU002696","NONFED","ST-NASF","ST/C&L","USCASCU","Santa Clara Unit","CASCU","Santa Clara Unit","","SCU002696","","DEER","","","","","","2011","2011/07/08 00:00:00+00","189","0014","Human","Arson/incendiarism","","","","","12","C","37.881944","-121.777222","MISSING/NOT SPECIFIED","CA","CONTRA COSTA","06013","Contra Costa County"
"-119.741023246","37.394210897","1480023","201149813","SFO-2011CACDFMMU014128","NONFED","ST-NASF","ST/C&L","USCAMMU","Merced-Mariposa Unit","CAMMU","CDF - Merced-Mariposa Unit","","MMU014128","","CROOKS","","","","","","2011","2011/09/14 00:00:00+00","257","2316","Human","Equipment and vehicle use","","","","","4.2","B","37.394216","-119.741036","MISSING/NOT SPECIFIED","CA","MADERA","06039","Madera County"
"-120.628863044","37.919021913","1480024","201149814","SFO-2011CACDFTCU006116","NONFED","ST-NASF","ST/C&L","USCATCU","Tuolumne-Calaveras Unit","CATCU","Tuolumne-Calaveras Unit","","TCU006116","","LITTLE","","","","","","2011","2011/07/18 00:00:00+00","199","1314","Human","Equipment and vehicle use","","","","","0.4","B","37.919027","-120.628876","MISSING/NOT SPECIFIED","CA","CALAVERAS","06009","Calaveras County"
"-121.023116926","38.386565901","1480025","201149815","SFO-2011CACDFAEU028257","NONFED","ST-NASF","ST/C&L","USCAAEU","Amador-El Dorado Unit","CAAEU","Amador-El Dorado Unit","","AEU028257","","RANCHO","","","","","","2011","2011/12/03 00:00:00+00","337","1446","Missing data/not specified/undetermined","Missing data/not specified/undetermined","","","","","0.1","A","38.386571","-121.02313","MISSING/NOT SPECIFIED","CA","AMADOR","06005","Amador County"
"-117.093599043","33.627217128","1480026","201149816","SFO-2011CACDFRRU058862","NONFED","ST-NASF","ST/C&L","USCARRU","Riverside Unit","CARRU","CDF - Riverside Unit","","RRU058862","","KELLER","","","","","","2011","2011/06/28 00:00:00+00","179","1216","Human","Smoking","","","","","0.25","A","33.627222","-117.093611","MISSING/NOT SPECIFIED","CA","RIVERSIDE","06065","Riverside County"
"-121.628091498","40.881264747","1480027","201149817","SFO-2011CACDFSHU005839","NONFED","ST-NASF","ST/C&L","USCASHU","Shasta-Trinity Unit","CASHU","Shasta-Trinity Unit","","SHU005839","","MOUNTAIN VIEW RD  BURN 11","","","","","","2011","2011/08/01 00:00:00+00","213","1527","Human","Misuse of fire by a minor","Minor","","","","1","B","40.88127","-121.628105","MISSING/NOT SPECIFIED","CA","SHASTA","06089","Shasta County"
"-116.973011102","33.116358182","1480028","201149818","SFO-2011CACDFMVU011442","NONFED","ST-NASF","ST/C&L","USCAMVU","San Diego Unit","CAMVU","CDF - Monte Vista Unit","","MVU011442","","WILD","","","","","","2011","2011/10/12 00:00:00+00","285","1143","Missing data/not specified/undetermined","Missing data/not specified/undetermined","","","","","4.1","B","33.116363","-116.973023","MISSING/NOT SPECIFIED","CA","SAN DIEGO","06073","San Diego County"
"-122.352346458","40.389643845","1480029","201149819","SFO-2011CACDFSHU008092","NONFED","ST-NASF","ST/C&L","USCASHU","Shasta-Trinity Unit","CASHU","Shasta-Trinity Unit","","SHU008092","","POINT 3","","","","","","2011","2011/10/07 00:00:00+00","280","1706","Human","Arson/incendiarism","","","","","0.25","A","40.389649","-122.35236","MISSING/NOT SPECIFIED","CA","SHASTA","06089","Shasta County"
"-121.00325685","39.028861845","1480030","201149820","SFO-2011CACDFNEU014761","NONFED","ST-NASF","ST/C&L","USCANEU","Nevada-Yuba-Placer Unit","CANEU","Nevada-Yuba-Placer Unit","","NEU014761","","PLACER","","","","","","2011","2011/07/04 00:00:00+00","185","1404","Human","Missing data/not specified/undetermined","","","","","1","B","39.028867","-121.00327","MISSING/NOT SPECIFIED","CA","PLACER","06061","Placer County"
"-120.757535939","38.622060861","1480031","201149821","SFO-2011CACDFAEU018184","NONFED","ST-NASF","ST/C&L","USCAAEU","Amador-El Dorado Unit","CAAEU","Amador-El Dorado Unit","","AEU018184","","SAND","","","","","","2011","2011/08/11 00:00:00+00","223","0843","Human","Equipment and vehicle use","","","","","1","B","38.622066","-120.757549","MISSING/NOT SPECIFIED","CA","EL DORADO","06017","El Dorado County"
"-121.073876069","37.07027302","1480032","201149822","SFO-2011CACDFMMU010860","NONFED","ST-NASF","ST/C&L","USCAMMU","Merced-Mariposa Unit","CAMMU","CDF - Merced-Mariposa Unit","","MMU010860","","SAN LUIS","","","","","","2011","2011/07/19 00:00:00+00","200","1700","Missing data/not specified/undetermined","Missing data/not specified/undetermined","","","","","40","C","37.070278","-121.073889","STATE","CA","MERCED","06047","Merced County"
"-116.832472139","32.947762195","1480033","201149823","SFO-2011CACDFMVU008089","NONFED","ST-NASF","ST/C&L","USCAMVU","San Diego Unit","CAMVU","CDF - Monte Vista Unit","","MVU008089","","FEATHERSTONE CANYON RD /","","","","","","2011","2011/07/23 00:00:00+00","204","1506","Human","Debris and open burning","","","","","0.1","A","32.947767","-116.832484","MISSING/NOT SPECIFIED","CA","SAN DIEGO","06073","San Diego County"
"-121.221410813","39.04661186","1480034","201149824","SFO-2011CACDFNEU022904","NONFED","ST-NASF","ST/C&L","USCANEU","Nevada-Yuba-Placer Unit","CANEU","Nevada-Yuba-Placer Unit","","NEU022904","","ROCK","","","","","","2011","2011/10/12 00:00:00+00","285","1436","Human","Equipment and vehicle use","","","","","5","B","39.046617","-121.221424","MISSING/NOT SPECIFIED","CA","NEVADA","06057","Nevada County"
"-122.611308227","41.666997775","1480035","201149825","SFO-2011CACDFSKU005180","NONFED","ST-NASF","ST/C&L","USCASKU","Siskiyou Unit","CASKU","Siskiyou Unit","","SKU005180","","EASY","","","","","","2011","2011/07/24 00:00:00+00","205","1555","Human","Misuse of fire by a minor","Minor","","","","1","B","41.667003","-122.611322","MISSING/NOT SPECIFIED","CA","SISKIYOU","06093","Siskiyou County"
"-118.722758572","35.85595498","1480036","201149826","SFO-2011CACDFTUU000112","NONFED","ST-NASF","ST/C&L","USCATUU","Tulare Unit","CATUU","Tulare Unit","","TUU000112","","E2 2","","","","","","2011","2011/06/19 00:00:00+00","170","1445","Human","Arson/incendiarism","","","","","0.5","B","35.85596","-118.722771","MISSING/NOT SPECIFIED","CA","TULARE","06107","Tulare County"
"-121.962186933","37.072824082","1480037","201149827","SFO-2011CACDFCZU009291","NONFED","ST-NASF","ST/C&L","USCACZU","San Mateo-Santa Cruz Unit","CACZU","San Mateo-Santa Cruz Unit","","CZU009291","","JARVIS","","","","","","2011","2011/11/01 00:00:00+00","305","2235","Human","Missing data/not specified/undetermined","","","","","1.1","B","37.072829","-121.9622","MISSING/NOT SPECIFIED","CA","SANTA CRUZ","06087","Santa Cruz County"
"-120.152743134","37.797729889","1480038","201149828","SFO-2011CACDFTCU008620","NONFED","ST-NASF","ST/C&L","USCATCU","Tuolumne-Calaveras Unit","CATCU","Tuolumne-Calaveras Unit","","TCU008620","","HOLLOW","","","","","","2011","2011/09/29 00:00:00+00","272","0413","Human","Smoking","","","","","1","B","37.797735","-120.152756","MISSING/NOT SPECIFIED","CA","TUOLUMNE","06109","Tuolumne County"
"-121.573327497","40.947940737","1480039","201149829","SFO-2011CACDFSHU004379","NONFED","ST-NASF","ST/C&L","USCASHU","Shasta-Trinity Unit","CASHU","Shasta-Trinity Unit","","SHU004379","","CRANE RD  CASSEL","","","","","","2011","2011/06/19 00:00:00+00","170","1421","Human","Debris and open burning","","","","","0.5","B","40.947946","-121.573341","MISSING/NOT SPECIFIED","CA","SHASTA","06089","Shasta County"
"-122.939856332","40.651234875","1480040","201149831","SFO-2011CACDFSHU007621","NONFED","ST-NASF","ST/C&L","USCASHU","Shasta-Trinity Unit","CASHU","Shasta-Trinity Unit","","SHU007621","","DOUGLAS 2","","","","","","2011","2011/09/23 00:00:00+00","266","0853","Human","Arson/incendiarism","","","","","0.1","A","40.65124","-122.93987","MISSING/NOT SPECIFIED","CA","TRINITY","06105","Trinity County"
"-121.978206509","40.431774811","1480041","201149832","SFO-2011CACDFSHU007422","NONFED","ST-NASF","ST/C&L","USCASHU","Shasta-Trinity Unit","CASHU","Shasta-Trinity Unit","","SHU007422","","WILDCAT TAC 11","","","","","","2011","2011/09/17 00:00:00+00","260","1932","Human","Power generation/transmission/distribution","","","","","1","B","40.43178","-121.97822","MISSING/NOT SPECIFIED","CA","SHASTA","06089","Shasta County"
"-121.981034931","37.062322085","1480042","201149833","SFO-2011CACDFCZU003084","NONFED","ST-NASF","ST/C&L","USCACZU","San Mateo-Santa Cruz Unit","CACZU","San Mateo-Santa Cruz Unit","","CZU003084","","JARVIS RD  BRANCIFORTE","","","","","","2011","2011/04/12 00:00:00+00","102","1443","Human","Debris and open burning","","","","","0.3","B","37.062327","-121.981048","MISSING/NOT SPECIFIED","CA","SANTA CRUZ","06087","Santa Cruz County"
"-120.940368955","38.255014906","1480043","201149834","SFO-2011CACDFAEU016540","NONFED","ST-NASF","ST/C&L","USCAAEU","Amador-El Dorado Unit","CAAEU","Amador-El Dorado Unit","","AEU016540","","CAMANCHE RD  JACKSON_VALL","","","","","","2011","2011/07/25 00:00:00+00","206","1456","Human","Equipment and vehicle use","","","","","4","B","38.25502","-120.940382","MISSING/NOT SPECIFIED","CA","AMADOR","06005","Amador County"
"-121.605736647","39.851760825","1480044","201149837","SFO-2011CACDFBTU009139","NONFED","ST-NASF","ST/C&L","USCABTU","Butte Unit","CABTU","Butte Unit","","BTU009139","","SKYWAY","","","","","","2011","2011/07/30 00:00:00+00","211","0151","Human","Arson/incendiarism","","","","","0.01","A","39.851766","-121.60575","MISSING/NOT SPECIFIED","CA","BUTTE","06007","Butte County"
"-117.161068002","33.995445089","1480045","201149838","SFO-2011CACDFRRU066420","NONFED","ST-NASF","ST/C&L","USCARRU","Riverside Unit","CARRU","CDF - Riverside Unit","","RRU066420","","SAN TIM","2011_CA-RRU-66420_SAN TIM","","","","","2011","2011/07/20 00:00:00+00","201","1400","Missing data/not specified/undetermined","Missing data/not specified/undetermined","","","","","80","C","33.99545","-117.16108","MISSING/NOT SPECIFIED","CA","RIVERSIDE","06065","Riverside County"
"-120.56862834","35.144997168","1480046","201149839","SFO-2011CACDFSLU008217","NONFED","ST-NASF","ST/C&L","USCASLU","San Luis Obispo Unit","CASLU","San Luis Obispo Unit","","SLU008217","","BEAR","","","","","","2011","2011/10/13 00:00:00+00","286","2140","Human","Equipment and vehicle use","","","","","1","B","35.145002","-120.568641","MISSING/NOT SPECIFIED","CA","SAN LUIS OBISPO","06079","San Luis Obispo County"
"-120.569987022","38.179994885","1480047","201149841","SFO-2011CACDFTCU007890","NONFED","ST-NASF","ST/C&L","USCATCU","Tuolumne-Calaveras Unit","CATCU","Tuolumne-Calaveras Unit","","TCU007890","","FRECCERO","2011_CA-TCU-007890_FRECCERO","","","","","2011","2011/09/07 00:00:00+00","250","1622","Human","Misuse of fire by a minor","Minor","","","","63","C","38.18","-120.57","MISSING/NOT SPECIFIED","CA","CALAVERAS","06009","Calaveras County"
"-122.350403319","41.329777776","1480048","201149842","SFO-2011CACDFSKU009376","NONFED","ST-NASF","ST/C&L","USCASKU","Siskiyou Unit","CASKU","Siskiyou Unit","","SKU009376","","TANAGER","","","","","","2011","2011/12/21 00:00:00+00","355","0641","Human","Missing data/not specified/undetermined","","","","","0.1","A","41.329783","-122.350417","MISSING/NOT SPECIFIED","CA","SISKIYOU","06093","Siskiyou County"
"-122.927800324","40.71716087","1480049","201149843","SFO-2011CACDFSHU005594","NONFED","ST-NASF","ST/C&L","USCASHU","Shasta-Trinity Unit","CASHU","Shasta-Trinity Unit","","SHU005594","","DAVIS DR / MAIN ST","","","","","","2011","2011/07/25 00:00:00+00","206","1305","Human","Missing data/not specified/undetermined","","","","","1","B","40.717166","-122.927814","MISSING/NOT SPECIFIED","CA","TRINITY","06105","Trinity County"
"-119.134769445","36.450003947","1480050","201149844","SFO-2011CACDFTUU000329","NONFED","ST-NASF","ST/C&L","USCATUU","Tulare Unit","CATUU","Tulare Unit","","TUU000329","","AVENUE 364   WOODLAKE","","","","","","2011","2011/08/30 00:00:00+00","242","0422","Missing data/not specified/undetermined","Missing data/not specified/undetermined","","","","","0.5","B","36.450009","-119.134782","MISSING/NOT SPECIFIED","CA","TULARE","06107","Tulare County"
"-119.469457308","37.232242894","1480051","201149845","SFO-2011CACDFMMU014065","NONFED","ST-NASF","ST/C&L","USCAMMU","Merced-Mariposa Unit","CAMMU","CDF - Merced-Mariposa Unit","","MMU014065","","CASCADEL","","","","","","2011","2011/09/13 00:00:00+00","256","1855","Natural","Natural","","","","","0.1","A","37.232248","-119.46947","MISSING/NOT SPECIFIED","CA","MADERA","06039","Madera County"
"-122.266930449","40.539716827","1480052","201149847","SFO-2011CACDFSHU005729","NONFED","ST-NASF","ST/C&L","USCASHU","Shasta-Trinity Unit","CASHU","Shasta-Trinity Unit","","SHU005729","","WHISPERING","","","","","","2011","2011/07/29 00:00:00+00","210","1232","Human","Misuse of fire by a minor","Minor","","","","5","B","40.539722","-122.266944","MISSING/NOT SPECIFIED","CA","SHASTA","06089","Shasta County"
"-120.571254747","40.313473704","1480053","201149848","SFO-2011CACDFLMU000504","NONFED","ST-NASF","ST/C&L","USCALMU","Lassen-Modoc Unit","CALMU","Lassen-Modoc Unit","","LMU000504","","ELYSIAN","","","","","","2011","2011/02/07 00:00:00+00","38","1228","Human","Debris and open burning","","","","","0.5","B","40.313479","-120.571268","MISSING/NOT SPECIFIED","CA","LASSEN","06035","Lassen County"
"-121.585789915","37.740282998","1480054","201149849","SFO-2011CACDFSCU004598","NONFED","ST-NASF","ST/C&L","USCASCU","Santa Clara Unit","CASCU","Santa Clara Unit","","SCU004598","","I 580  / GRANT LINE RD","","","","","","2011","2011/11/14 00:00:00+00","318","0346","Human","Missing data/not specified/undetermined","","","","","0.01","A","37.740288","-121.585803","MISSING/NOT SPECIFIED","CA","ALAMEDA","06001","Alameda County"
"-121.733158994","36.829134088","1480055","201149850","SFO-2011CACDFBEU002684","NONFED","ST-NASF","ST/C&L","USCABEU","San Benito-Monterey Unit","CABEU","CDF - San Benito-Monterey Unit","","BEU002684","","ELKHORN","","","","","","2011","2011/08/09 00:00:00+00","221","0038","Human","Missing data/not specified/undetermined","","","","","1","B","36.829139","-121.733172","MISSING/NOT SPECIFIED","CA","MONTEREY","06053","Monterey County"
"-119.764536236","37.444533894","1480056","201149851","SFO-2011CACDFMMU014577","NONFED","ST-NASF","ST/C&L","USCAMMU","Merced-Mariposa Unit","CAMMU","CDF - Merced-Mariposa Unit","","MMU014577","","WATT","","","","","","2011","2011/09/22 00:00:00+00","265","2221","Missing data/not specified/undetermined","Missing data/not specified/undetermined","","","","","1","B","37.444539","-119.764549","MISSING/NOT SPECIFIED","CA","MARIPOSA","06043","Mariposa County"
"-119.447209323","37.126105902","1480057","201149852","SFO-2011CACDFFKU009665","NONFED","ST-NASF","ST/C&L","USCAFKU","Fresno-Kings Unit","CAFKU","CDF - Fresno-Kings Unit","","FKU009665","","BASIN","","","","","","2011","2011/08/13 00:00:00+00","225","1322","Missing data/not specified/undetermined","Missing data/not specified/undetermined","","","","","6","B","37.126111","-119.447222","MISSING/NOT SPECIFIED","CA","FRESNO","06019","Fresno County"
"-119.517883311","37.124920907","1480058","201149853","SFO-2011CACDFFKU008108","NONFED","ST-NASF","ST/C&L","USCAFKU","Fresno-Kings Unit","CAFKU","CDF - Fresno-Kings Unit","","FKU008108","","POWER","","","","","","2011","2011/07/12 00:00:00+00","193","1339","Human","Equipment and vehicle use","","","","","1","B","37.124926","-119.517896","MISSING/NOT SPECIFIED","CA","FRESNO","06019","Fresno County"
"-120.897404911","38.669466867","1480059","201149854","SFO-2011CACDFAEU011905","NONFED","ST-NASF","ST/C&L","USCAAEU","Amador-El Dorado Unit","CAAEU","Amador-El Dorado Unit","","AEU011905","","MOTHER LODE DR / DOE ST","","","","","","2011","2011/06/08 00:00:00+00","159","1606","Human","Equipment and vehicle use","","","","","0.1","A","38.669472","-120.897418","MISSING/NOT SPECIFIED","CA","EL DORADO","06017","El Dorado County"
"-121.004309861","38.934453853","1480060","201149855","SFO-2011CACDFNEU012614","NONFED","ST-NASF","ST/C&L","USCANEU","Nevada-Yuba-Placer Unit","CANEU","Nevada-Yuba-Placer Unit","","NEU012614","","FORESTHILL","","","","","","2011","2011/06/09 00:00:00+00","160","1201","Human","Equipment and vehicle use","","","","","1.5","B","38.934459","-121.004323","UNDEFINED FEDERAL","CA","PLACER","06061","Placer County"
"-121.557064918","37.756091995","1480061","201149856","SFO-2011CACDFSCU001833","NONFED","ST-NASF","ST/C&L","USCASCU","Santa Clara Unit","CASCU","Santa Clara Unit","","SCU001833","","W GRANT LINE RD  TRACY","","","","","","2011","2011/05/12 00:00:00+00","132","1903","Human","Equipment and vehicle use","","","","","1","B","37.756097","-121.557078","MISSING/NOT SPECIFIED","CA","SAN JOAQUIN","06077","San Joaquin County"
"-116.919020151","32.577778243","1480062","201149857","SFO-2011CACDFMVU005855","NONFED","ST-NASF","ST/C&L","USCAMVU","San Diego Unit","CAMVU","CDF - Monte Vista Unit","","MVU005855","","BORDER 5","","","","","","2011","2011/05/30 00:00:00+00","150","1331","Missing data/not specified/undetermined","Missing data/not specified/undetermined","","","","","2","B","32.577783","-116.919032","MISSING/NOT SPECIFIED","CA","SAN DIEGO","06073","San Diego County"
"-121.360264483","41.261661695","1480063","201149858","SFO-2011CACDFLMU003709","NONFED","ST-NASF","ST/C&L","USCALMU","Lassen-Modoc Unit","CALMU","Lassen-Modoc Unit","","LMU003709","","TAYLOR","","","","","","2011","2011/08/27 00:00:00+00","239","1322","Missing data/not specified/undetermined","Missing data/not specified/undetermined","","","","","0.1","A","41.261667","-121.360278","MISSING/NOT SPECIFIED","CA","MODOC","06049","Modoc County"
"-117.35165498","33.858884116","1480064","201149859","SFO-2011CACDFRRU078544","NONFED","ST-NASF","ST/C&L","USCARRU","Riverside Unit","CARRU","CDF - Riverside Unit","","RRU078544","","TIMBERVIEW","","","","","","2011","2011/08/26 00:00:00+00","238","1632","Human","Missing data/not specified/undetermined","","","","","1.9","B","33.858889","-117.351667","MISSING/NOT SPECIFIED","CA","RIVERSIDE","06065","Riverside County"
"-121.119562854","38.846399869","1480065","201149860","SFO-2011CACDFNEU013649","NONFED","ST-NASF","ST/C&L","USCANEU","Nevada-Yuba-Placer Unit","CANEU","Nevada-Yuba-Placer Unit","","NEU013649","","NEWCASTLE","","","","","","2011","2011/06/21 00:00:00+00","172","1110","Human","Equipment and vehicle use","","","","","0.1","A","38.846405","-121.119576","MISSING/NOT SPECIFIED","CA","PLACER","06061","Placer County"
"-117.361650954","34.161561082","1480066","201149861","SFO-2011CACDFBDU012902","NONFED","ST-NASF","ST/C&L","USCABDU","San Bernardino Unit","CABDU","CDF - San Bernardino Unit","","BDU012902","","RESERVOIR DR / GRAY ST","","","","","","2011","2011/11/14 00:00:00+00","318","1145","Human","Arson/incendiarism","","","","","0.01","A","34.161566","-117.361663","MISSING/NOT SPECIFIED","CA","SAN BERNARDINO","06071","San Bernardino County"
"-116.580820098","34.05400205","1480067","201149862","SFO-2011CACDFBDU008181","NONFED","ST-NASF","ST/C&L","USCABDU","San Bernardino Unit","CABDU","CDF - San Bernardino Unit","","BDU008181","","PIONEER 3","","","","","","2011","2011/07/24 00:00:00+00","205","1203","Human","Arson/incendiarism","","","","","0.02","A","34.054007","-116.580832","MISSING/NOT SPECIFIED","CA","SAN BERNARDINO","06071","San Bernardino County"
"-123.67065336","39.688495005","1480068","201149863","SFO-2011CACDFMEU005103","NONFED","ST-NASF","ST/C&L","USCAMEU","Mendocino Unit","CAMEU","Mendocino Unit","","MEU005103","","LODGE","","","","","","2011","2011/07/25 00:00:00+00","206","1451","Missing data/not specified/undetermined","Missing data/not specified/undetermined","","","","","0.25","A","39.6885","-123.670667","MISSING/NOT SPECIFIED","CA","MENDOCINO","06045","Mendocino County"
"-121.604901906","37.794868995","1480069","201149864","SFO-2011CACDFSCU002375","NONFED","ST-NASF","ST/C&L","USCASCU","Santa Clara Unit","CASCU","Santa Clara Unit","","SCU002375","","BRUNS RD / KELSO RD","","","","","","2011","2011/06/23 00:00:00+00","174","0436","Human","Missing data/not specified/undetermined","","","","","4","B","37.794874","-121.604915","MISSING/NOT SPECIFIED","CA","ALAMEDA","06001","Alameda County"
"-120.656515052","37.813336924","1480070","201149865","SFO-2011CACDFTCU004899","NONFED","ST-NASF","ST/C&L","USCATCU","Tuolumne-Calaveras Unit","CATCU","Tuolumne-Calaveras Unit","","TCU004899","","WILLMS","","","","","","2011","2011/06/17 00:00:00+00","168","0007","Human","Arson/incendiarism","","","","","2","B","37.813342","-120.656528","MISSING/NOT SPECIFIED","CA","STANISLAUS","06099","Stanislaus County"
"-120.502487277","35.926939088","1480071","201149866","SFO-2011CACDFBEU002774","NONFED","ST-NASF","ST/C&L","USCABEU","San Benito-Monterey Unit","CABEU","CDF - San Benito-Monterey Unit","","BEU002774","","SLACKS","","","","","","2011","2011/08/15 00:00:00+00","227","1006","Human","Equipment and vehicle use","","","","","20","C","35.926944","-120.5025","MISSING/NOT SPECIFIED","CA","MONTEREY","06053","Monterey County"
"-122.456685686","38.553103995","1480072","201149867","SFO-2011CACDFLNU008849","NONFED","ST-NASF","ST/C&L","USCALNU","Sonoma-Lake Napa Unit","CALNU","Sonoma-Lake Napa Unit","","LNU008849","","DEER","","","","","","2011","2011/11/02 00:00:00+00","306","0755","Missing data/not specified/undetermined","Missing data/not specified/undetermined","","","","","1","B","38.553109","-122.456699","MISSING/NOT SPECIFIED","CA","NAPA","06055","Napa County"
"-120.404768074","37.965465892","1480073","201149868","SFO-2011CACDFTCU010804","NONFED","ST-NASF","ST/C&L","USCATCU","Tuolumne-Calaveras Unit","CATCU","Tuolumne-Calaveras Unit","","TCU010804","","NORTH","","","","","","2011","2011/12/07 00:00:00+00","341","1435","Human","Debris and open burning","","","","","1","B","37.965471","-120.404781","MISSING/NOT SPECIFIED","CA","TUOLUMNE","06109","Tuolumne County"
"-122.190355791","38.015641019","1480074","201149869","SFO-2011CACDFSCU001838","NONFED","ST-NASF","ST/C&L","USCASCU","Santa Clara Unit","CASCU","Santa Clara Unit","","SCU001838","","HWY 4  / CUMMINGS SKWY","","","","","","2011","2011/05/13 00:00:00+00","133","1238","Missing data/not specified/undetermined","Missing data/not specified/undetermined","","","","","1.5","B","38.015646","-122.190369","MISSING/NOT SPECIFIED","CA","CONTRA COSTA","06013","Contra Costa County"
"-121.869986853","37.904995005","1480075","201149870","SFO-2011CACDFSCU004830","NONFED","ST-NASF","ST/C&L","USCASCU","Santa Clara Unit","CASCU","Santa Clara Unit","","SCU004830","","MORGAN TERRITORY RD / MAR","","","","","","2011","2011/12/03 00:00:00+00","337","0518","Human","Power generation/transmission/distribution","","","","","12","C","37.905","-121.87","MISSING/NOT SPECIFIED","CA","CONTRA COSTA","06013","Contra Costa County"
"-122.550777691","38.398748015","1480076","201149871","SFO-2011CACDFLNU005871","NONFED","ST-NASF","ST/C&L","USCALNU","Sonoma-Lake Napa Unit","CALNU","Sonoma-Lake Napa Unit","","LNU005871","","DAWN HILL RD / WARM SPRIN","","","","","","2011","2011/07/27 00:00:00+00","208","1858","Human","Misuse of fire by a minor","Minor","","","","1","B","38.398753","-122.550791","MISSING/NOT SPECIFIED","CA","SONOMA","06097","Sonoma County"
"-120.209116095","38.05559787","1480077","201149872","SFO-2011CACDFTCU011420","NONFED","ST-NASF","ST/C&L","USCATCU","Tuolumne-Calaveras Unit","CATCU","Tuolumne-Calaveras Unit","","TCU011420","","MICHIGAN","","","","","","2011","2011/12/25 00:00:00+00","359","2012","Missing data/not specified/undetermined","Missing data/not specified/undetermined","","","","","0.25","A","38.055603","-120.209129","MISSING/NOT SPECIFIED","CA","TUOLUMNE","06109","Tuolumne County"
"-122.518366579","39.31870794","1480078","201149873","SFO-2011CACDFLNU004594","NONFED","ST-NASF","ST/C&L","USCALNU","Sonoma-Lake Napa Unit","CALNU","Sonoma-Lake Napa Unit","","LNU004594","","ROUNDUP","","","","","","2011","2011/06/19 00:00:00+00","170","0830","Human","Recreation and ceremony","","","","","0.1","A","39.318713","-122.51838","UNDEFINED FEDERAL","CA","COLUSA","06011","Colusa County"
"-121.511684708","39.504142846","1480079","201149874","SFO-2011CACDFBTU011403","NONFED","ST-NASF","ST/C&L","USCABTU","Butte Unit","CABTU","Butte Unit","","BTU011403","","VISTA","","","","","","2011","2011/09/13 00:00:00+00","256","1231","Human","Missing data/not specified/undetermined","","","","","0.1","A","39.504148","-121.511698","MISSING/NOT SPECIFIED","CA","BUTTE","06007","Butte County"
"-120.720373933","38.720088849","1480080","201149875","SFO-2011CACDFAEU014007","NONFED","ST-NASF","ST/C&L","USCAAEU","Amador-El Dorado Unit","CAAEU","Amador-El Dorado Unit","","AEU014007","","NEWTOWN RD  PLACERVILLE","","","","","","2011","2011/07/01 00:00:00+00","182","1234","Human","Debris and open burning","","","","","0.1","A","38.720094","-120.720387","MISSING/NOT SPECIFIED","CA","EL DORADO","06017","El Dorado County"
"-119.68020627","37.264172905","1480081","201149876","SFO-2011CACDFMMU009414","NONFED","ST-NASF","ST/C&L","USCAMMU","Merced-Mariposa Unit","CAMMU","CDF - Merced-Mariposa Unit","","MMU009414","","COARSEGOLD","","","","","","2011","2011/06/25 00:00:00+00","176","2311","Human","Equipment and vehicle use","","","","","1","B","37.264178","-119.680219","MISSING/NOT SPECIFIED","CA","MADERA","06039","Madera County"
"-121.561569931","37.631612006","1480082","201149877","SFO-2011CACDFSCU004103","NONFED","ST-NASF","ST/C&L","USCASCU","Santa Clara Unit","CASCU","Santa Clara Unit","","SCU004103","","CORRAL","","","","","","2011","2011/10/08 00:00:00+00","281","1536","Human","Missing data/not specified/undetermined","","","","","0.1","A","37.631617","-121.561583","STATE","CA","ALAMEDA","06001","Alameda County"
"-120.928726172","36.30946108","1480083","201149878","SFO-2011CACDFBEU002168","NONFED","ST-NASF","ST/C&L","USCABEU","San Benito-Monterey Unit","CABEU","CDF - San Benito-Monterey Unit","","BEU002168","","LEWIS","","","","","","2011","2011/06/30 00:00:00+00","181","1128","Human","Equipment and vehicle use","","","","","34","C","36.309466","-120.928739","MISSING/NOT SPECIFIED","CA","SAN BENITO","06069","San Benito County"
"-123.233263468","39.362124994","1480084","201149879","SFO-2011CACDFMEU004755","NONFED","ST-NASF","ST/C&L","USCAMEU","Mendocino Unit","CAMEU","Mendocino Unit","","MEU004755","","TOMKI RD  REDV","","","","","","2011","2011/07/12 00:00:00+00","193","1350","Missing data/not specified/undetermined","Missing data/not specified/undetermined","","","","","0.8","B","39.36213","-123.233277","MISSING/NOT SPECIFIED","CA","MENDOCINO","06045","Mendocino County"
"-120.636806302","35.445526143","1480085","201149880","SFO-2011CACDFSLU007215","NONFED","ST-NASF","ST/C&L","USCASLU","San Luis Obispo Unit","CASLU","San Luis Obispo Unit","","SLU007215","","VEGFIRE","","","","","","2011","2011/09/07 00:00:00+00","250","1544","Human","Missing data/not specified/undetermined","","","","","0.4","B","35.445531","-120.636819","MISSING/NOT SPECIFIED","CA","SAN LUIS OBISPO","06079","San Luis Obispo County"
"-122.715258676","38.319328034","1480086","201149881","SFO-2011CACDFLNU008330","NONFED","ST-NASF","ST/C&L","USCALNU","Sonoma-Lake Napa Unit","CALNU","Sonoma-Lake Napa Unit","","LNU008330","","SIERRA","","","","","","2011","2011/10/13 00:00:00+00","286","1559","Human","Equipment and vehicle use","","","","","0.5","B","38.319333","-122.715272","MISSING/NOT SPECIFIED","CA","SONOMA","06097","Sonoma County"
"-122.295175524","39.979809871","1480087","201149882","SFO-2011CACDFTGU002963","NONFED","ST-NASF","ST/C&L","USCATGU","Tehama-Glenn Unit","CATGU","Tehama-Glenn Unit","","TGU002963","","CANAL/TCFD","","","","","","2011","2011/05/01 00:00:00+00","121","1353","Human","Debris and open burning","","","","","0.25","A","39.979815","-122.295189","MISSING/NOT SPECIFIED","CA","TEHAMA","06103","Tehama County"
"-121.213387123","36.356530095","1480088","201149883","SFO-2011CACDFBEU002434","NONFED","ST-NASF","ST/C&L","USCABEU","San Benito-Monterey Unit","CABEU","CDF - San Benito-Monterey Unit","","BEU002434","","TOPO","","","","","","2011","2011/07/19 00:00:00+00","200","0741","Human","Missing data/not specified/undetermined","","","","","28","C","36.356535","-121.2134","MISSING/NOT SPECIFIED","CA","MONTEREY","06053","Monterey County"
"-117.121196064","33.287895169","1480089","201149884","SFO-2011CACDFMVU012179","NONFED","ST-NASF","ST/C&L","USCAMVU","San Diego Unit","CAMVU","CDF - Monte Vista Unit","","MVU012179","","LILAC 7","","","","","","2011","2011/11/01 00:00:00+00","305","0050","Missing data/not specified/undetermined","Missing data/not specified/undetermined","","","","","0.12","A","33.2879","-117.121208","MISSING/NOT SPECIFIED","CA","SAN DIEGO","06073","San Diego County"
"-120.598886879","39.30139479","1480090","201149885","SFO-2011CACDFNEU020614","NONFED","ST-NASF","ST/C&L","USCANEU","Nevada-Yuba-Placer Unit","CANEU","Nevada-Yuba-Placer Unit","","NEU020614","","TNF-1732 MEADOW","","","","","","2011","2011/09/12 00:00:00+00","255","1317","Natural","Natural","","","","","0.1","A","39.3014","-120.5989","MISSING/NOT SPECIFIED","CA","NEVADA","06057","Nevada County"
"-120.643636948","38.700127845","1480091","201149886","SFO-2011CACDFAEU021588","NONFED","ST-NASF","ST/C&L","USCAAEU","Amador-El Dorado Unit","CAAEU","Amador-El Dorado Unit","","AEU021588","","2-JAN","","","","","","2011","2011/09/13 00:00:00+00","256","1152","Human","Missing data/not specified/undetermined","","","","","0.25","A","38.700133","-120.64365","MISSING/NOT SPECIFIED","CA","EL DORADO","06017","El Dorado County"
"-122.279025535","39.914533875","1480092","201149887","SFO-2011CACDFTGU002764","NONFED","ST-NASF","ST/C&L","USCATGU","Tehama-Glenn Unit","CATGU","Tehama-Glenn Unit","","TGU002764","","CHITTENDEN RD / BLACK B 2","","","","","","2011","2011/04/22 00:00:00+00","112","1513","Human","Debris and open burning","","","","","100","D","39.914539","-122.279039","MISSING/NOT SPECIFIED","CA","TEHAMA","06103","Tehama County"
"-120.637155043","37.912542914","1480093","201149888","SFO-2011CACDFTCU004678","NONFED","ST-NASF","ST/C&L","USCATCU","Tuolumne-Calaveras Unit","CATCU","Tuolumne-Calaveras Unit","","TCU004678","","OAK CREEK","","","","","","2011","2011/06/09 00:00:00+00","160","1318","Human","Equipment and vehicle use","","","","","0.25","A","37.912548","-120.637168","MISSING/NOT SPECIFIED","CA","CALAVERAS","06009","Calaveras County"
"-121.357486755","39.332216847","1480094","201149889","SFO-2011CACDFNEU015328","NONFED","ST-NASF","ST/C&L","USCANEU","Nevada-Yuba-Placer Unit","CANEU","Nevada-Yuba-Placer Unit","","NEU015328","","SUGARLOAF","","","","","","2011","2011/07/10 00:00:00+00","191","1620","Human","Equipment and vehicle use","","","","","2","B","39.332222","-121.3575","MISSING/NOT SPECIFIED","CA","YUBA","06115","Yuba County"
"-123.23132057","38.569006053","1480095","201149890","SFO-2011CACDFLNU005447","NONFED","ST-NASF","ST/C&L","USCALNU","Sonoma-Lake Napa Unit","CALNU","Sonoma-Lake Napa Unit","","LNU005447","","BOHAN DILLON RD  CAZADERO","","","","","","2011","2011/07/04 00:00:00+00","185","1336","Missing data/not specified/undetermined","Missing data/not specified/undetermined","","","","","2","B","38.569011","-123.231334","MISSING/NOT SPECIFIED","CA","SONOMA","06097","Sonoma County"
"-122.424086804","37.600295071","1480096","201149891","SFO-2011CACDFCZU001131","NONFED","ST-NASF","ST/C&L","USCACZU","San Mateo-Santa Cruz Unit","CACZU","San Mateo-Santa Cruz Unit","","CZU001131","","NB HWY 280  / CRYSTAL SPR","","","","","","2011","2011/02/09 00:00:00+00","40","1051","Human","Equipment and vehicle use","","","","","1","B","37.6003","-122.4241","MISSING/NOT SPECIFIED","CA","SAN MATEO","06081","San Mateo County"
"-120.616434293","35.575476129","1480097","201149892","SFO-2011CACDFSLU006489","NONFED","ST-NASF","ST/C&L","USCASLU","San Luis Obispo Unit","CASLU","San Luis Obispo Unit","","SLU006489","","FRANK","","","","","","2011","2011/08/15 00:00:00+00","227","1734","Missing data/not specified/undetermined","Missing data/not specified/undetermined","","","","","1","B","35.575481","-120.616447","MISSING/NOT SPECIFIED","CA","SAN LUIS OBISPO","06079","San Luis Obispo County"
"-122.325576419","40.687924821","1480098","201149893","SFO-2011CACDFSHU007148","NONFED","ST-NASF","ST/C&L","USCASHU","Shasta-Trinity Unit","CASHU","Shasta-Trinity Unit","","SHU007148","","UNION SCHOOL RD / WALTER","","","","","","2011","2011/09/11 00:00:00+00","254","0801","Human","Missing data/not specified/undetermined","","","","","0.5","B","40.68793","-122.32559","MISSING/NOT SPECIFIED","CA","SHASTA","06089","Shasta County"
"-122.5595192","41.889844755","1480099","201149894","SFO-2011CACDFSKU004565","NONFED","ST-NASF","ST/C&L","USCASKU","Siskiyou Unit","CASKU","Siskiyou Unit","","SKU004565","","HORNBROOK","","","","","","2011","2011/07/05 00:00:00+00","186","1316","Human","Equipment and vehicle use","","","","","0.02","A","41.88985","-122.559533","MISSING/NOT SPECIFIED","CA","SISKIYOU","06093","Siskiyou County"
"-118.73026557","35.86443898","1480100","201149895","SFO-2011CACDFTUU000246","NONFED","ST-NASF","ST/C&L","USCATUU","Tulare Unit","CATUU","Tulare Unit","","TUU000246","","TYLER 3","2011_CA-TUU-000246_TYLER 3","","","","","2011","2011/07/30 00:00:00+00","211","1737","Natural","Natural","","","","","25","C","35.864444","-118.730278","MISSING/NOT SPECIFIED","CA","TULARE","06107","Tulare County"
"-121.31555773","39.571969824","1480101","201149896","SFO-2011CACDFBTU006798","NONFED","ST-NASF","ST/C&L","USCABTU","Butte Unit","CABTU","Butte Unit","","BTU006798","","LUMPKIN RD  FTHR_FALLS","","","","","","2011","2011/06/10 00:00:00+00","161","2245","Human","Arson/incendiarism","","","","","1","B","39.571975","-121.315571","MISSING/NOT SPECIFIED","CA","BUTTE","06007","Butte County"
"-120.793539265","35.57444614","1480102","201149897","SFO-2011CACDFSLU006730","NONFED","ST-NASF","ST/C&L","USCASLU","San Luis Obispo Unit","CASLU","San Luis Obispo Unit","","SLU006730","","VINEYARD DR  SLO_CO","","","","","","2011","2011/08/23 00:00:00+00","235","1848","Human","Missing data/not specified/undetermined","","","","","0.1","A","35.574451","-120.793552","MISSING/NOT SPECIFIED","CA","SAN LUIS OBISPO","06079","San Luis Obispo County"
"-120.623579314","35.333065153","1480103","201149898","SFO-2011CACDFSLU007156","NONFED","ST-NASF","ST/C&L","USCASLU","San Luis Obispo Unit","CASLU","San Luis Obispo Unit","","SLU007156","","CUESTA","","","","","","2011","2011/09/05 00:00:00+00","248","1806","Human","Equipment and vehicle use","","","","","0.1","A","35.33307","-120.623592","MISSING/NOT SPECIFIED","CA","SAN LUIS OBISPO","06079","San Luis Obispo County"
"-121.899708871","37.706106024","1480104","201149899","SFO-2011CACDFSCU004351","NONFED","ST-NASF","ST/C&L","USCASCU","Santa Clara Unit","CASCU","Santa Clara Unit","","SCU004351","","RANGE","","","","","","2011","2011/10/26 00:00:00+00","299","1310","Human","Missing data/not specified/undetermined","","","","","60","C","37.706111","-121.899722","MISSING/NOT SPECIFIED","CA","ALAMEDA","06001","Alameda County"
"-121.11485588","38.643128886","1480105","201149900","SFO-2011CACDFAEU016134","NONFED","ST-NASF","ST/C&L","USCAAEU","Amador-El Dorado Unit","CAAEU","Amador-El Dorado Unit","","AEU016134","","SCOTT","","","","","","2011","2011/07/22 00:00:00+00","203","0753","Human","Missing data/not specified/undetermined","","","","","0.5","B","38.643134","-121.114869","MISSING/NOT SPECIFIED","CA","SACRAMENTO","06067","Sacramento County"
"-121.853119857","37.886462005","1480106","201149901","SFO-2011CACDFSCU003659","NONFED","ST-NASF","ST/C&L","USCASCU","Santa Clara Unit","CASCU","Santa Clara Unit","","SCU003659","","2-JUN","","","","","","2011","2011/09/09 00:00:00+00","252","2019","Human","Missing data/not specified/undetermined","","","","","1","B","37.886467","-121.853133","MISSING/NOT SPECIFIED","CA","CONTRA COSTA","06013","Contra Costa County"
"-124.21148616","40.560561989","1480107","201149902","SFO-2011CACDFHUU004581","NONFED","ST-NASF","ST/C&L","USCAHUU","Humboldt-Del Norte Unit","CAHUU","Humboldt-Del Norte Unit","","HUU004581","","CROSBY","","","","","","2011","2011/08/30 00:00:00+00","242","1015","Human","Debris and open burning","","","","","0.1","A","40.560567","-124.2115","MISSING/NOT SPECIFIED","CA","HUMBOLDT","06023","Humboldt County"
"-119.908775212","37.452943904","1480108","201149903","SFO-2011CACDFMMU013080","NONFED","ST-NASF","ST/C&L","USCAMMU","Merced-Mariposa Unit","CAMMU","CDF - Merced-Mariposa Unit","","MMU013080","","ASHWORTH RD  BOOTJACK","","","","","","2011","2011/08/27 00:00:00+00","239","1343","Human","Equipment and vehicle use","","","","","1","B","37.452949","-119.908788","MISSING/NOT SPECIFIED","CA","MARIPOSA","06043","Mariposa County"
"-120.86280298","38.14712791","1480109","201149904","SFO-2011CACDFTCU005582","NONFED","ST-NASF","ST/C&L","USCATCU","Tuolumne-Calaveras Unit","CATCU","Tuolumne-Calaveras Unit","","TCU005582","","BERKESEY","","","","","","2011","2011/07/03 00:00:00+00","184","2215","Human","Arson/incendiarism","","","","","0.1","A","38.147133","-120.862816","MISSING/NOT SPECIFIED","CA","CALAVERAS","06009","Calaveras County"
"-119.257510397","36.722451928","1480110","201149905","SFO-2011CACDFFKU011190","NONFED","ST-NASF","ST/C&L","USCAFKU","Fresno-Kings Unit","CAFKU","CDF - Fresno-Kings Unit","","FKU011190","","SMITH","","","","","","2011","2011/09/16 00:00:00+00","259","0937","Human","Missing data/not specified/undetermined","","","","","0.25","A","36.722457","-119.257523","MISSING/NOT SPECIFIED","CA","FRESNO","06019","Fresno County"
"-120.785588942","38.563983868","1480111","201149906","SFO-2011CACDFAEU018632","NONFED","ST-NASF","ST/C&L","USCAAEU","Amador-El Dorado Unit","CAAEU","Amador-El Dorado Unit","","AEU018632","","UPTON RD / D AGOSTINI DR","","","","","","2011","2011/08/15 00:00:00+00","227","1038","Human","Equipment and vehicle use","","","","","0.35","B","38.563989","-120.785602","MISSING/NOT SPECIFIED","CA","EL DORADO","06017","El Dorado County"
"-121.360984964","37.611802993","1480112","201149907","SFO-2011CACDFSCU003135","NONFED","ST-NASF","ST/C&L","USCASCU","Santa Clara Unit","CASCU","Santa Clara Unit","","SCU003135","","I 580  /S BIRD RD","","","","","","2011","2011/08/06 00:00:00+00","218","1239","Missing data/not specified/undetermined","Missing data/not specified/undetermined","","","","","0.12","A","37.611808","-121.360998","MISSING/NOT SPECIFIED","CA","SAN JOAQUIN","06077","San Joaquin County"
"-116.860144062","33.897152084","1480113","201149908","SFO-2011CACDFRRU069725","NONFED","ST-NASF","ST/C&L","USCARRU","Riverside Unit","CARRU","CDF - Riverside Unit","","RRU069725","","BAN13","","","","","","2011","2011/07/30 00:00:00+00","211","2006","Missing data/not specified/undetermined","Missing data/not specified/undetermined","","","","","0.01","A","33.897157","-116.860156","UNDEFINED FEDERAL","CA","RIVERSIDE","06065","Riverside County"
"-121.529563679","39.703283831","1480114","201149909","SFO-2011CACDFBTU001603","NONFED","ST-NASF","ST/C&L","USCABTU","Butte Unit","CABTU","Butte Unit","","BTU001603","","LUNT","","","","","","2011","2011/02/09 00:00:00+00","40","2004","Human","Debris and open burning","","","","","1","B","39.703289","-121.529577","MISSING/NOT SPECIFIED","CA","BUTTE","06007","Butte County"
"-121.837586959","37.00289408","1480115","201149910","SFO-2011CACDFCZU010153","NONFED","ST-NASF","ST/C&L","USCACZU","San Mateo-Santa Cruz Unit","CACZU","San Mateo-Santa Cruz Unit","","CZU010153","","HAUER","","","","","","2011","2011/12/01 00:00:00+00","335","1815","Human","Missing data/not specified/undetermined","","","","","0.1","A","37.002899","-121.8376","MISSING/NOT SPECIFIED","CA","SANTA CRUZ","06087","Santa Cruz County"
"-116.779295157","32.834378205","1480116","201149911","SFO-2011CACDFMVU010424","NONFED","ST-NASF","ST/C&L","USCAMVU","San Diego Unit","CAMVU","CDF - Monte Vista Unit","","MVU010424","","ARNOLD","","","","","","2011","2011/09/16 00:00:00+00","259","1701","Missing data/not specified/undetermined","Missing data/not specified/undetermined","","","","","1","B","32.834383","-116.779307","MISSING/NOT SPECIFIED","CA","SAN DIEGO","06073","San Diego County"
"-120.921219627","40.760644697","1480117","201149912","SFO-2011CACDFLMU004192","NONFED","ST-NASF","ST/C&L","USCALMU","Lassen-Modoc Unit","CALMU","Lassen-Modoc Unit","","LMU004192","","1-5 BULLARD","","","","","","2011","2011/09/16 00:00:00+00","259","1147","Natural","Natural","","","","","0.1","A","40.76065","-120.921233","MISSING/NOT SPECIFIED","CA","LASSEN","06035","Lassen County"
"-120.712182935","38.713794849","1480118","201149913","SFO-2011CACDFAEU020977","NONFED","ST-NASF","ST/C&L","USCAAEU","Amador-El Dorado Unit","CAAEU","Amador-El Dorado Unit","","AEU020977","","PIONEER","","","","","","2011","2011/09/07 00:00:00+00","250","1241","Human","Debris and open burning","","","","","0.1","A","38.7138","-120.712196","MISSING/NOT SPECIFIED","CA","EL DORADO","06017","El Dorado County"
"-118.859008525","36.104316964","1480119","201149915","SFO-2011CACDFTUU000250","NONFED","ST-NASF","ST/C&L","USCATUU","Tulare Unit","CATUU","Tulare Unit","","TUU000250","","CAMPBELL 6","","","","","","2011","2011/07/30 00:00:00+00","211","2204","Missing data/not specified/undetermined","Missing data/not specified/undetermined","","","","","1.5","B","36.104322","-118.859021","MISSING/NOT SPECIFIED","CA","TULARE","06107","Tulare County"
"-120.849368981","38.155527908","1480120","201149916","SFO-2011CACDFTCU009451","NONFED","ST-NASF","ST/C&L","USCATCU","Tuolumne-Calaveras Unit","CATCU","Tuolumne-Calaveras Unit","","TCU009451","","DUNN RD  RANCHO_CALAVERAS","","","","","","2011","2011/10/26 00:00:00+00","299","1539","Human","Debris and open burning","","","","","1","B","38.155533","-120.849382","MISSING/NOT SPECIFIED","CA","CALAVERAS","06009","Calaveras County"
"-117.143577051","33.403760157","1480121","201149917","SFO-2011CACDFMVU008736","NONFED","ST-NASF","ST/C&L","USCAMVU","San Diego Unit","CAMVU","CDF - Monte Vista Unit","","MVU008736","","VEG FIRE - LOW/VEG FIRE (","","","","","","2011","2011/08/07 00:00:00+00","219","1926","Missing data/not specified/undetermined","Missing data/not specified/undetermined","","","","","0.1","A","33.403765","-117.143589","MISSING/NOT SPECIFIED","CA","SAN DIEGO","06073","San Diego County"
"-117.135544081","33.024162201","1480122","201149918","SFO-2011CACDFMVU012485","NONFED","ST-NASF","ST/C&L","USCAMVU","San Diego Unit","CAMVU","CDF - Monte Vista Unit","","MVU012485","","MARANATHA","","","","","","2011","2011/11/09 00:00:00+00","313","1640","Human","Power generation/transmission/distribution","","","","","3","B","33.024167","-117.135556","MISSING/NOT SPECIFIED","CA","SAN DIEGO","06073","San Diego County"
"-120.935662969","38.141076916","1480123","201149919","SFO-2011CACDFTCU007464","NONFED","ST-NASF","ST/C&L","USCATCU","Tuolumne-Calaveras Unit","CATCU","Tuolumne-Calaveras Unit","","TCU007464","","PASO 2","","","","","","2011","2011/08/26 00:00:00+00","238","1254","Missing data/not specified/undetermined","Missing data/not specified/undetermined","","","","","1","B","38.141082","-120.935676","MISSING/NOT SPECIFIED","CA","CALAVERAS","06009","Calaveras County"
"-120.922209202","36.013051107","1480124","201149920","SFO-2011CACDFBEU002527","NONFED","ST-NASF","ST/C&L","USCABEU","San Benito-Monterey Unit","CABEU","CDF - San Benito-Monterey Unit","","BEU002527","","CATTLEMAN","","","","","","2011","2011/07/26 00:00:00+00","207","1259","Missing data/not specified/undetermined","Missing data/not specified/undetermined","","","","","2","B","36.013056","-120.922222","MISSING/NOT SPECIFIED","CA","MONTEREY","06053","Monterey County"
"-120.501711321","35.472389132","1480125","201149921","SFO-2011CACDFSLU004169","NONFED","ST-NASF","ST/C&L","USCASLU","San Luis Obispo Unit","CASLU","San Luis Obispo Unit","","SLU004169","","LADY","","","","","","2011","2011/06/06 00:00:00+00","157","1611","Human","Equipment and vehicle use","","","","","0.3","B","35.472394","-120.501724","MISSING/NOT SPECIFIED","CA","SAN LUIS OBISPO","06079","San Luis Obispo County"
"-124.093453179","40.54762798","1480126","201149922","SFO-2011CACDFHUU003884","NONFED","ST-NASF","ST/C&L","USCAHUU","Humboldt-Del Norte Unit","CAHUU","Humboldt-Del Norte Unit","","HUU003884","","FTSRA1","","","","","","2011","2011/07/31 00:00:00+00","212","1614","Human","Missing data/not specified/undetermined","","","","","0.1","A","40.547633","-124.093467","MISSING/NOT SPECIFIED","CA","HUMBOLDT","06023","Humboldt County"
"-117.036300989","34.417966034","1480127","201149923","SFO-2011CACDFBDU007256","NONFED","ST-NASF","ST/C&L","USCABDU","San Bernardino Unit","CABDU","CDF - San Bernardino Unit","","BDU007256","","MOUNTAIN VIEW RD  LUCERNE","","","","","","2011","2011/07/03 00:00:00+00","184","2106","Human","Arson/incendiarism","","","","","0.1","A","34.417971","-117.036313","MISSING/NOT SPECIFIED","CA","SAN BERNARDINO","06071","San Bernardino County"
"-122.272303342","41.258377774","1480128","201149924","SFO-2011CACDFSKU004104","NONFED","ST-NASF","ST/C&L","USCASKU","Siskiyou Unit","CASKU","Siskiyou Unit","","SKU004104","","MOTT","","","","","","2011","2011/06/21 00:00:00+00","172","1511","Human","Equipment and vehicle use","","","","","0.01","A","41.258383","-122.272317","MISSING/NOT SPECIFIED","CA","SISKIYOU","06093","Siskiyou County"
"-120.103290389","35.417829112","1480129","201149925","SFO-2011CACDFSLU006285","NONFED","ST-NASF","ST/C&L","USCASLU","San Luis Obispo Unit","CASLU","San Luis Obispo Unit","","SLU006285","","BITTERWATER","","","","","","2011","2011/08/09 00:00:00+00","221","1207","Human","Equipment and vehicle use","","","","","3","B","35.417834","-120.103303","MISSING/NOT SPECIFIED","CA","SAN LUIS OBISPO","06079","San Luis Obispo County"
"-120.228876338","35.743606088","1480130","201149926","SFO-2011CACDFSLU005908","NONFED","ST-NASF","ST/C&L","USCASLU","San Luis Obispo Unit","CASLU","San Luis Obispo Unit","","SLU005908","","HWY 46E  / ANTELOPE RD","","","","","","2011","2011/07/29 00:00:00+00","210","1118","Human","Missing data/not specified/undetermined","","","","","20","C","35.743611","-120.228889","MISSING/NOT SPECIFIED","CA","SAN LUIS OBISPO","06079","San Luis Obispo County"
"-121.657016634","39.888121827","1480131","201149927","SFO-2011CACDFBTU005152","NONFED","ST-NASF","ST/C&L","USCABTU","Butte Unit","CABTU","Butte Unit","","BTU005152","","STARLIGHT DR  FRST_RNCH","","","","","","2011","2011/05/02 00:00:00+00","122","1452","Human","Debris and open burning","","","","","0.1","A","39.888127","-121.65703","MISSING/NOT SPECIFIED","CA","BUTTE","06007","Butte County"
"-122.301460725","38.430058994","1480132","201149928","SFO-2011CACDFLNU006603","NONFED","ST-NASF","ST/C&L","USCALNU","Sonoma-Lake Napa Unit","CALNU","Sonoma-Lake Napa Unit","","LNU006603","","SODA","","","","","","2011","2011/08/20 00:00:00+00","232","1919","Human","Equipment and vehicle use","","","","","3","B","38.430064","-122.301474","MISSING/NOT SPECIFIED","CA","NAPA","06055","Napa County"
"-123.144226521","39.05533301","1480133","201149929","SFO-2011CACDFMEU007747","NONFED","ST-NASF","ST/C&L","USCAMEU","Mendocino Unit","CAMEU","Mendocino Unit","","MEU007747","","RIVERSIDE DR  MCNR","","","","","","2011","2011/10/29 00:00:00+00","302","0730","Human","Debris and open burning","","","","","1","B","39.055338","-123.14424","MISSING/NOT SPECIFIED","CA","MENDOCINO","06045","Mendocino County"
"-119.081088453","36.456795943","1480134","201149930","SFO-2011CACDFTUU000157","NONFED","ST-NASF","ST/C&L","USCATUU","Tulare Unit","CATUU","Tulare Unit","","TUU000157","","WOODLAKE","","","","","","2011","2011/07/04 00:00:00+00","185","0226","Missing data/not specified/undetermined","Missing data/not specified/undetermined","","","","","3.5","B","36.456801","-119.081101","MISSING/NOT SPECIFIED","CA","TULARE","06107","Tulare County"
"-124.063236231","40.210695001","1480135","201149931","SFO-2011CACDFHUU003611","NONFED","ST-NASF","ST/C&L","USCAHUU","Humboldt-Del Norte Unit","CAHUU","Humboldt-Del Norte Unit","","HUU003611","","WILDER RIDGE RD  MATTOLE","","","","","","2011","2011/07/18 00:00:00+00","199","1648","Human","Debris and open burning","","","","","1","B","40.2107","-124.06325","MISSING/NOT SPECIFIED","CA","HUMBOLDT","06023","Humboldt County"
"-121.124066749","39.653914802","1480136","201149932","SFO-2011CACDFLMU011374","NONFED","ST-NASF","ST/C&L","USCALMU","Lassen-Modoc Unit","CALMU","Lassen-Modoc Unit","","LMU011374","","LUMPKIN","","","","","","2011","2011/09/12 00:00:00+00","255","1711","Natural","Natural","","","","","0.1","A","39.65392","-121.12408","MISSING/NOT SPECIFIED","CA","PLUMAS","06063","Plumas County"
"-122.832743606","38.746529009","1480137","201149933","SFO-2011CACDFLNU004627","NONFED","ST-NASF","ST/C&L","USCALNU","Sonoma-Lake Napa Unit","CALNU","Sonoma-Lake Napa Unit","","LNU004627","","HAWKEYE","","","","","","2011","2011/06/20 00:00:00+00","171","0718","Human","Power generation/transmission/distribution","","","","","0.1","A","38.746534","-122.832757","MISSING/NOT SPECIFIED","CA","SONOMA","06097","Sonoma County"
"-120.305051121","37.69501891","1480138","201149934","SFO-2011CACDFMMU007491","NONFED","ST-NASF","ST/C&L","USCAMMU","Merced-Mariposa Unit","CAMMU","CDF - Merced-Mariposa Unit","","MMU007491","","PINEY CREEK RD  DON_PEDRO","","","","","","2011","2011/05/22 00:00:00+00","142","1909","Missing data/not specified/undetermined","Missing data/not specified/undetermined","","","","","0.05","A","37.695024","-120.305064","MISSING/NOT SPECIFIED","CA","MARIPOSA","06043","Mariposa County"
"-120.506899021","38.277736872","1480139","201149935","SFO-2011CACDFTCU005101","NONFED","ST-NASF","ST/C&L","USCATCU","Tuolumne-Calaveras Unit","CATCU","Tuolumne-Calaveras Unit","","TCU005101","","RAILROAD","","","","","","2011","2011/06/22 00:00:00+00","173","1326","Human","Debris and open burning","","","","","0.01","A","38.277742","-120.506912","MISSING/NOT SPECIFIED","CA","CALAVERAS","06009","Calaveras County"
"-121.752486947","37.235273053","1480140","201149936","SFO-2011CACDFSCU003601","NONFED","ST-NASF","ST/C&L","USCASCU","Santa Clara Unit","CASCU","Santa Clara Unit","","SCU003601","","LONG VALLEY","","","","","","2011","2011/09/06 00:00:00+00","249","1823","Missing data/not specified/undetermined","Missing data/not specified/undetermined","","","","","0.1","A","37.235278","-121.7525","MISSING/NOT SPECIFIED","CA","SANTA CLARA","06085","Santa Clara County"
"-120.53693108","37.732494923","1480141","201149937","SFO-2011CACDFTCU007107","NONFED","ST-NASF","ST/C&L","USCATCU","Tuolumne-Calaveras Unit","CATCU","Tuolumne-Calaveras Unit","","TCU007107","","BONDS","","","","","","2011","2011/08/15 00:00:00+00","227","1315","Human","Missing data/not specified/undetermined","","","","","46","C","37.7325","-120.536944","MISSING/NOT SPECIFIED","CA","STANISLAUS","06099","Stanislaus County"
"-121.870322525","40.434670802","1480142","201149938","SFO-2011CACDFTGU006932","NONFED","ST-NASF","ST/C&L","USCATGU","Tehama-Glenn Unit","CATGU","Tehama-Glenn Unit","","TGU006932","","MANTON CALFIRE STN MANTON","","","","","","2011","2011/09/23 00:00:00+00","266","1528","Human","Power generation/transmission/distribution","","","","","0.25","A","40.434676","-121.870336","MISSING/NOT SPECIFIED","CA","TEHAMA","06103","Tehama County"
"-120.756169854","39.295027803","1480143","201149939","SFO-2011CACDFNEU014247","NONFED","ST-NASF","ST/C&L","USCANEU","Nevada-Yuba-Placer Unit","CANEU","Nevada-Yuba-Placer Unit","","NEU014247","","POINT","","","","","","2011","2011/06/28 00:00:00+00","179","1916","Natural","Natural","","","","","0.01","A","39.295033","-120.756183","MISSING/NOT SPECIFIED","CA","NEVADA","06057","Nevada County"
"-121.604986905","37.800927994","1480144","201149941","SFO-2011CACDFSCU002142","NONFED","ST-NASF","ST/C&L","USCASCU","Santa Clara Unit","CASCU","Santa Clara Unit","","SCU002142","","BRUNS","","","","","","2011","2011/06/09 00:00:00+00","160","1328","Human","Equipment and vehicle use","","","","","0.25","A","37.800933","-121.605","MISSING/NOT SPECIFIED","CA","ALAMEDA","06001","Alameda County"
"-122.325719326","41.307661775","1480145","201149942","SFO-2011CACDFSKU005169","NONFED","ST-NASF","ST/C&L","USCASKU","Siskiyou Unit","CASKU","Siskiyou Unit","","SKU005169","","BERRYVILLE","","","","","","2011","2011/07/24 00:00:00+00","205","1232","Human","Debris and open burning","","","","","0.1","A","41.307667","-122.325733","MISSING/NOT SPECIFIED","CA","SISKIYOU","06093","Siskiyou County"
"-121.088881934","38.235419919","1480146","201149943","SFO-2011CACDFAEU018499","NONFED","ST-NASF","ST/C&L","USCAAEU","Amador-El Dorado Unit","CAAEU","Amador-El Dorado Unit","","AEU018499","","LIBERTY","","","","","","2011","2011/08/14 00:00:00+00","226","0304","Human","Equipment and vehicle use","","","","","0.25","A","38.235425","-121.088895","MISSING/NOT SPECIFIED","CA","SAN JOAQUIN","06077","San Joaquin County"
"-116.939478075","33.550497129","1480147","201149944","SFO-2011CACDFRRU081583","NONFED","ST-NASF","ST/C&L","USCARRU","Riverside Unit","CARRU","CDF - Riverside Unit","","RRU081583","","BLUFF","","","","","","2011","2011/09/04 00:00:00+00","247","1148","Human","Equipment and vehicle use","","","","","1","B","33.550502","-116.93949","MISSING/NOT SPECIFIED","CA","RIVERSIDE","06065","Riverside County"
"-121.42715352","40.943811725","1480148","201149945","SFO-2011CACDFSHU007279","NONFED","ST-NASF","ST/C&L","USCASHU","Shasta-Trinity Unit","CASHU","Shasta-Trinity Unit","","SHU007279","","BATT1 LCA 1-9","","","","","","2011","2011/09/14 00:00:00+00","257","1219","Natural","Natural","","","","","0.2","A","40.943817","-121.427167","UNDEFINED FEDERAL","CA","SHASTA","06089","Shasta County"
"-123.312104445","39.448070994","1480149","201149946","SFO-2011CACDFMEU005832","NONFED","ST-NASF","ST/C&L","USCAMEU","Mendocino Unit","CAMEU","Mendocino Unit","","MEU005832","","STRING","","","","","","2011","2011/08/21 00:00:00+00","233","1320","Missing data/not specified/undetermined","Missing data/not specified/undetermined","","","","","3","B","39.448076","-123.312118","MISSING/NOT SPECIFIED","CA","MENDOCINO","06045","Mendocino County"
"-120.801941987","38.172875903","1480150","201149947","SFO-2011CACDFTCU005867","NONFED","ST-NASF","ST/C&L","USCATCU","Tuolumne-Calaveras Unit","CATCU","Tuolumne-Calaveras Unit","","TCU005867","","HOGAN","","","","","","2011","2011/07/10 00:00:00+00","191","2022","Missing data/not specified/undetermined","Missing data/not specified/undetermined","","","","","0.1","A","38.172881","-120.801955","UNDEFINED FEDERAL","CA","CALAVERAS","06009","Calaveras County"
"-117.007709088","33.22823017","1480151","201149948","SFO-2011CACDFMVU007414","NONFED","ST-NASF","ST/C&L","USCAMVU","San Diego Unit","CAMVU","CDF - Monte Vista Unit","","MVU007414","","ROCK 2","","","","","","2011","2011/07/06 00:00:00+00","187","1241","Human","Equipment and vehicle use","","","","","1","B","33.228235","-117.007721","MISSING/NOT SPECIFIED","CA","SAN DIEGO","06073","San Diego County"
"-122.860737554","39.124905982","1480152","201149949","SFO-2011CACDFLNU005414","NONFED","ST-NASF","ST/C&L","USCALNU","Sonoma-Lake Napa Unit","CALNU","Sonoma-Lake Napa Unit","","LNU005414","","LAKEVIEW","","","","","","2011","2011/07/12 00:00:00+00","193","1912","Missing data/not specified/undetermined","Missing data/not specified/undetermined","","","","","0.5","B","39.124911","-122.860751","MISSING/NOT SPECIFIED","CA","LAKE","06033","Lake County"
"-121.801036873","37.817978007","1480153","201149950","SFO-2011CACDFSCU003660","NONFED","ST-NASF","ST/C&L","USCASCU","Santa Clara Unit","CASCU","Santa Clara Unit","","SCU003660","","4-JUN","","","","","","2011","2011/09/09 00:00:00+00","252","2016","Natural","Natural","","","","","7","B","37.817983","-121.80105","MISSING/NOT SPECIFIED","CA","CONTRA COSTA","06013","Contra Costa County"
"-122.92106732","40.747952867","1480154","201149951","SFO-2011CACDFSHU005934","NONFED","ST-NASF","ST/C&L","USCASHU","Shasta-Trinity Unit","CASHU","Shasta-Trinity Unit","","SHU005934","","HWY 3  / AIRPORT RD","","","","","","2011","2011/08/04 00:00:00+00","216","1337","Human","Equipment and vehicle use","","","","","0.2","A","40.747958","-122.921081","MISSING/NOT SPECIFIED","CA","TRINITY","06105","Trinity County"
"-123.747310355","39.647445014","1480155","201149952","SFO-2011CACDFMEU002925","NONFED","ST-NASF","ST/C&L","USCAMEU","Mendocino Unit","CAMEU","Mendocino Unit","","MEU002925","","CREEK","","","","","","2011","2011/05/06 00:00:00+00","126","1250","Missing data/not specified/undetermined","Missing data/not specified/undetermined","","","","","0.12","A","39.64745","-123.747324","MISSING/NOT SPECIFIED","CA","MENDOCINO","06045","Mendocino County"
"-117.518619955","33.81289413","1480156","201149953","SFO-2011CACDFRRU068053","NONFED","ST-NASF","ST/C&L","USCARRU","Riverside Unit","CARRU","CDF - Riverside Unit","","RRU068053","","WEIRICK RD / GREG ALAN CT","","","","","","2011","2011/07/25 00:00:00+00","206","1507","Human","Equipment and vehicle use","","","","","1","B","33.812899","-117.518632","MISSING/NOT SPECIFIED","CA","RIVERSIDE","06065","Riverside County"
"-122.921546334","40.656805873","1480157","201149954","SFO-2011CACDFSHU006117","NONFED","ST-NASF","ST/C&L","USCASHU","Shasta-Trinity Unit","CASHU","Shasta-Trinity Unit","","SHU006117","","DOUGLAS","","","","","","2011","2011/08/11 00:00:00+00","223","0455","Human","Power generation/transmission/distribution","","","","","1","B","40.656811","-122.92156","MISSING/NOT SPECIFIED","CA","TRINITY","06105","Trinity County"
"-116.620805168","33.053469171","1480158","201149955","SFO-2011CACDFMVU003129","NONFED","ST-NASF","ST/C&L","USCAMVU","San Diego Unit","CAMVU","CDF - Monte Vista Unit","","MVU003129","","PINE HILLS RD  JULIAN 2","","","","","","2011","2011/03/19 00:00:00+00","78","1151","Human","Missing data/not specified/undetermined","","","","","0.1","A","33.053474","-116.620817","MISSING/NOT SPECIFIED","CA","SAN DIEGO","06073","San Diego County"
"-120.826449984","38.160496906","1480159","201149956","SFO-2011CACDFTCU008335","NONFED","ST-NASF","ST/C&L","USCATCU","Tuolumne-Calaveras Unit","CATCU","Tuolumne-Calaveras Unit","","TCU008335","","STAGECOACH","","","","","","2011","2011/09/19 00:00:00+00","262","1922","Human","Misuse of fire by a minor","Minor","","","","0.1","A","38.160502","-120.826463","MISSING/NOT SPECIFIED","CA","CALAVERAS","06009","Calaveras County"
"-120.719619591","41.220694643","1480160","201149957","SFO-2011CACDFLMU004073","NONFED","ST-NASF","ST/C&L","USCALMU","Lassen-Modoc Unit","CALMU","Lassen-Modoc Unit","","LMU004073","","4-18 YELLOWJACKET","","","","","","2011","2011/09/12 00:00:00+00","255","1754","Human","Missing data/not specified/undetermined","","","","","0.2","A","41.2207","-120.719633","MISSING/NOT SPECIFIED","CA","MODOC","06049","Modoc County"
"-121.738598028","36.493328118","1480161","201149958","SFO-2011CACDFBEU002338","NONFED","ST-NASF","ST/C&L","USCABEU","San Benito-Monterey Unit","CABEU","CDF - San Benito-Monterey Unit","","BEU002338","","HORIZON","","","","","","2011","2011/07/11 00:00:00+00","192","1925","Human","Misuse of fire by a minor","Minor","","","","1","B","36.493333","-121.738611","MISSING/NOT SPECIFIED","CA","MONTEREY","06053","Monterey County"
"-122.615346702","38.227969033","1480162","201149959","SFO-2011CACDFLNU007588","NONFED","ST-NASF","ST/C&L","USCALNU","Sonoma-Lake Napa Unit","CALNU","Sonoma-Lake Napa Unit","","LNU007588","","PETALUMA BL S/ HWY 101  N","","","","","","2011","2011/09/21 00:00:00+00","264","1130","Human","Missing data/not specified/undetermined","","","","","0.1","A","38.227974","-122.61536","MISSING/NOT SPECIFIED","CA","SONOMA","06097","Sonoma County"
"-116.84599306","33.950738077","1480163","201149960","SFO-2011CACDFRRU087606","NONFED","ST-NASF","ST/C&L","USCARRU","Riverside Unit","CARRU","CDF - Riverside Unit","","RRU087606","","FIELDS 2","","","","","","2011","2011/09/22 00:00:00+00","265","0301","Missing data/not specified/undetermined","Missing data/not specified/undetermined","","","","","0.1","A","33.950743","-116.846005","UNDEFINED FEDERAL","CA","RIVERSIDE","06065","Riverside County"
"-122.024708777","38.34582798","1480164","201149961","SFO-2011CACDFLNU007066","NONFED","ST-NASF","ST/C&L","USCALNU","Sonoma-Lake Napa Unit","CALNU","Sonoma-Lake Napa Unit","","LNU007066","","PLEASANTS","","","","","","2011","2011/09/03 00:00:00+00","246","1627","Human","Equipment and vehicle use","","","","","15","C","38.345833","-122.024722","MISSING/NOT SPECIFIED","CA","SOLANO","06095","Solano County"
"-121.984886921","37.145495078","1480165","201149962","SFO-2011CACDFSCU002797","NONFED","ST-NASF","ST/C&L","USCASCU","Santa Clara Unit","CASCU","Santa Clara Unit","","SCU002797","","HWY 17  / SUMMIT RD","","","","","","2011","2011/07/15 00:00:00+00","196","1529","Human","Equipment and vehicle use","","","","","0.25","A","37.1455","-121.9849","MISSING/NOT SPECIFIED","CA","SANTA CLARA","06085","Santa Clara County"
"-121.766900641","39.710954849","1480166","201149963","SFO-2011CACDFBTU011942","NONFED","ST-NASF","ST/C&L","USCABTU","Butte Unit","CABTU","Butte Unit","","BTU011942","","HONEY","","","","","","2011","2011/09/24 00:00:00+00","267","1407","Missing data/not specified/undetermined","Missing data/not specified/undetermined","","","","","55","C","39.71096","-121.766914","MISSING/NOT SPECIFIED","CA","BUTTE","06007","Butte County"
"-119.91641621","37.458861904","1480167","201149964","SFO-2011CACDFMMU014394","NONFED","ST-NASF","ST/C&L","USCAMMU","Merced-Mariposa Unit","CAMMU","CDF - Merced-Mariposa Unit","","MMU014394","","SPRING","","","","","","2011","2011/09/19 00:00:00+00","262","1508","Missing data/not specified/undetermined","Missing data/not specified/undetermined","","","","","0.01","A","37.458867","-119.916429","MISSING/NOT SPECIFIED","CA","MARIPOSA","06043","Mariposa County"
"-116.862958144","32.808054213","1480168","201149966","SFO-2011CACDFMVU009247","NONFED","ST-NASF","ST/C&L","USCAMVU","San Diego Unit","CAMVU","CDF - Monte Vista Unit","","MVU009247","","HIGHLINE","","","","","","2011","2011/08/20 00:00:00+00","232","1233","Human","Missing data/not specified/undetermined","","","","","1","B","32.808059","-116.86297","MISSING/NOT SPECIFIED","CA","SAN DIEGO","06073","San Diego County"
"-121.946415929","37.127624076","1480169","201149967","SFO-2011CACDFSCU010176","NONFED","ST-NASF","ST/C&L","USCASCU","Santa Clara Unit","CASCU","Santa Clara Unit","","SCU010176","","CT ENGLISH BURRELL","","","","","","2011","2011/12/02 00:00:00+00","336","0033","Human","Equipment and vehicle use","","","","","0.01","A","37.127629","-121.946429","MISSING/NOT SPECIFIED","CA","SANTA CRUZ","06087","Santa Cruz County"
"-120.663401937","38.757340842","1480170","201149968","SFO-2011CACDFAEU010585","NONFED","ST-NASF","ST/C&L","USCAAEU","Amador-El Dorado Unit","CAAEU","Amador-El Dorado Unit","","AEU010585","","COPPERTON RD  CAMINO","","","","","","2011","2011/05/22 00:00:00+00","142","1356","Human","Debris and open burning","","","","","0.01","A","38.757346","-120.663415","MISSING/NOT SPECIFIED","CA","EL DORADO","06017","El Dorado County"
"-120.880218009","37.878966935","1480171","201149969","SFO-2011CACDFTCU005022","NONFED","ST-NASF","ST/C&L","USCATCU","Tuolumne-Calaveras Unit","CATCU","Tuolumne-Calaveras Unit","","TCU005022","","WOODWARD","","","","","","2011","2011/06/20 00:00:00+00","171","0422","Missing data/not specified/undetermined","Missing data/not specified/undetermined","","","","","1","B","37.878972","-120.880231","MISSING/NOT SPECIFIED","CA","STANISLAUS","06099","Stanislaus County"
"-121.287136734","39.573427822","1480172","201149970","SFO-2011CACDFBTU011451","NONFED","ST-NASF","ST/C&L","USCABTU","Butte Unit","CABTU","Butte Unit","","BTU011451","","8-E","","","","","","2011","2011/09/14 00:00:00+00","257","0912","Human","Missing data/not specified/undetermined","","","","","0.01","A","39.573433","-121.28715","UNDEFINED FEDERAL","CA","BUTTE","06007","Butte County"
"-117.266116982","34.014041093","1480173","201149971","SFO-2011CACDFRRU069951","NONFED","ST-NASF","ST/C&L","USCARRU","Riverside Unit","CARRU","CDF - Riverside Unit","","RRU069951","","RECHE CANYON RD / CENTER","","","","","","2011","2011/07/31 00:00:00+00","212","1255","Human","Debris and open burning","","","","","1","B","34.014046","-117.266129","MISSING/NOT SPECIFIED","CA","RIVERSIDE","06065","Riverside County"
"-121.206819539","41.051611698","1480174","201149972","SFO-2011CACDFLMU004114","NONFED","ST-NASF","ST/C&L","USCALMU","Lassen-Modoc Unit","CALMU","Lassen-Modoc Unit","","LMU004114","","3-9 MULLEN","","","","","","2011","2011/09/13 00:00:00+00","256","0952","Natural","Natural","","","","","0.1","A","41.051617","-121.206833","MISSING/NOT SPECIFIED","CA","LASSEN","06035","Lassen County"
"-120.511911008","38.377789864","1480175","201149973","SFO-2011CACDFTCU011122","NONFED","ST-NASF","ST/C&L","USCATCU","Tuolumne-Calaveras Unit","CATCU","Tuolumne-Calaveras Unit","","TCU011122","","RAILROAD","","","","","","2011","2011/12/17 00:00:00+00","351","0655","Human","Debris and open burning","","","","","4","B","38.377795","-120.511924","MISSING/NOT SPECIFIED","CA","CALAVERAS","06009","Calaveras County"
"-122.021270928","37.03574609","1480176","201149974","SFO-2011CACDFCZU008142","NONFED","ST-NASF","ST/C&L","USCACZU","San Mateo-Santa Cruz Unit","CACZU","San Mateo-Santa Cruz Unit","","CZU008142","","SB HWY 17  / MT HERMON RD","","","","","","2011","2011/09/23 00:00:00+00","266","1313","Missing data/not specified/undetermined","Missing data/not specified/undetermined","","","","","0.5","B","37.035751","-122.021284","MISSING/NOT SPECIFIED","CA","SANTA CRUZ","06087","Santa Cruz County"
"-121.600851688","39.556351848","1480177","201149975","SFO-2011CACDFBTU010840","NONFED","ST-NASF","ST/C&L","USCABTU","Butte Unit","CABTU","Butte Unit","","BTU010840","","GARDEN","","","","","","2011","2011/09/02 00:00:00+00","245","1323","Human","Equipment and vehicle use","","","","","25","C","39.556357","-121.600865","MISSING/NOT SPECIFIED","CA","BUTTE","06007","Butte County"
"-121.702972998","36.830003085","1480178","201149976","SFO-2011CACDFBEU003142","NONFED","ST-NASF","ST/C&L","USCABEU","San Benito-Monterey Unit","CABEU","CDF - San Benito-Monterey Unit","","BEU003142","","STRAWBERRY RD  NORTH_COUN","","","","","","2011","2011/09/10 00:00:00+00","253","0013","Human","Missing data/not specified/undetermined","","","","","1.7","B","36.830008","-121.702986","MISSING/NOT SPECIFIED","CA","MONTEREY","06053","Monterey County"
"-117.037210058","33.553328134","1480179","201149977","SFO-2011CACDFRRU050609","NONFED","ST-NASF","ST/C&L","USCARRU","Riverside Unit","CARRU","CDF - Riverside Unit","","RRU050609","","OAKS","","","","","","2011","2011/06/03 00:00:00+00","154","1125","Human","Missing data/not specified/undetermined","","","","","4","B","33.553333","-117.037222","MISSING/NOT SPECIFIED","CA","RIVERSIDE","06065","Riverside County"
"-121.309451788","39.13301086","1480180","201149979","SFO-2011CACDFNEU012168","NONFED","ST-NASF","ST/C&L","USCANEU","Nevada-Yuba-Placer Unit","CANEU","Nevada-Yuba-Placer Unit","","NEU012168","","SPENCEVILLE","","","","","","2011","2011/06/03 00:00:00+00","154","1530","Human","Missing data/not specified/undetermined","","","","","1","B","39.133016","-121.309465","STATE","CA","YUBA","06115","Yuba County"
"-123.368042494","39.01360603","1480181","201149980","SFO-2011CACDFMEU006617","NONFED","ST-NASF","ST/C&L","USCAMEU","Mendocino Unit","CAMEU","Mendocino Unit","","MEU006617","","HWY 128  / LAMBERT LN","","","","","","2011","2011/09/17 00:00:00+00","260","1416","Human","Equipment and vehicle use","","","","","0.1","A","39.013611","-123.368056","MISSING/NOT SPECIFIED","CA","MENDOCINO","06045","Mendocino County"
"-119.932276245","37.117994937","1480182","201149981","SFO-2011CACDFMMU014187","NONFED","ST-NASF","ST/C&L","USCAMMU","Merced-Mariposa Unit","CAMMU","CDF - Merced-Mariposa Unit","","MMU014187","","RD 600  / RD 603","","","","","","2011","2011/09/16 00:00:00+00","259","0405","Missing data/not specified/undetermined","Missing data/not specified/undetermined","","","","","0.1","A","37.118","-119.932289","MISSING/NOT SPECIFIED","CA","MADERA","06039","Madera County"
"-121.055861855","38.923245858","1480183","201149982","SFO-2011CACDFNEU020329","NONFED","ST-NASF","ST/C&L","USCANEU","Nevada-Yuba-Placer Unit","CANEU","Nevada-Yuba-Placer Unit","","NEU020329","","LINCOLN","","","","","","2011","2011/09/08 00:00:00+00","251","2348","Human","Misuse of fire by a minor","Minor","","","","1","B","38.923251","-121.055875","MISSING/NOT SPECIFIED","CA","PLACER","06061","Placer County"
"-122.935476321","40.731054869","1480184","201149983","SFO-2011CACDFSHU007386","NONFED","ST-NASF","ST/C&L","USCASHU","Shasta-Trinity Unit","CASHU","Shasta-Trinity Unit","","SHU007386","","WASHINGTON 2","","","","","","2011","2011/09/17 00:00:00+00","260","0029","Human","Equipment and vehicle use","","","","","1","B","40.73106","-122.93549","MISSING/NOT SPECIFIED","CA","TRINITY","06105","Trinity County"
"-124.135886095","41.071394949","1480185","201149984","SFO-2011CACDFHUU002686","NONFED","ST-NASF","ST/C&L","USCAHUU","Humboldt-Del Norte Unit","CAHUU","Humboldt-Del Norte Unit","","HUU002686","","STUMPTOWN","","","","","","2011","2011/06/04 00:00:00+00","155","1626","Human","Debris and open burning","","","","","0.1","A","41.0714","-124.1359","MISSING/NOT SPECIFIED","CA","HUMBOLDT","06023","Humboldt County"
"-117.563287974","33.473695172","1480186","201149985","SFO-2011CACDFORC005671","NONFED","ST-NASF","ST/C&L","USCAORC","Orange County Fire Authority","CAORC","Orange County Fire Department","","ORC005671","","","","","","","","2011","2011/08/25 00:00:00+00","237","1327","Human","Equipment and vehicle use","","","","","0.01","A","33.4737","-117.5633","MISSING/NOT SPECIFIED","CA","ORANGE","06059","Orange County"
"-123.18564631","40.553883903","1480187","201149986","SFO-2011CACDFSHU006610","NONFED","ST-NASF","ST/C&L","USCASHU","Shasta-Trinity Unit","CASHU","Shasta-Trinity Unit","","SHU006610","","HWY 3  / SCHOOL AV","","","","","","2011","2011/08/26 00:00:00+00","238","1856","Missing data/not specified/undetermined","Missing data/not specified/undetermined","","","","","0.01","A","40.553889","-123.18566","MISSING/NOT SPECIFIED","CA","TRINITY","06105","Trinity County"
"-120.700570011","38.099011902","1480188","201149987","SFO-2011CACDFTCU006321","NONFED","ST-NASF","ST/C&L","USCATCU","Tuolumne-Calaveras Unit","CATCU","Tuolumne-Calaveras Unit","","TCU006321","","JAQUIMA","","","","","","2011","2011/07/24 00:00:00+00","205","0530","Human","Missing data/not specified/undetermined","","","","","1","B","38.099017","-120.700583","MISSING/NOT SPECIFIED","CA","CALAVERAS","06009","Calaveras County"
"-122.31599143","40.622940825","1480189","201149988","SFO-2011CACDFSHU006849","NONFED","ST-NASF","ST/C&L","USCASHU","Shasta-Trinity Unit","CASHU","Shasta-Trinity Unit","","SHU006849","","A14D","","","","","","2011","2011/09/02 00:00:00+00","245","1219","Human","Smoking","","","","","1","B","40.622946","-122.316005","MISSING/NOT SPECIFIED","CA","SHASTA","06089","Shasta County"
"-123.435120478","39.060090032","1480190","201149989","SFO-2011CACDFMEU003026","NONFED","ST-NASF","ST/C&L","USCAMEU","Mendocino Unit","CAMEU","Mendocino Unit","","MEU003026","","INDIAN CREEK RD / HWY 128","","","","","","2011","2011/05/11 00:00:00+00","131","1124","Human","Debris and open burning","","","","","1","B","39.060095","-123.435134","MISSING/NOT SPECIFIED","CA","MENDOCINO","06045","Mendocino County"
"-121.311525739","39.512219829","1480191","201149990","SFO-2011CACDFBTU012346","NONFED","ST-NASF","ST/C&L","USCABTU","Butte Unit","CABTU","Butte Unit","","BTU012346","","FORBSTOWN","","","","","","2011","2011/10/03 00:00:00+00","276","1653","Human","Missing data/not specified/undetermined","","","","","0.1","A","39.512225","-121.311539","MISSING/NOT SPECIFIED","CA","BUTTE","06007","Butte County"
"-122.417221723","38.297995013","1480192","201149991","SFO-2011CACDFLNU008749","NONFED","ST-NASF","ST/C&L","USCALNU","Sonoma-Lake Napa Unit","CALNU","Sonoma-Lake Napa Unit","","LNU008749","","VALLEY","","","","","","2011","2011/10/30 00:00:00+00","303","1324","Missing data/not specified/undetermined","Missing data/not specified/undetermined","","","","","0.5","B","38.298","-122.417235","MISSING/NOT SPECIFIED","CA","SONOMA","06097","Sonoma County"
"-121.698995893","37.781004003","1480193","201149992","SFO-2011CACDFSCU002896","NONFED","ST-NASF","ST/C&L","USCASCU","Santa Clara Unit","CASCU","Santa Clara Unit","","SCU002896","","VASCO RD / 4WD ROAD","","","","","","2011","2011/07/22 00:00:00+00","203","1449","Human","Equipment and vehicle use","","","","","2","B","37.781009","-121.699009","MISSING/NOT SPECIFIED","CA","CONTRA COSTA","06013","Contra Costa County"
"-121.670162902","37.738455004","1480194","201149993","SFO-2011CACDFSCU003228","NONFED","ST-NASF","ST/C&L","USCASCU","Santa Clara Unit","CASCU","Santa Clara Unit","","SCU003228","","DYER RD / ALTAMONT PASS R","","","","","","2011","2011/08/12 00:00:00+00","224","1447","Human","Equipment and vehicle use","","","","","0.25","A","37.73846","-121.670176","MISSING/NOT SPECIFIED","CA","ALAMEDA","06001","Alameda County"
"-121.52179567","39.781353824","1480195","201149994","SFO-2011CACDFBTU007316","NONFED","ST-NASF","ST/C&L","USCABTU","Butte Unit","CABTU","Butte Unit","","BTU007316","","BOARDMAN","","","","","","2011","2011/06/21 00:00:00+00","172","1601","Human","Debris and open burning","","","","","0.16","A","39.781359","-121.521809","MISSING/NOT SPECIFIED","CA","BUTTE","06007","Butte County"
"-120.568903582","41.439544613","1480196","201149995","SFO-2011CACDFLMU002426","NONFED","ST-NASF","ST/C&L","USCALMU","Lassen-Modoc Unit","CALMU","Lassen-Modoc Unit","","LMU002426","","DUMP","","","","","","2011","2011/06/21 00:00:00+00","172","1607","Human","Debris and open burning","","","","","0.25","A","41.43955","-120.568917","MISSING/NOT SPECIFIED","CA","MODOC","06049","Modoc County"
"-119.693484289","37.070485925","1480197","201149996","SFO-2011CACDFMMU008274","NONFED","ST-NASF","ST/C&L","USCAMMU","Merced-Mariposa Unit","CAMMU","CDF - Merced-Mariposa Unit","","MMU008274","","RED TAIL","","","","","","2011","2011/06/06 00:00:00+00","157","1327","Human","Debris and open burning","","","","","3.2","B","37.070491","-119.693497","MISSING/NOT SPECIFIED","CA","MADERA","06039","Madera County"
"-123.292427457","39.378551997","1480198","201149997","SFO-2011CACDFMEU004758","NONFED","ST-NASF","ST/C&L","USCAMEU","Mendocino Unit","CAMEU","Mendocino Unit","","MEU004758","","RIDGE","","","","","","2011","2011/07/12 00:00:00+00","193","1441","Missing data/not specified/undetermined","Missing data/not specified/undetermined","","","","","0.5","B","39.378557","-123.292441","MISSING/NOT SPECIFIED","CA","MENDOCINO","06045","Mendocino County"
"-121.656976493","40.884644749","1480199","201149998","SFO-2011CACDFSHU009891","NONFED","ST-NASF","ST/C&L","USCASHU","Shasta-Trinity Unit","CASHU","Shasta-Trinity Unit","","SHU009891","","MOUNTAIN 4","","","","","","2011","2011/12/16 00:00:00+00","350","1126","Missing data/not specified/undetermined","Missing data/not specified/undetermined","","","","","0.1","A","40.88465","-121.65699","MISSING/NOT SPECIFIED","CA","SHASTA","06089","Shasta County"
"-120.302703081","38.041750878","1480200","201150000","SFO-2011CACDFTCU008039","NONFED","ST-NASF","ST/C&L","USCATCU","Tuolumne-Calaveras Unit","CATCU","Tuolumne-Calaveras Unit","","TCU008039","","BIG HILL","","","","","","2011","2011/09/11 00:00:00+00","254","0107","Human","Missing data/not specified/undetermined","","","","","0.25","A","38.041756","-120.302716","MISSING/NOT SPECIFIED","CA","TUOLUMNE","06109","Tuolumne County"
"-120.733687975","38.362255881","1480201","201150001","SFO-2011CACDFAEU023747","NONFED","ST-NASF","ST/C&L","USCAAEU","Amador-El Dorado Unit","CAAEU","Amador-El Dorado Unit","","AEU023747","","88","","","","","","2011","2011/10/08 00:00:00+00","281","1432","Human","Equipment and vehicle use","","","","","0.25","A","38.362261","-120.733701","MISSING/NOT SPECIFIED","CA","AMADOR","06005","Amador County"
"-120.477598761","40.316009696","1480202","201150002","SFO-2011CACDFLMU004874","NONFED","ST-NASF","ST/C&L","USCALMU","Lassen-Modoc Unit","CALMU","Lassen-Modoc Unit","","LMU004874","","CAROLYN","","","","","","2011","2011/10/29 00:00:00+00","302","1101","Human","Debris and open burning","","","","","0.25","A","40.316015","-120.477612","MISSING/NOT SPECIFIED","CA","LASSEN","06035","Lassen County"
"-120.613002997","38.337659875","1480203","201150003","SFO-2011CACDFTCU004704","NONFED","ST-NASF","ST/C&L","USCATCU","Tuolumne-Calaveras Unit","CATCU","Tuolumne-Calaveras Unit","","TCU004704","","HWY 26   MOKELUMNE_HILL","","","","","","2011","2011/06/10 00:00:00+00","161","1215","Human","Debris and open burning","","","","","0.1","A","38.337665","-120.613016","MISSING/NOT SPECIFIED","CA","CALAVERAS","06009","Calaveras County"
"-117.461465962","33.847751123","1480204","201150004","SFO-2011CACDFRRU117963","NONFED","ST-NASF","ST/C&L","USCARRU","Riverside Unit","CARRU","CDF - Riverside Unit","","RRU117963","","LA SIERRA AV / CAJALCO RD","","","","","","2011","2011/12/23 00:00:00+00","357","0429","Missing data/not specified/undetermined","Missing data/not specified/undetermined","","","","","1","B","33.847756","-117.461478","MISSING/NOT SPECIFIED","CA","RIVERSIDE","06065","Riverside County"
"-120.721009959","38.508257868","1480205","201150005","SFO-2011CACDFAEU028074","NONFED","ST-NASF","ST/C&L","USCAAEU","Amador-El Dorado Unit","CAAEU","Amador-El Dorado Unit","","AEU028074","","FIDDLETOWN","","","","","","2011","2011/12/01 00:00:00+00","335","1538","Human","Debris and open burning","","","","","2","B","38.508263","-120.721023","MISSING/NOT SPECIFIED","CA","AMADOR","06005","Amador County"
"-117.188317","33.962351095","1480206","201150006","SFO-2011CACDFRRU089912","NONFED","ST-NASF","ST/C&L","USCARRU","Riverside Unit","CARRU","CDF - Riverside Unit","","RRU089912","","LOCUST","","","","","","2011","2011/09/29 00:00:00+00","272","0040","Missing data/not specified/undetermined","Missing data/not specified/undetermined","","","","","1.5","B","33.962356","-117.188329","MISSING/NOT SPECIFIED","CA","RIVERSIDE","06065","Riverside County"
"-121.39909475","39.324726851","1480207","201150007","SFO-2011CACDFNEU017448","NONFED","ST-NASF","ST/C&L","USCANEU","Nevada-Yuba-Placer Unit","CANEU","Nevada-Yuba-Placer Unit","","NEU017448","","ASHWOOD","","","","","","2011","2011/08/05 00:00:00+00","217","1513","Missing data/not specified/undetermined","Missing data/not specified/undetermined","","","","","0.33","B","39.324732","-121.399108","MISSING/NOT SPECIFIED","CA","YUBA","06115","Yuba County"
"-123.263855505","39.03954302","1480208","201150008","SFO-2011CACDFMEU005338","NONFED","ST-NASF","ST/C&L","USCAMEU","Mendocino Unit","CAMEU","Mendocino Unit","","MEU005338","","GRADE","","","","","","2011","2011/08/03 00:00:00+00","215","1144","Missing data/not specified/undetermined","Missing data/not specified/undetermined","","","","","1","B","39.039548","-123.263869","MISSING/NOT SPECIFIED","CA","MENDOCINO","06045","Mendocino County"
"-120.938544194","36.073673103","1480209","201150009","SFO-2011CACDFBEU002546","NONFED","ST-NASF","ST/C&L","USCABEU","San Benito-Monterey Unit","CABEU","CDF - San Benito-Monterey Unit","","BEU002546","","PINE","","","","","","2011","2011/07/27 00:00:00+00","208","1659","Human","Misuse of fire by a minor","Minor","","","","88","C","36.073678","-120.938557","MISSING/NOT SPECIFIED","CA","MONTEREY","06053","Monterey County"
"-123.849086098","41.317844908","1480210","201150010","SFO-2011CACDFHUU005035","NONFED","ST-NASF","ST/C&L","USCAHUU","Humboldt-Del Norte Unit","CAHUU","Humboldt-Del Norte Unit","","HUU005035","","FERRY 3","","","","","","2011","2011/09/17 00:00:00+00","260","0517","Missing data/not specified/undetermined","Missing data/not specified/undetermined","","","","","0.1","A","41.31785","-123.8491","MISSING/NOT SPECIFIED","CA","HUMBOLDT","06023","Humboldt County"
"-121.762669868","37.911811996","1480211","201150011","SFO-2011CACDFSCU002447","NONFED","ST-NASF","ST/C&L","USCASCU","Santa Clara Unit","CASCU","Santa Clara Unit","","SCU002447","","DEER","","","","","","2011","2011/06/27 00:00:00+00","178","0015","Missing data/not specified/undetermined","Missing data/not specified/undetermined","","","","","1","B","37.911817","-121.762683","MISSING/NOT SPECIFIED","CA","CONTRA COSTA","06013","Contra Costa County"
"-121.33931997","37.595994993","1480212","201150012","SFO-2011CACDFSCU003080","NONFED","ST-NASF","ST/C&L","USCASCU","Santa Clara Unit","CASCU","Santa Clara Unit","","SCU003080","","WESTLEY","","","","","","2011","2011/08/02 00:00:00+00","214","1418","Human","Missing data/not specified/undetermined","","","","","5","B","37.596","-121.339333","MISSING/NOT SPECIFIED","CA","SAN JOAQUIN","06077","San Joaquin County"
"-123.30496245","39.416903995","1480213","201150013","SFO-2011CACDFMEU005676","NONFED","ST-NASF","ST/C&L","USCAMEU","Mendocino Unit","CAMEU","Mendocino Unit","","MEU005676","","EAST","","","","","","2011","2011/08/15 00:00:00+00","227","1558","Human","Arson/incendiarism","","","","","5","B","39.416909","-123.304976","MISSING/NOT SPECIFIED","CA","MENDOCINO","06045","Mendocino County"
"-121.780271641","39.696939852","1480214","201150014","SFO-2011CACDFBTU011171","NONFED","ST-NASF","ST/C&L","USCABTU","Butte Unit","CABTU","Butte Unit","","BTU011171","","SOUTH","","","","","","2011","2011/09/08 00:00:00+00","251","1636","Human","Smoking","","","","","0.01","A","39.696945","-121.780285","MISSING/NOT SPECIFIED","CA","BUTTE","06007","Butte County"
"-122.334567472","40.30949185","1480215","201150015","SFO-2011CACDFTGU007812","NONFED","ST-NASF","ST/C&L","USCATGU","Tehama-Glenn Unit","CATGU","Tehama-Glenn Unit","","TGU007812","","BOWMAN TAC 3 2","","","","","","2011","2011/10/25 00:00:00+00","298","1200","Human","Equipment and vehicle use","","","","","0.5","B","40.309497","-122.334581","MISSING/NOT SPECIFIED","CA","TEHAMA","06103","Tehama County"
"-121.544486443","41.334677706","1480216","201150016","SFO-2011CACDFSKU006825","NONFED","ST-NASF","ST/C&L","USCASKU","Siskiyou Unit","CASKU","Siskiyou Unit","","SKU006825","","PONDOSA/LIGHT #11","","","","","","2011","2011/09/12 00:00:00+00","255","1738","Human","Missing data/not specified/undetermined","","","","","1","B","41.334683","-121.5445","UNDEFINED FEDERAL","CA","SISKIYOU","06093","Siskiyou County"
"-120.691341314","35.224106168","1480217","201150017","SFO-2011CACDFSLU007925","NONFED","ST-NASF","ST/C&L","USCASLU","San Luis Obispo Unit","CASLU","San Luis Obispo Unit","","SLU007925","","HIGHWAY","","","","","","2011","2011/10/03 00:00:00+00","276","1459","Missing data/not specified/undetermined","Missing data/not specified/undetermined","","","","","0.1","A","35.224111","-120.691354","MISSING/NOT SPECIFIED","CA","SAN LUIS OBISPO","06079","San Luis Obispo County"
"-121.313598062","36.790273062","1480218","201150018","SFO-2011CACDFBEU002075","NONFED","ST-NASF","ST/C&L","USCABEU","San Benito-Monterey Unit","CABEU","CDF - San Benito-Monterey Unit","","BEU002075","","SABE","","","","","","2011","2011/06/23 00:00:00+00","174","1443","Human","Missing data/not specified/undetermined","","","","","6.2","B","36.790278","-121.313611","MISSING/NOT SPECIFIED","CA","SAN BENITO","06069","San Benito County"
"-121.767439619","39.878372836","1480219","201150019","SFO-2011CACDFBTU010568","NONFED","ST-NASF","ST/C&L","USCABTU","Butte Unit","CABTU","Butte Unit","","BTU010568","","COHASSET","","","","","","2011","2011/08/28 00:00:00+00","240","0522","Missing data/not specified/undetermined","Missing data/not specified/undetermined","","","","","5.6","B","39.878378","-121.767453","MISSING/NOT SPECIFIED","CA","BUTTE","06007","Butte County"
"-121.023856892","38.664265877","1480220","201150020","SFO-2011CACDFAEU011182","NONFED","ST-NASF","ST/C&L","USCAAEU","Amador-El Dorado Unit","CAAEU","Amador-El Dorado Unit","","AEU011182","","ANGEL","","","","","","2011","2011/05/29 00:00:00+00","149","1616","Human","Debris and open burning","","","","","0.1","A","38.664271","-121.02387","MISSING/NOT SPECIFIED","CA","EL DORADO","06017","El Dorado County"
"-119.124186417","36.738664918","1480221","201150021","SFO-2011CACDFFKU011079","NONFED","ST-NASF","ST/C&L","USCAFKU","Fresno-Kings Unit","CAFKU","CDF - Fresno-Kings Unit","","FKU011079","","KINGS","","","","","","2011","2011/09/13 00:00:00+00","256","1725","Human","Missing data/not specified/undetermined","","","","","3","B","36.73867","-119.124199","MISSING/NOT SPECIFIED","CA","FRESNO","06019","Fresno County"
"-122.145184894","37.173795086","1480222","201150022","SFO-2011CACDFCZU006570","NONFED","ST-NASF","ST/C&L","USCACZU","San Mateo-Santa Cruz Unit","CACZU","San Mateo-Santa Cruz Unit","","CZU006570","","STEWART ST / PINE CREST R","","","","","","2011","2011/08/01 00:00:00+00","213","2139","Human","Missing data/not specified/undetermined","","","","","1","B","37.1738","-122.145198","MISSING/NOT SPECIFIED","CA","SANTA CRUZ","06087","Santa Cruz County"
"-121.190086552","40.983161702","1480223","201150023","SFO-2011CACDFLMU004160","NONFED","ST-NASF","ST/C&L","USCALMU","Lassen-Modoc Unit","CALMU","Lassen-Modoc Unit","","LMU004160","","3-14 SECOND","","","","","","2011","2011/09/14 00:00:00+00","257","1626","Natural","Natural","","","","","0.01","A","40.983167","-121.1901","UNDEFINED FEDERAL","CA","LASSEN","06035","Lassen County"
"-120.624584185","36.638735029","1480224","201150024","SFO-2011CACDFFKU014440","NONFED","ST-NASF","ST/C&L","USCAFKU","Fresno-Kings Unit","CAFKU","CDF - Fresno-Kings Unit","","FKU014440","","W PANOCHE RD / I 5 ACCESS","","","","","","2011","2011/12/01 00:00:00+00","335","1700","Human","Equipment and vehicle use","","","","","0.1","A","36.63874","-120.624597","MISSING/NOT SPECIFIED","CA","FRESNO","06019","Fresno County"
"-123.793320377","39.433005033","1480225","201150025","SFO-2011CACDFMEU002819","NONFED","ST-NASF","ST/C&L","USCAMEU","Mendocino Unit","CAMEU","Mendocino Unit","","MEU002819","","MINNESOTA","","","","","","2011","2011/05/01 00:00:00+00","121","1422","Missing data/not specified/undetermined","Missing data/not specified/undetermined","","","","","1.5","B","39.43301","-123.793334","MISSING/NOT SPECIFIED","CA","MENDOCINO","06045","Mendocino County"
"-121.170550745","39.627359808","1480226","201150026","SFO-2011CACDFBTU014674","NONFED","ST-NASF","ST/C&L","USCABTU","Butte Unit","CABTU","Butte Unit","","BTU014674","","FOUR CORNERS (FEATHER FAL","","","","","","2011","2011/12/01 00:00:00+00","335","1039","Human","Debris and open burning","","","","","10","C","39.627365","-121.170564","MISSING/NOT SPECIFIED","CA","BUTTE","06007","Butte County"
"-117.196278998","33.969037094","1480227","201150027","SFO-2011CACDFRRU076022","NONFED","ST-NASF","ST/C&L","USCARRU","Riverside Unit","CARRU","CDF - Riverside Unit","","RRU076022","","LOCUST","","","","","","2011","2011/08/19 00:00:00+00","231","0911","Missing data/not specified/undetermined","Missing data/not specified/undetermined","","","","","1.5","B","33.969042","-117.196291","MISSING/NOT SPECIFIED","CA","RIVERSIDE","06065","Riverside County"
"-116.762285161","32.817147207","1480228","201150028","SFO-2011CACDFMVU005657","NONFED","ST-NASF","ST/C&L","USCAMVU","San Diego Unit","CAMVU","CDF - Monte Vista Unit","","MVU005657","","LOW WILDLAND/LOW WILDLAND","","","","","","2011","2011/05/25 00:00:00+00","145","1401","Missing data/not specified/undetermined","Missing data/not specified/undetermined","","","","","1","B","32.817152","-116.762297","MISSING/NOT SPECIFIED","CA","SAN DIEGO","06073","San Diego County"
"-122.473357414","40.569322842","1480229","201150029","SFO-2011CACDFSHU010099","NONFED","ST-NASF","ST/C&L","USCASHU","Shasta-Trinity Unit","CASHU","Shasta-Trinity Unit","","SHU010099","","SCRUFFY","","","","","","2011","2011/12/24 00:00:00+00","358","0245","Human","Missing data/not specified/undetermined","","","","","1","B","40.569328","-122.473371","MISSING/NOT SPECIFIED","CA","SHASTA","06089","Shasta County"
"-118.83887651","36.287494944","1480230","201150030","SFO-2011CACDFTUU000300","NONFED","ST-NASF","ST/C&L","USCATUU","Tulare Unit","CATUU","Tulare Unit","","TUU000300","","BLUERIDGE","","","","","","2011","2011/08/18 00:00:00+00","230","1415","Human","Debris and open burning","","","","","0.1","A","36.2875","-118.838889","MISSING/NOT SPECIFIED","CA","TULARE","06107","Tulare County"
"-122.354807667","38.824794966","1480231","201150031","SFO-2011CACDFLNU009935","NONFED","ST-NASF","ST/C&L","USCALNU","Sonoma-Lake Napa Unit","CALNU","Sonoma-Lake Napa Unit","","LNU009935","","KNOX","","","","","","2011","2011/12/23 00:00:00+00","357","1143","Human","Debris and open burning","","","","","5","B","38.8248","-122.354821","MISSING/NOT SPECIFIED","CA","NAPA","06055","Napa County"
"-121.781651641","39.698147852","1480232","201150032","SFO-2011CACDFBTU011720","NONFED","ST-NASF","ST/C&L","USCABTU","Butte Unit","CABTU","Butte Unit","","BTU011720","","SOUTHGATE 2","","","","","","2011","2011/09/19 00:00:00+00","262","2208","Human","Arson/incendiarism","","","","","1","B","39.698153","-121.781665","MISSING/NOT SPECIFIED","CA","BUTTE","06007","Butte County"
"-122.058216923","37.023566093","1480233","201150033","SFO-2011CACDFCZU007268","NONFED","ST-NASF","ST/C&L","USCACZU","San Mateo-Santa Cruz Unit","CACZU","San Mateo-Santa Cruz Unit","","CZU007268","","RINCON","","","","","","2011","2011/08/25 00:00:00+00","237","2210","Human","Recreation and ceremony","","","","","0.1","A","37.023571","-122.05823","STATE","CA","SANTA CRUZ","06087","Santa Cruz County"
"-119.499431318","37.096383909","1480234","201150034","SFO-2011CACDFFKU009441","NONFED","ST-NASF","ST/C&L","USCAFKU","Fresno-Kings Unit","CAFKU","CDF - Fresno-Kings Unit","","FKU009441","","MONO","","","","","","2011","2011/08/08 00:00:00+00","220","1307","Missing data/not specified/undetermined","Missing data/not specified/undetermined","","","","","15","C","37.096389","-119.499444","MISSING/NOT SPECIFIED","CA","FRESNO","06019","Fresno County"
