"ï»¿X","Y","OBJECTID","FOD_ID","FPA_ID","SOURCE_SYSTEM_TYPE","SOURCE_SYSTEM","NWCG_REPORTING_AGENCY","NWCG_REPORTING_UNIT_ID","NWCG_REPORTING_UNIT_NAME","SOURCE_REPORTING_UNIT","SOURCE_REPORTING_UNIT_NAME","LOCAL_FIRE_REPORT_ID","LOCAL_INCIDENT_ID","FIRE_CODE","FIRE_NAME","ICS_209_PLUS_INCIDENT_JOIN_ID","ICS_209_PLUS_COMPLEX_JOIN_ID","MTBS_ID","MTBS_FIRE_NAME","COMPLEX_NAME","FIRE_YEAR","DISCOVERY_DATE","DISCOVERY_DOY","DISCOVERY_TIME","NWCG_CAUSE_CLASSIFICATION","NWCG_GENERAL_CAUSE","NWCG_CAUSE_AGE_CATEGORY","CONT_DATE","CONT_DOY","CONT_TIME","FIRE_SIZE","FIRE_SIZE_CLASS","LATITUDE","LONGITUDE","OWNER_DESCR","STATE","COUNTY","FIPS_CODE","FIPS_NAME"
"-111.722488899","35.317494613","2050001","400304337","FS-6917521","FED","FS-FIRESTAT","FS","USAZCOF","Coconino National Forest","0304","Coconino National Forest","187","112","EKV3","UMBRELLA BIRD","","","","","","2018","2018/07/30 00:00:00+00","211","0953","Natural","Natural","","","","","0.1","A","35.3175","-111.7225","USFS","AZ","005","04005","Coconino County"
"-111.731377808","35.080827975","2050002","400304338","FS-6917117","FED","FS-FIRESTAT","FS","USAZCOF","Coconino National Forest","0304","Coconino National Forest","204","124","EKV3","SLAYER","","","","","","2018","2018/08/12 00:00:00+00","224","0822","Natural","Natural","","2018/08/12 00:00:00+00","224","1030","0.1","A","35.08083333","-111.73138889","USFS","AZ","005","04005","Coconino County"
"-111.643044509","34.9269391","2050003","400304339","FS-6917551","FED","FS-FIRESTAT","FS","USAZCOF","Coconino National Forest","0304","Coconino National Forest","221","131","EKV3","RINGTAIL","","","","","","2018","2018/08/23 00:00:00+00","235","1104","Natural","Natural","","2018/08/23 00:00:00+00","235","1415","0.1","A","34.92694444","-111.64305556","USFS","AZ","005","04005","Coconino County"
"-111.937488881","35.039994662","2050004","400304340","FS-6917583","FED","FS-FIRESTAT","FS","USAZCOF","Coconino National Forest","0304","Coconino National Forest","265","164","L6QC","WINTER","","","","","","2018","2018/12/17 00:00:00+00","351","0808","Human","Recreation and ceremony","","2018/12/17 00:00:00+00","351","1635","65","C","35.04","-111.9375","USFS","AZ","005","04005","Coconino County"
"-111.712211121","35.325550171","2050005","400304341","FS-6917526","FED","FS-FIRESTAT","FS","USAZCOF","Coconino National Forest","0304","Coconino National Forest","266","165","L5V2","SANTA","","","","","","2018","2018/12/23 00:00:00+00","357","1543","Human","Recreation and ceremony","","","","","0.1","A","35.32555556","-111.71222222","USFS","AZ","005","04005","Coconino County"
"-111.720266699","35.093327972","2050006","400304342","FS-6871232","FED","FS-FIRESTAT","FS","USAZCOF","Coconino National Forest","0304","Coconino National Forest","002","002","LEM4","CRUSHER","","","","","","2018","2018/01/05 00:00:00+00","5","0901","Human","Recreation and ceremony","","2018/01/05 00:00:00+00","5","1145","2","B","35.09333333","-111.72027778","USFS","AZ","005","04005","Coconino County"
"-111.267766836","34.531939132","2050007","400304343","FS-6915035","FED","FS-FIRESTAT","FS","USAZCOF","Coconino National Forest","0304","Coconino National Forest","058","","EKV3","BLAZE","","","","","","2018","2018/06/13 00:00:00+00","164","1446","Natural","Natural","","","","","5","B","34.53194444","-111.26777778","USFS","AZ","005","04005","Coconino County"
"-111.814155594","34.814161355","2050008","400304344","FS-6862562","FED","FS-FIRESTAT","FS","USAZCOF","Coconino National Forest","0304","Coconino National Forest","035","008","LEM4","SIERRA #1","","","","","","2018","2018/04/29 00:00:00+00","119","0400","Human","Equipment and vehicle use","","","","","0.1","A","34.81416667","-111.81416667","USFS","AZ","025","04025","Yavapai County"
"-111.743877818","34.935550225","2050009","400304345","FS-6897526","FED","FS-FIRESTAT","FS","USAZCOF","Coconino National Forest","0304","Coconino National Forest","060","","LEM4","MANZANITA","","","","","","2018","2018/06/22 00:00:00+00","173","0800","Human","Missing data/not specified/undetermined","","","","","0.1","A","34.93555556","-111.74388889","USFS","AZ","025","04025","Yavapai County"
"-111.981377789","34.728328036","2050010","400304346","FS-6871029","FED","FS-FIRESTAT","FS","USAZCOF","Coconino National Forest","0304","Coconino National Forest","044","011","LEM4","COTTONWOOD","","","","","","2018","2018/05/23 00:00:00+00","143","0954","Human","Missing data/not specified/undetermined","","","","","0.1","A","34.72833333","-111.98138889","USFS","AZ","025","04025","Yavapai County"
"-111.87360002","34.839439125","2050011","400304347","FS-6871210","FED","FS-FIRESTAT","FS","USAZCOF","Coconino National Forest","0304","Coconino National Forest","045","012","LEM4","89A","","","","","","2018","2018/05/28 00:00:00+00","148","1037","Human","Missing data/not specified/undetermined","","","","","0.1","A","34.83944444","-111.87361111","USFS","AZ","025","04025","Yavapai County"
"-111.155266857","34.546661354","2050012","400304348","FS-6882782","FED","FS-FIRESTAT","FS","USAZCOF","Coconino National Forest","0304","Coconino National Forest","087","21","EKV3","BLUE","","","","","","2018","2018/07/08 00:00:00+00","189","2000","Natural","Natural","","","","","0.1","A","34.54666667","-111.15527778","USFS","AZ","005","04005","Coconino County"
"-111.519433446","34.532772486","2050013","400304349","FS-6871195","FED","FS-FIRESTAT","FS","USAZCOF","Coconino National Forest","0304","Coconino National Forest","046","013","LUM5","ROMERO","","","","","","2018","2018/06/04 00:00:00+00","155","0259","Human","Recreation and ceremony","","","","","11","C","34.53277778","-111.51944444","USFS","AZ","005","04005","Coconino County"
"-111.846655597","34.707494701","2050014","400304350","FS-6897536","FED","FS-FIRESTAT","FS","USAZCOF","Coconino National Forest","0304","Coconino National Forest","088","021","EKV3","WILDHORSE","","","","","","2018","2018/07/08 00:00:00+00","189","1900","Natural","Natural","","","","","0.25","A","34.7075","-111.84666667","USFS","AZ","025","04025","Yavapai County"
"-111.963322225","34.816105803","2050015","400304351","FS-6897532","FED","FS-FIRESTAT","FS","USAZCOF","Coconino National Forest","0304","Coconino National Forest","084","020","EKV3","BILL GRAY","","","","","","2018","2018/07/08 00:00:00+00","189","1700","Natural","Natural","","","","","26.8","C","34.81611111","-111.96333333","USFS","AZ","025","04025","Yavapai County"
"-111.9947111","34.922494681","2050016","400304352","FS-6905428","FED","FS-FIRESTAT","FS","USAZCOF","Coconino National Forest","0304","Coconino National Forest","249","031","LEM4","DOGIE","","","","","","2018","2018/09/23 00:00:00+00","266","1244","Human","Recreation and ceremony","","","","","0.1","A","34.9225","-111.99472222","USFS","AZ","025","04025","Yavapai County"
"-111.364155707","34.524161368","2050017","400304353","FS-6915122","FED","FS-FIRESTAT","FS","USAZCOF","Coconino National Forest","0304","Coconino National Forest","228","","EKV3","CART","","","","","","2018","2018/08/25 00:00:00+00","237","1350","Natural","Natural","","","","","2","B","34.52416667","-111.36416667","USFS","AZ","005","04005","Coconino County"
"-111.773600054","34.672772481","2050018","400304354","FS-6871050","FED","FS-FIRESTAT","FS","USAZCOF","Coconino National Forest","0304","Coconino National Forest","006","001","LEM4","REST","","","","","","2018","2018/01/29 00:00:00+00","29","0819","Human","Missing data/not specified/undetermined","","","","","0.1","A","34.67277778","-111.77361111","USFS","AZ","025","04025","Yavapai County"
"-111.7427667","35.028327982","2050019","400304355","FS-6871037","FED","FS-FIRESTAT","FS","USAZCOF","Coconino National Forest","0304","Coconino National Forest","040","009","LEM4","OAK","","","","","","2018","2018/05/08 00:00:00+00","128","1538","Human","Recreation and ceremony","","","","","0.1","A","35.02833333","-111.74277778","USFS","AZ","025","04025","Yavapai County"
"-111.840266715","34.624716932","2050020","400304356","FS-6860560","FED","FS-FIRESTAT","FS","USAZCOF","Coconino National Forest","0304","Coconino National Forest","030","","LEM4","WINNEBAGO","","","","","","2018","2018/04/22 00:00:00+00","112","1700","Human","Equipment and vehicle use","","","","","0.1","A","34.62472222","-111.84027778","USFS","AZ","025","04025","Yavapai County"
"-111.682211176","34.746661356","2050021","400304357","FS-6871023","FED","FS-FIRESTAT","FS","USAZCOF","Coconino National Forest","0304","Coconino National Forest","026","005","LEM4","305","","","","","","2018","2018/04/13 00:00:00+00","103","1720","Human","Equipment and vehicle use","","","","","0.1","A","34.74666667","-111.68222222","USFS","AZ","005","04005","Coconino County"
"-111.735266729","34.706661365","2050022","400304358","FS-6905459","FED","FS-FIRESTAT","FS","USAZCOF","Coconino National Forest","0304","Coconino National Forest","247","030","LEM4","WINTER CABIN","","","","","","2018","2018/09/22 00:00:00+00","265","1454","Human","Equipment and vehicle use","","","","","0.3","B","34.70666667","-111.73527778","USFS","AZ","025","04025","Yavapai County"
"-111.155822623","31.514161782","2050023","400304359","FS-6887312","FED","FS-FIRESTAT","FS","USAZCNF","Coronado National Forest","0305","Coronado National Forest","069","","EKV4","MURPHY","","","","","","2018","2018/08/04 00:00:00+00","216","1200","Natural","Natural","","","","","20","C","31.51416667","-111.15583333","USFS","AZ","023","04023","Santa Cruz County"
"-110.862211564","31.627217302","2050024","400304360","FS-6887303","FED","FS-FIRESTAT","FS","USAZCNF","Coronado National Forest","0305","Coronado National Forest","067","","EKV4","JOSEPHINE","","","","","","2018","2018/08/03 00:00:00+00","215","1200","Natural","Natural","","","","","186","D","31.62722222","-110.86222222","USFS","AZ","023","04023","Santa Cruz County"
"-110.724156036","31.723050622","2050025","400304361","FS-6851657","FED","FS-FIRESTAT","FS","USAZCNF","Coronado National Forest","0305","Coronado National Forest","004","","LK4P","GARDNER FIRE","","","","","","2018","2018/02/08 00:00:00+00","39","2028","Human","Recreation and ceremony","","","","","0.3","B","31.72305556","-110.72416667","USFS","AZ","023","04023","Santa Cruz County"
"-111.446933678","31.464161802","2050026","400304362","FS-6874965","FED","FS-FIRESTAT","FS","USAZCNF","Coronado National Forest","0305","Coronado National Forest","051","","LYL0","CUMERO","2018_9209977_CUMERO","","AZ3146411144720180705","CUMERO","","2018","2018/07/05 00:00:00+00","186","1200","Human","Missing data/not specified/undetermined","","","","","4000","F","31.46416667","-111.44694444","USFS","AZ","021","04021","Pinal County"
"-111.089433753","31.393606237","2050027","400304363","FS-6860891","FED","FS-FIRESTAT","FS","USAZCNF","Coronado National Forest","0305","Coronado National Forest","008","","LL25","WHITE ROCK","","","","","","2018","2018/03/05 00:00:00+00","64","0900","Human","Recreation and ceremony","","","","","0.1","A","31.39361111","-111.08944444","USFS","AZ","023","04023","Santa Cruz County"
"-111.068600428","31.373328459","2050028","400304364","FS-6876669","FED","FS-FIRESTAT","FS","USAZCNF","Coronado National Forest","0305","Coronado National Forest","063","","EKV4","WALKER","","","","","","2018","2018/07/13 00:00:00+00","194","1200","Natural","Natural","","","","","43","C","31.37333333","-111.06861111","USFS","AZ","023","04023","Santa Cruz County"
"-110.699711583","31.844161713","2050029","400304365","FS-6864754","FED","FS-FIRESTAT","FS","USAZCNF","Coronado National Forest","0305","Coronado National Forest","018","","LSU7","BARREL FIRE","","","","","","2018","2018/05/16 00:00:00+00","136","1500","Human","Missing data/not specified/undetermined","","","","","150","D","31.84416667","-110.69972222","USFS","AZ","019","04019","Pima County"
"-110.051100548","32.700828217","2050030","400304366","FS-6913922","FED","FS-FIRESTAT","FS","USAZCNF","Coronado National Forest","0305","Coronado National Forest","043","05","EKV4","DURKEE CANYON","","","","","","2018","2018/06/29 00:00:00+00","180","1917","Natural","Natural","","2018/06/30 00:00:00+00","181","1900","1.5","B","32.70083333","-110.05111111","USFS","AZ","009","04009","Graham County"
"-110.401100532","31.861661697","2050031","400304367","FS-6901301","FED","FS-FIRESTAT","FS","USAZCNF","Coronado National Forest","0305","Coronado National Forest","070","","EKV4","COTTONWOOD","","","","","","2018","2018/08/06 00:00:00+00","218","1943","Natural","Natural","","","","","0.1","A","31.86166667","-110.40111111","USFS","AZ","003","04003","Cochise County"
"-110.666378289","31.375828441","2050032","400304368","FS-6901236","FED","FS-FIRESTAT","FS","USAZCNF","Coronado National Forest","0305","Coronado National Forest","038","","EKV4","POWERPOLE","","","","","","2018","2018/06/15 00:00:00+00","166","2230","Natural","Natural","","","","","0.1","A","31.37583333","-110.66638889","USFS","AZ","023","04023","Santa Cruz County"
"-110.849711562","31.695828402","2050033","400304369","FS-6903017","FED","FS-FIRESTAT","FS","USAZCNF","Coronado National Forest","0305","Coronado National Forest","066","","EKV4","RILEY SADDLE","","","","","","2018","2018/07/30 00:00:00+00","211","0900","Natural","Natural","","","","","0.1","A","31.69583333","-110.84972222","USFS","AZ","023","04023","Santa Cruz County"
"-110.748322712","31.378606224","2050034","400304370","FS-6852883","FED","FS-FIRESTAT","FS","USAZCNF","Coronado National Forest","0305","Coronado National Forest","003","","LK03","ITALIAN","","","","","","2018","2018/02/02 00:00:00+00","33","0900","Human","Missing data/not specified/undetermined","","","","","23","C","31.37861111","-110.74833333","USFS","AZ","023","04023","Santa Cruz County"
"-110.285822801","31.449161753","2050035","400304371","FS-6852877","FED","FS-FIRESTAT","FS","USAZCNF","Coronado National Forest","0305","Coronado National Forest","002","","LKS0","PICNIC SITE","","","","","","2018","2018/01/25 00:00:00+00","25","1800","Human","Recreation and ceremony","","","","","0.1","A","31.44916667","-110.28583333","USFS","AZ","003","04003","Cochise County"
"-110.290267251","31.429717306","2050036","400304372","FS-6877228","FED","FS-FIRESTAT","FS","USAZCNF","Coronado National Forest","0305","Coronado National Forest","037","","LX3U","472","","","","","","2018","2018/06/12 00:00:00+00","163","2238","Human","Recreation and ceremony","","","","","0.1","A","31.42972222","-110.29027778","USFS","AZ","003","04003","Cochise County"
"-110.875544895","31.726939508","2050037","400304373","FS-6871636","FED","FS-FIRESTAT","FS","USAZCNF","Coronado National Forest","0305","Coronado National Forest","034","","LU50","453","","","","","","2018","2018/06/09 00:00:00+00","160","0029","Human","Recreation and ceremony","","","","","0.1","A","31.72694444","-110.87555556","USFS","AZ","019","04019","Pima County"
"-110.704989325","32.4119394","2050038","400304374","FS-6903272","FED","FS-FIRESTAT","FS","USAZCNF","Coronado National Forest","0305","Coronado National Forest","017","","LSD3","323","","","","","","2018","2018/05/14 00:00:00+00","134","1419","Human","Recreation and ceremony","","","","","0.1","A","32.41194444","-110.705","USFS","AZ","019","04019","Pima County"
"-110.7963782","32.365828301","2050039","400304375","FS-6903558","FED","FS-FIRESTAT","FS","USAZCNF","Coronado National Forest","0305","Coronado National Forest","061","","LZJ8","638","","","","","","2018","2018/07/09 00:00:00+00","190","1715","Human","Recreation and ceremony","","2018/07/09 00:00:00+00","190","1717","0.1","A","32.36583333","-110.79638889","USFS","AZ","019","04019","Pima County"
"-110.788044867","32.436661631","2050040","400304376","FS-6903386","FED","FS-FIRESTAT","FS","USAZCNF","Coronado National Forest","0305","Coronado National Forest","029","","LUN6","429","","","","","","2018","2018/05/26 00:00:00+00","146","1200","Human","Recreation and ceremony","","","","","0.1","A","32.43666667","-110.78805556","USFS","AZ","019","04019","Pima County"
"-110.755822643","32.450828287","2050041","400304377","FS-6903453","FED","FS-FIRESTAT","FS","USAZCNF","Coronado National Forest","0305","Coronado National Forest","041","","LW1W","514","","","","","","2018","2018/06/23 00:00:00+00","174","2025","Human","Recreation and ceremony","","","","","0.1","A","32.45083333","-110.75583333","USFS","AZ","019","04019","Pima County"
"-110.72887821","32.417217181","2050042","400304378","FS-6903521","FED","FS-FIRESTAT","FS","USAZCNF","Coronado National Forest","0305","Coronado National Forest","046","","LXX8","564","","","","","","2018","2018/06/30 00:00:00+00","181","2200","Human","Recreation and ceremony","","","","","0.1","A","32.41722222","-110.72888889","USFS","AZ","019","04019","Pima County"
"-110.683878222","32.377772744","2050043","400304379","FS-6903530","FED","FS-FIRESTAT","FS","USAZCNF","Coronado National Forest","0305","Coronado National Forest","047","","LXY1","568","","","","","","2018","2018/07/01 00:00:00+00","182","1500","Human","Recreation and ceremony","","","","","0.1","A","32.37777778","-110.68388889","USFS","AZ","019","04019","Pima County"
"-110.69332266","32.372772745","2050044","400304380","FS-6903461","FED","FS-FIRESTAT","FS","USAZCNF","Coronado National Forest","0305","Coronado National Forest","042","","LW10","517","","","","","","2018","2018/06/24 00:00:00+00","175","1145","Human","Recreation and ceremony","","","","","0.1","A","32.37277778","-110.69333333","USFS","AZ","019","04019","Pima County"
"-110.714155993","32.41499496","2050045","400304381","FS-6903445","FED","FS-FIRESTAT","FS","USAZCNF","Coronado National Forest","0305","Coronado National Forest","040","","LWF6","505","","","","","","2018","2018/06/20 00:00:00+00","171","2000","Human","Recreation and ceremony","","","","","0.1","A","32.415","-110.71416667","USFS","AZ","019","04019","Pima County"
"-110.788878197","32.436383851","2050046","400304382","FS-6903352","FED","FS-FIRESTAT","FS","USAZCNF","Coronado National Forest","0305","Coronado National Forest","028","","LUD9","422","","","","","","2018","2018/06/04 00:00:00+00","155","1100","Human","Recreation and ceremony","","","","","1","B","32.43638889","-110.78888889","USFS","AZ","019","04019","Pima County"
"-110.678044893","32.374161635","2050047","400304383","FS-6903280","FED","FS-FIRESTAT","FS","USAZCNF","Coronado National Forest","0305","Coronado National Forest","019","","LSY0","331","","","","","","2018","2018/05/17 00:00:00+00","137","1220","Human","Recreation and ceremony","","","","","0.1","A","32.37416667","-110.67805556","USFS","AZ","019","04019","Pima County"
"-110.727489321","32.413050521","2050048","400304384","FS-6903547","FED","FS-FIRESTAT","FS","USAZCNF","Coronado National Forest","0305","Coronado National Forest","055","","L3F8","617","","","","","","2018","2018/07/07 00:00:00+00","188","2315","Human","Recreation and ceremony","","","","","0.1","A","32.41305556","-110.7275","USFS","AZ","019","04019","Pima County"
"-110.741100425","32.452217176","2050049","400304385","FS-6903533","FED","FS-FIRESTAT","FS","USAZCNF","Coronado National Forest","0305","Coronado National Forest","048","","LX2Q","573","","","","","","2018","2018/07/02 00:00:00+00","183","1100","Human","Recreation and ceremony","","","","","0.1","A","32.45222222","-110.74111111","USFS","AZ","019","04019","Pima County"
"-110.735822648","32.42416163","2050050","400304386","FS-6908986","FED","FS-FIRESTAT","FS","USAZCNF","Coronado National Forest","0305","Coronado National Forest","056","","LY8Z","618","","","","","","2018","2018/07/08 00:00:00+00","189","0146","Human","Recreation and ceremony","","","","","0.1","A","32.42416667","-110.73583333","USFS","AZ","019","04019","Pima County"
"-110.750822645","32.43277274","2050051","400304387","FS-6903412","FED","FS-FIRESTAT","FS","USAZCNF","Coronado National Forest","0305","Coronado National Forest","035","","EKV4","461","","","","","","2018","2018/06/09 00:00:00+00","160","2100","Human","Recreation and ceremony","","","","","0.1","A","32.43277778","-110.75083333","USFS","AZ","019","04019","Pima County"
"-110.716378205","32.538328273","2050052","400304388","FS-6903542","FED","FS-FIRESTAT","FS","USAZCNF","Coronado National Forest","0305","Coronado National Forest","052","","LY3F","608","","","","","","2018","2018/07/07 00:00:00+00","188","1049","Human","Recreation and ceremony","","","","","0.1","A","32.53833333","-110.71638889","USFS","AZ","021","04021","Pinal County"
"-110.44721166","31.425828424","2050053","400304389","FS-6901283","FED","FS-FIRESTAT","FS","USAZCNF","Coronado National Forest","0305","Coronado National Forest","054","","LY42","615","","","","","","2018","2018/07/07 00:00:00+00","188","1630","Human","Recreation and ceremony","","","","","0.1","A","31.42583333","-110.44722222","USFS","AZ","023","04023","Santa Cruz County"
"-110.558322742","31.506383977","2050054","400304390","FS-6901305","FED","FS-FIRESTAT","FS","USAZCNF","Coronado National Forest","0305","Coronado National Forest","073","","L5K2","CANELO PASS","","","","","","2018","2018/09/29 00:00:00+00","272","1643","Human","Equipment and vehicle use","","","","","0.1","A","31.50638889","-110.55833333","USFS","AZ","023","04023","Santa Cruz County"
"-110.852767117","31.771939501","2050055","400304391","FS-6860359","FED","FS-FIRESTAT","FS","USAZCNF","Coronado National Forest","0305","Coronado National Forest","005","","LK58","BOX FIRE","","","","","","2018","2018/02/12 00:00:00+00","43","1300","Human","Missing data/not specified/undetermined","","","","","79","C","31.77194444","-110.85277778","USFS","AZ","019","04019","Pima County"
"-110.734711539","32.419994961","2050056","400304392","FS-6903550","FED","FS-FIRESTAT","FS","USAZCNF","Coronado National Forest","0305","Coronado National Forest","057","","LY67","622","","","","","","2018","2018/07/08 00:00:00+00","189","1339","Human","Recreation and ceremony","","","","","0.1","A","32.42","-110.73472222","USFS","AZ","019","04019","Pima County"
"-110.782489307","32.453606068","2050057","400304393","FS-6903196","FED","FS-FIRESTAT","FS","USAZCNF","Coronado National Forest","0305","Coronado National Forest","059","","EKV4","FERN RIDGE","","","","","","2018","2018/07/08 00:00:00+00","189","2307","Natural","Natural","","2018/07/10 00:00:00+00","191","1200","2","B","32.45361111","-110.7825","USFS","AZ","019","04019","Pima County"
"-110.736933757","32.438328288","2050058","400304394","FS-6908988","FED","FS-FIRESTAT","FS","USAZCNF","Coronado National Forest","0305","Coronado National Forest","058","","EKV4","CRYSTAL SPRING","","","","","","2018","2018/07/08 00:00:00+00","189","2123","Natural","Natural","","","","","0.1","A","32.43833333","-110.73694444","USFS","AZ","019","04019","Pima County"
"-110.279989472","31.444995083","2050059","400304395","FS-6903334","FED","FS-FIRESTAT","FS","USAZCNF","Coronado National Forest","0305","Coronado National Forest","025","","LT1K","385","","","","","","2018","2018/05/27 00:00:00+00","147","2100","Human","Recreation and ceremony","","","","","0.1","A","31.445","-110.28","USFS","AZ","003","04003","Cochise County"
"-110.488600498","32.124994992","2050060","400304396","FS-6903283","FED","FS-FIRESTAT","FS","USAZCNF","Coronado National Forest","0305","Coronado National Forest","020","","LS0D","334","","","","","","2018","2018/05/17 00:00:00+00","137","1938","Human","Recreation and ceremony","","","","","0.1","A","32.125","-110.48861111","USFS","AZ","019","04019","Pima County"
"-110.887489292","32.357772757","2050061","400304397","FS-6903607","FED","FS-FIRESTAT","FS","USAZCNF","Coronado National Forest","0305","Coronado National Forest","072","","EKV4","PONTATOC","","","","","","2018","2018/09/06 00:00:00+00","249","2229","Natural","Natural","","","","","0.25","A","32.35777778","-110.8875","USFS","AZ","019","04019","Pima County"
"-110.281656142","31.449439523","2050062","400304398","FS-6918937","FED","FS-FIRESTAT","FS","USAZCNF","Coronado National Forest","0305","Coronado National Forest","077","","L6NJ","CARR","","","","","","2018","2018/12/05 00:00:00+00","339","2015","Human","Missing data/not specified/undetermined","","","","","0.5","B","31.44944444","-110.28166667","USFS","AZ","003","04003","Cochise County"
"-110.714989328","32.342772751","2050063","400304399","FS-6876371","FED","FS-FIRESTAT","FS","USAZCNF","Coronado National Forest","0305","Coronado National Forest","016","05","LQ29","BUG","","","","","","2018","2018/04/30 00:00:00+00","120","1400","Human","Recreation and ceremony","","2018/04/30 00:00:00+00","120","2100","34.1","C","32.34277778","-110.715","USFS","AZ","019","04019","Pima County"
"-110.713322653","32.41721718","2050064","400304400","FS-6903207","FED","FS-FIRESTAT","FS","USAZCNF","Coronado National Forest","0305","Coronado National Forest","060","","EKV4","BEAR","","","","","","2018","2018/07/09 00:00:00+00","190","0118","Natural","Natural","","","","","0.1","A","32.41722222","-110.71333333","USFS","AZ","019","04019","Pima County"
"-110.4591561","31.539717297","2050065","400304401","FS-6857730","FED","FS-FIRESTAT","FS","USAZCNF","Coronado National Forest","0305","Coronado National Forest","009","","LMP5","WOODWARD","","","","","","2018","2018/03/22 00:00:00+00","81","1214","Human","Missing data/not specified/undetermined","","","","","112","D","31.53972222","-110.45916667","USFS","AZ","003","04003","Cochise County"
"-110.690822663","32.337217191","2050066","400304402","FS-6908990","FED","FS-FIRESTAT","FS","USAZCNF","Coronado National Forest","0305","Coronado National Forest","076","","EKV4","964","","","","","","2018","2018/10/10 00:00:00+00","283","2354","Human","Missing data/not specified/undetermined","","","","","0.1","A","32.33722222","-110.69083333","USFS","AZ","019","04019","Pima County"
"-110.761655982","32.437494959","2050067","400304403","FS-6903544","FED","FS-FIRESTAT","FS","USAZCNF","Coronado National Forest","0305","Coronado National Forest","053","","LY4J","612","","","","","","2018","2018/07/07 00:00:00+00","188","1415","Human","Recreation and ceremony","","","","","0.1","A","32.4375","-110.76166667","USFS","AZ","019","04019","Pima County"
"-110.788322637","32.436383851","2050068","400304404","FS-6903388","FED","FS-FIRESTAT","FS","USAZCNF","Coronado National Forest","0305","Coronado National Forest","030","","LUN5","430","","","","","","2018","2018/05/28 00:00:00+00","148","1200","Human","Recreation and ceremony","","","","","0.1","A","32.43638889","-110.78833333","USFS","AZ","019","04019","Pima County"
"-110.457767166","32.245272753","2050069","400304405","FS-6903343","FED","FS-FIRESTAT","FS","USAZCNF","Coronado National Forest","0305","Coronado National Forest","026","","LT1L","393","","","","","","2018","2018/05/28 00:00:00+00","148","2056","Human","Recreation and ceremony","","","","","0.1","A","32.24527778","-110.45777778","USFS","AZ","019","04019","Pima County"
"-110.726100431","32.41916163","2050070","400304406","FS-6903288","FED","FS-FIRESTAT","FS","USAZCNF","Coronado National Forest","0305","Coronado National Forest","022","","LT1G","379","","","","","","2018","2018/05/26 00:00:00+00","146","1900","Human","Recreation and ceremony","","","","","0.1","A","32.41916667","-110.72611111","USFS","AZ","019","04019","Pima County"
"-110.752767094","32.445550518","2050071","400304407","FS-6903431","FED","FS-FIRESTAT","FS","USAZCNF","Coronado National Forest","0305","Coronado National Forest","036","","LU6T","449","","","","","","2018","2018/06/08 00:00:00+00","159","2100","Human","Recreation and ceremony","","2018/06/08 00:00:00+00","159","2130","0.1","A","32.44555556","-110.75277778","USFS","AZ","019","04019","Pima County"
"-110.788878197","32.436106071","2050072","400304408","FS-6903439","FED","FS-FIRESTAT","FS","USAZCNF","Coronado National Forest","0305","Coronado National Forest","039","","LV57","494","","","","","","2018","2018/06/17 00:00:00+00","168","2200","Human","Recreation and ceremony","","","","","0.1","A","32.43611111","-110.78888889","USFS","AZ","019","04019","Pima County"
"-110.723044881","32.42249496","2050073","400304409","FS-6903472","FED","FS-FIRESTAT","FS","USAZCNF","Coronado National Forest","0305","Coronado National Forest","044","","LXS0","551","","","","","","2018","2018/06/30 00:00:00+00","181","0719","Human","Recreation and ceremony","","","","","0.1","A","32.4225","-110.72305556","USFS","AZ","019","04019","Pima County"
"-109.423322949","31.901661646","2050074","400304410","FS-6920451","FED","FS-FIRESTAT","FS","USAZCNF","Coronado National Forest","0305","Coronado National Forest","068","","EKV4","ROCK","","","","","","2018","2018/08/03 00:00:00+00","215","2013","Natural","Natural","","2018/08/06 00:00:00+00","218","1300","1","B","31.90166667","-109.42333333","USFS","AZ","003","04003","Cochise County"
"-110.257489479","31.414439527","2050075","400304411","FS-6901295","FED","FS-FIRESTAT","FS","USAZCNF","Coronado National Forest","0305","Coronado National Forest","062","","EKV4","DEAD BEAR","","","","","","2018","2018/07/10 00:00:00+00","191","1100","Natural","Natural","","","","","9.3","B","31.41444444","-110.2575","USFS","AZ","003","04003","Cochise County"
"-110.750544944","31.343884009","2050076","400304412","FS-6862393","FED","FS-FIRESTAT","FS","USAZCNF","Coronado National Forest","0305","Coronado National Forest","014","","LP0Z","SYCAMORE","","","","","","2018","2018/04/22 00:00:00+00","112","1530","Human","Missing data/not specified/undetermined","","","","","67","C","31.34388889","-110.75055556","USFS","AZ","023","04023","Santa Cruz County"
"-109.401656298","31.832217206","2050077","400304413","FS-6919085","FED","FS-FIRESTAT","FS","USAZCNF","Coronado National Forest","0305","Coronado National Forest","045","P3EKV4","EKV4","COTTONWOOD SPRING","","","","","","2018","2018/06/30 00:00:00+00","181","1600","Natural","Natural","","","","","15","C","31.83222222","-109.40166667","USFS","AZ","003","04003","Cochise County"
"-110.838322625","32.466106069","2050078","400304414","FS-6903564","FED","FS-FIRESTAT","FS","USAZCNF","Coronado National Forest","0305","Coronado National Forest","071","","EKV4","SAMANIEGO","","","","","","2018","2018/08/22 00:00:00+00","234","1700","Natural","Natural","","2018/08/22 00:00:00+00","234","1703","0.2","A","32.46611111","-110.83833333","USFS","AZ","019","04019","Pima County"
"-110.44221165","31.603883957","2050079","400304415","FS-6911310","FED","FS-FIRESTAT","FS","USAZCNF","Coronado National Forest","0305","Coronado National Forest","075","","L5S0","BLACK TOWER","","","","","","2018","2018/10/09 00:00:00+00","282","0930","Human","Power generation/transmission/distribution","","","","","29.19","C","31.60388889","-110.44222222","OTHER FEDERAL","AZ","003","04003","Cochise County"
"-110.727211541","32.416383851","2050080","400304416","FS-6921102","FED","FS-FIRESTAT","FS","USAZCNF","Coronado National Forest","0305","Coronado National Forest","078","","EKV4","992","","","","","","2018","2018/11/19 00:00:00+00","323","1401","Human","Recreation and ceremony","","","","","0.1","A","32.41638889","-110.72722222","USFS","AZ","019","04019","Pima County"
"-110.310267248","31.413606199","2050081","400304417","FS-6872590","FED","FS-FIRESTAT","FS","USAZCNF","Coronado National Forest","0305","Coronado National Forest","033","","EKV4","OLD SAWMILL","","","","","","2018","2018/06/08 00:00:00+00","159","1957","Natural","Natural","","","","","0.1","A","31.41361111","-110.31027778","USFS","AZ","003","04003","Cochise County"
"-110.722211542","32.415272741","2050082","400304418","FS-6903311","FED","FS-FIRESTAT","FS","USAZCNF","Coronado National Forest","0305","Coronado National Forest","023","","LT1H","380","","","","","","2018","2018/05/26 00:00:00+00","146","1900","Human","Recreation and ceremony","","","","","0.1","A","32.41527778","-110.72222222","USFS","AZ","019","04019","Pima County"
"-109.042211796","33.682494692","2050083","400304419","FS-6921589","FED","FS-FIRESTAT","FS","USNMGNF","Gila National Forest","0306","Gila National Forest","112","","L4ZV","NOLAND","2018_9181878_NOLAND","","","","","2018","2018/09/07 00:00:00+00","250","1405","Natural","Natural","","2018/10/11 00:00:00+00","284","1400","306","E","33.6825","-109.04222222","USFS","NM","003","35003","Catron County"
"-108.502489707","33.434994701","2050084","400304420","FS-6887627","FED","FS-FIRESTAT","FS","USNMGNF","Gila National Forest","0306","Gila National Forest","086","24","EKV5","SCHOOL","","","","","","2018","2018/07/28 00:00:00+00","209","1200","Natural","Natural","","2018/08/14 00:00:00+00","226","1530","0.1","A","33.435","-108.5025","USFS","NM","003","35003","Catron County"
"-108.903322937","33.652216909","2050085","400304421","FS-6887623","FED","FS-FIRESTAT","FS","USNMGNF","Gila National Forest","0306","Gila National Forest","087","25","EKV5","BELL","","","","","","2018","2018/07/28 00:00:00+00","209","0900","Natural","Natural","","2018/07/28 00:00:00+00","209","1250","0.1","A","33.65222222","-108.90333333","USFS","NM","003","35003","Catron County"
"-108.554711916","33.434994704","2050086","400304422","FS-6887618","FED","FS-FIRESTAT","FS","USNMGNF","Gila National Forest","0306","Gila National Forest","090","26","EKV5","DUCK","","","","","","2018","2018/08/01 00:00:00+00","213","1000","Natural","Natural","","2018/08/16 00:00:00+00","228","1040","0.1","A","33.435","-108.55472222","USFS","NM","003","35003","Catron County"
"-108.45610084","33.253605836","2050087","400304423","FS-6887279","FED","FS-FIRESTAT","FS","USNMGNF","Gila National Forest","0306","Gila National Forest","085","015","EKV5","MCKENNA","","","","","","2018","2018/07/27 00:00:00+00","208","0834","Natural","Natural","","2018/07/28 00:00:00+00","209","1200","3","B","33.25361111","-108.45611111","USFS","NM","003","35003","Catron County"
"-108.338045334","32.983605871","2050088","400304424","FS-6897180","FED","FS-FIRESTAT","FS","USNMGNF","Gila National Forest","0306","Gila National Forest","108","11","EKV5","READING","","","","","","2018","2018/08/18 00:00:00+00","230","1450","Natural","Natural","","2018/08/28 00:00:00+00","240","1300","1.5","B","32.98361111","-108.33805556","USFS","NM","017","35017","Grant County"
"-108.227489796","32.999161423","2050089","400304425","FS-6895237","FED","FS-FIRESTAT","FS","USNMGNF","Gila National Forest","0306","Gila National Forest","029","6","EKV5","TROUT","","","","","","2018","2018/06/30 00:00:00+00","181","0820","Natural","Natural","","2018/06/30 00:00:00+00","181","1800","0.1","A","32.99916667","-108.2275","USFS","NM","017","35017","Grant County"
"-108.428600891","32.601939263","2050090","400304426","FS-6897185","FED","FS-FIRESTAT","FS","USNMGNF","Gila National Forest","0306","Gila National Forest","110","12","EKV5","WHITETAIL","","","","","","2018","2018/08/30 00:00:00+00","242","1217","Natural","Natural","","2018/08/31 00:00:00+00","243","1200","0.3","B","32.60194444","-108.42861111","USFS","NM","017","35017","Grant County"
"-108.233878683","33.028328079","2050091","400304427","FS-6895239","FED","FS-FIRESTAT","FS","USNMGNF","Gila National Forest","0306","Gila National Forest","035","7","EKV5","COW","","","","","","2018","2018/07/11 00:00:00+00","192","1119","Natural","Natural","","2018/07/11 00:00:00+00","192","1600","0.2","A","33.02833333","-108.23388889","USFS","NM","017","35017","Grant County"
"-108.159712045","32.782494783","2050092","400304428","FS-6895190","FED","FS-FIRESTAT","FS","USNMGNF","Gila National Forest","0306","Gila National Forest","019","4","LT6D","COURSE","","","","","","2018","2018/05/31 00:00:00+00","151","1800","Human","Missing data/not specified/undetermined","","2018/05/31 00:00:00+00","151","2000","0.88","B","32.7825","-108.15972222","USFS","NM","017","35017","Grant County"
"-108.207767581","32.984994754","2050093","400304429","FS-6895207","FED","FS-FIRESTAT","FS","USNMGNF","Gila National Forest","0306","Gila National Forest","020","5","LT8F","MEADOW","2018_9015528_MEADOW","","","","","2018","2018/06/03 00:00:00+00","154","1700","Human","Missing data/not specified/undetermined","","2018/06/08 00:00:00+00","159","1800","201","D","32.985","-108.20777778","USFS","NM","017","35017","Grant County"
"-108.574156417","32.653605932","2050094","400304430","FS-6897163","FED","FS-FIRESTAT","FS","USNMGNF","Gila National Forest","0306","Gila National Forest","100","10","EKV5","KELLY","","","","","","2018","2018/08/08 00:00:00+00","220","1000","Natural","Natural","","2018/08/13 00:00:00+00","225","1100","32","C","32.65361111","-108.57416667","USFS","NM","017","35017","Grant County"
"-108.191378697","32.948328089","2050095","400304431","FS-6894988","FED","FS-FIRESTAT","FS","USNMGNF","Gila National Forest","0306","Gila National Forest","017","3","LT4H","MEADOW CREEK 1","","","","","","2018","2018/05/27 00:00:00+00","147","1600","Human","Recreation and ceremony","","2018/05/27 00:00:00+00","147","1800","0.1","A","32.94833333","-108.19138889","USFS","NM","015","35015","Eddy County"
"-108.191378698","32.93999476","2050096","400304432","FS-6894981","FED","FS-FIRESTAT","FS","USNMGNF","Gila National Forest","0306","Gila National Forest","016","2","LTT9","SIGNAL","","","","","","2018","2018/05/27 00:00:00+00","147","1600","Human","Recreation and ceremony","","2018/05/27 00:00:00+00","147","1700","0.1","A","32.94","-108.19138889","USFS","NM","017","35017","Grant County"
"-108.10471205","32.888328094","2050097","400304433","FS-6895586","FED","FS-FIRESTAT","FS","USNMGNF","Gila National Forest","0306","Gila National Forest","039","8","EKV5","ALLIE","","","","","","2018","2018/07/13 00:00:00+00","194","0900","Natural","Natural","","2018/07/13 00:00:00+00","194","1800","0.1","A","32.88833333","-108.10472222","USFS","NM","017","35017","Grant County"
"-108.56915643","32.465272631","2050098","400304434","FS-6895600","FED","FS-FIRESTAT","FS","USNMGNF","Gila National Forest","0306","Gila National Forest","099","9","EKV5","CANYON","","","","","","2018","2018/08/07 00:00:00+00","219","1100","Natural","Natural","","2018/08/07 00:00:00+00","219","1500","0.1","A","32.46527778","-108.56916667","USFS","NM","017","35017","Grant County"
"-108.233045363","32.884161441","2050099","400304435","FS-6894932","FED","FS-FIRESTAT","FS","USNMGNF","Gila National Forest","0306","Gila National Forest","009","1","LQL0","CREEK","","","","","","2018","2018/04/27 00:00:00+00","117","1900","Human","Missing data/not specified/undetermined","","2018/04/27 00:00:00+00","117","2100","0.5","B","32.88416667","-108.23305556","USFS","NM","017","35017","Grant County"
"-108.563878585","33.427494705","2050100","400304436","FS-6902148","FED","FS-FIRESTAT","FS","USNMGNF","Gila National Forest","0306","Gila National Forest","115","18","EKV5","TEACHER","","","","","","2018","2018/09/27 00:00:00+00","270","1645","Natural","Natural","","","","","1","B","33.4275","-108.56388889","USFS","NM","003","35003","Catron County"
"-108.95026735","34.024716857","2050101","400304437","FS-6913859","FED","FS-FIRESTAT","FS","USNMGNF","Gila National Forest","0306","Gila National Forest","113","024","EKV5","VEGA","","","","","","2018","2018/09/07 00:00:00+00","250","1400","Natural","Natural","","","","","1","B","34.02472222","-108.95027778","USFS","NM","003","35003","Catron County"
"-108.87193405","33.698883571","2050102","400304438","FS-6860926","FED","FS-FIRESTAT","FS","USNMGNF","Gila National Forest","0306","Gila National Forest","008","6","LQD2","PIT","","","","","","2018","2018/04/26 00:00:00+00","116","2100","Human","Recreation and ceremony","","","","","0.1","A","33.69888889","-108.87194444","USFS","NM","003","35003","Catron County"
"-108.928045173","33.511939151","2050103","400304439","FS-6921577","FED","FS-FIRESTAT","FS","USNMGNF","Gila National Forest","0306","Gila National Forest","116","021","EKV5","GUT","","","","","","2018","2018/09/30 00:00:00+00","273","1700","Natural","Natural","","","","","0.1","A","33.51194444","-108.92805556","USFS","NM","003","35003","Catron County"
"-109.016378447","34.005550203","2050104","400304440","FS-6899206","FED","FS-FIRESTAT","FS","USNMGNF","Gila National Forest","0306","Gila National Forest","083","13","EKV5","CANOVAS","","","","","","2018","2018/07/26 00:00:00+00","207","2000","Natural","Natural","","","","","1.06","B","34.00555556","-109.01638889","USFS","NM","003","35003","Catron County"
"-108.436378576","33.913605736","2050105","400304441","FS-6882098","FED","FS-FIRESTAT","FS","USNMGNF","Gila National Forest","0306","Gila National Forest","049","07","EKV5","TULAROSA","","","","","","2018","2018/07/16 00:00:00+00","197","1900","Natural","Natural","","2018/07/28 00:00:00+00","209","1200","0.1","A","33.91361111","-108.43638889","USFS","NM","003","35003","Catron County"
"-108.889989598","33.813883555","2050106","400304442","FS-6898796","FED","FS-FIRESTAT","FS","USNMGNF","Gila National Forest","0306","Gila National Forest","105","21","EKV5","BAR","","","","","","2018","2018/08/13 00:00:00+00","225","0800","Natural","Natural","","","","","0.75","B","33.81388889","-108.89","USFS","NM","003","35003","Catron County"
"-108.885545151","33.925550208","2050107","400304443","FS-6898811","FED","FS-FIRESTAT","FS","USNMGNF","Gila National Forest","0306","Gila National Forest","093","15","EKV5","TRAP","","","","","","2018","2018/08/02 00:00:00+00","214","1000","Natural","Natural","","","","","0.1","A","33.92555556","-108.88555556","USFS","NM","003","35003","Catron County"
"-108.649989654","33.734994664","2050108","400304444","FS-6857294","FED","FS-FIRESTAT","FS","USNMGNF","Gila National Forest","0306","Gila National Forest","005","5","LM9Y","MESA","","","","","","2018","2018/04/04 00:00:00+00","94","1200","Human","Recreation and ceremony","","","","","0.1","A","33.735","-108.65","USFS","NM","003","35003","Catron County"
"-108.343600809","33.996105719","2050109","400304445","FS-6899238","FED","FS-FIRESTAT","FS","USNMGNF","Gila National Forest","0306","Gila National Forest","109","23","EKV5","CAT","","","","","","2018","2018/08/18 00:00:00+00","230","1200","Natural","Natural","","","","","25","C","33.99611111","-108.34361111","USFS","NM","003","35003","Catron County"
"-108.304711927","34.003883496","2050110","400304446","FS-6899219","FED","FS-FIRESTAT","FS","USNMGNF","Gila National Forest","0306","Gila National Forest","094","16","EKV5","TUB","","","","","","2018","2018/08/30 00:00:00+00","242","0800","Natural","Natural","","","","","0.1","A","34.00388889","-108.30472222","USFS","NM","003","35003","Catron County"
"-108.249434157","34.02443904","2050111","400304447","FS-6897632","FED","FS-FIRESTAT","FS","USNMGNF","Gila National Forest","0306","Gila National Forest","067","11","EKV5","SPIKE","","","","","","2018","2018/07/22 00:00:00+00","203","1600","Natural","Natural","","","","","4.6","B","34.02444444","-108.24944444","USFS","NM","003","35003","Catron County"
"-108.204156461","33.1441614","2050112","400304448","FS-6900990","FED","FS-FIRESTAT","FS","USNMGNF","Gila National Forest","0306","Gila National Forest","114","17","EKV5","ALUM","","","","","","2018","2018/09/19 00:00:00+00","262","1614","Natural","Natural","","","","","1","B","33.14416667","-108.20416667","USFS","NM","017","35017","Grant County"
"-109.023322914","33.634716918","2050113","400304449","FS-6921582","FED","FS-FIRESTAT","FS","USNMGNF","Gila National Forest","0306","Gila National Forest","103","","EKV5","BASIN","","","","","","2018","2018/08/08 00:00:00+00","220","0822","Natural","Natural","","","","","0.1","A","33.63472222","-109.02333333","USFS","NM","003","35003","Catron County"
"-108.879434039","33.837772441","2050114","400304450","FS-6899231","FED","FS-FIRESTAT","FS","USNMGNF","Gila National Forest","0306","Gila National Forest","096","17","EKV5","STRAWBERRY","","","","","","2018","2018/08/03 00:00:00+00","215","2000","Natural","Natural","","","","","0.25","A","33.83777778","-108.87944444","USFS","NM","003","35003","Catron County"
"-108.918600703","33.805550227","2050115","400304451","FS-6898872","FED","FS-FIRESTAT","FS","USNMGNF","Gila National Forest","0306","Gila National Forest","104","20","EKV5","BIG","","","","","","2018","2018/08/12 00:00:00+00","224","1800","Natural","Natural","","","","","2","B","33.80555556","-108.91861111","USFS","NM","003","35003","Catron County"
"-108.908600709","33.755272454","2050116","400304452","FS-6898804","FED","FS-FIRESTAT","FS","USNMGNF","Gila National Forest","0306","Gila National Forest","098","19","EKV5","POTATO","","","","","","2018","2018/08/06 00:00:00+00","218","1200","Natural","Natural","","","","","0.2","A","33.75527778","-108.90861111","USFS","NM","003","35003","Catron County"
"-108.937211808","33.822772446","2050117","400304453","FS-6913861","FED","FS-FIRESTAT","FS","USNMGNF","Gila National Forest","0306","Gila National Forest","596","025","L2ZZ","RAW","","","","","","2018","2018/08/08 00:00:00+00","220","1600","Natural","Natural","","","","","0.1","A","33.82277778","-108.93722222","USFS","NM","003","35003","Catron County"
"-109.016378464","33.784161346","2050118","400304454","FS-6899235","FED","FS-FIRESTAT","FS","USNMGNF","Gila National Forest","0306","Gila National Forest","097","18","EKV5","TRAIL","","","","","","2018","2018/08/04 00:00:00+00","216","1200","Natural","Natural","","","","","2","B","33.78416667","-109.01638889","USFS","NM","003","35003","Catron County"
"-108.827489595","34.032494629","2050119","400304455","FS-6898755","FED","FS-FIRESTAT","FS","USNMGNF","Gila National Forest","0306","Gila National Forest","107","22","EKV5","MANGITAS","","","","","","2018","2018/08/14 00:00:00+00","226","1700","Natural","Natural","","","","","0.1","A","34.0325","-108.8275","USFS","NM","003","35003","Catron County"
"-108.467211891","34.025272391","2050120","400304456","FS-6898143","FED","FS-FIRESTAT","FS","USNMGNF","Gila National Forest","0306","Gila National Forest","066","10","EKV5","INDIO","","","","","","2018","2018/07/22 00:00:00+00","203","1500","Natural","Natural","","","","","35.5","C","34.02527778","-108.46722222","USFS","NM","003","35003","Catron County"
"-108.842767392","33.76138356","2050121","400304457","FS-6882102","FED","FS-FIRESTAT","FS","USNMGNF","Gila National Forest","0306","Gila National Forest","047","06","EKV5","BURRO","","","","","","2018","2018/07/16 00:00:00+00","197","1225","Natural","Natural","","","","","0.1","A","33.76138889","-108.84277778","USFS","NM","003","35003","Catron County"
"-108.795545159","34.058605734","2050122","400304458","FS-6898850","FED","FS-FIRESTAT","FS","USNMGNF","Gila National Forest","0306","Gila National Forest","072","12","EKV5","JOHNSON","","","","","","2018","2018/07/24 00:00:00+00","205","1600","Natural","Natural","","","","","1.25","B","34.05861111","-108.79555556","USFS","NM","003","35003","Catron County"
"-108.666378515","34.079716834","2050123","400304459","FS-6878876","FED","FS-FIRESTAT","FS","USNMGNF","Gila National Forest","0306","Gila National Forest","040","05","EKV5","DEEP","","","","","","2018","2018/07/13 00:00:00+00","194","1954","Natural","Natural","","","","","0.1","A","34.07972222","-108.66638889","USFS","NM","003","35003","Catron County"
"-108.546656318","34.099994605","2050124","400304460","FS-6882110","FED","FS-FIRESTAT","FS","USNMGNF","Gila National Forest","0306","Gila National Forest","057","09","EKV5","FRIA","","","","","","2018","2018/07/19 00:00:00+00","200","1611","Natural","Natural","","","","","0.1","A","34.1","-108.54666667","USFS","NM","003","35003","Catron County"
"-109.038600693","33.602216924","2050125","400304461","FS-6921580","FED","FS-FIRESTAT","FS","USNMGNF","Gila National Forest","0306","Gila National Forest","102","018","EKV5","STEEPLE","","","","","","2018","2018/08/08 00:00:00+00","220","1700","Natural","Natural","","","","","0.1","A","33.60222222","-109.03861111","USFS","NM","003","35003","Catron County"
"-109.04165625","33.6274947","2050126","400304462","FS-6921575","FED","FS-FIRESTAT","FS","USNMGNF","Gila National Forest","0306","Gila National Forest","101","017","EKV5","MUD","","","","","","2018","2018/08/09 00:00:00+00","221","1000","Natural","Natural","","","","","0.1","A","33.6275","-109.04166667","USFS","NM","003","35003","Catron County"
"-108.946934029","33.775272453","2050127","400304463","FS-6882062","FED","FS-FIRESTAT","FS","USNMGNF","Gila National Forest","0306","Gila National Forest","027","03","EKV5","ADAIR","","","","","","2018","2018/06/14 00:00:00+00","165","1137","Natural","Natural","","2018/06/14 00:00:00+00","165","1316","0.2","A","33.77527778","-108.94694444","USFS","NM","003","35003","Catron County"
"-108.496656343","33.920827958","2050128","400304464","FS-6898730","FED","FS-FIRESTAT","FS","USNMGNF","Gila National Forest","0306","Gila National Forest","091","14","EKV5","FLAT","","","","","","2018","2018/08/02 00:00:00+00","214","0900","Natural","Natural","","","","","0.1","A","33.92083333","-108.49666667","USFS","NM","003","35003","Catron County"
"-112.202766479","36.463327825","2050129","400304465","FS-6877483","FED","FS-FIRESTAT","FS","USAZKNF","Kaibab National Forest","0307","Kaibab National Forest","058","29","EKV6","LOOKOUT","","","","","","2018","2018/07/15 00:00:00+00","196","1724","Natural","Natural","","2018/07/15 00:00:00+00","196","1945","0.1","A","36.46333333","-112.20277778","USFS","AZ","005","04005","Coconino County"
"-112.329988684","36.354716737","2050130","400304466","FS-6874988","FED","FS-FIRESTAT","FS","USAZKNF","Kaibab National Forest","0307","Kaibab National Forest","016","005","EKV6","TWO SPRINGS","","","","","","2018","2018/07/06 00:00:00+00","187","1908","Natural","Natural","","","","","0.1","A","36.35472222","-112.33","USFS","AZ","005","04005","Coconino County"
"-112.126099827","36.423605605","2050131","400304467","FS-6874976","FED","FS-FIRESTAT","FS","USAZKNF","Kaibab National Forest","0307","Kaibab National Forest","031","12","EKV6","TATER","","","","","","2018","2018/07/09 00:00:00+00","190","1210","Natural","Natural","","","","","0.1","A","36.42361111","-112.12611111","USFS","AZ","005","04005","Coconino County"
"-112.310266468","36.351661186","2050132","400304468","FS-6877476","FED","FS-FIRESTAT","FS","USAZKNF","Kaibab National Forest","0307","Kaibab National Forest","064","031","EKV6","SAFFRON","","","","","","2018","2018/07/16 00:00:00+00","197","1453","Natural","Natural","","","","","32.5","C","36.35166667","-112.31027778","USFS","AZ","005","04005","Coconino County"
"-112.408877543","36.517772281","2050133","400304469","FS-6879408","FED","FS-FIRESTAT","FS","USAZKNF","Kaibab National Forest","0307","Kaibab National Forest","076","035","EKV6","SOWATS","","","","","","2018","2018/07/20 00:00:00+00","201","1750","Natural","Natural","","","","","0.1","A","36.51777778","-112.40888889","USFS","AZ","005","04005","Coconino County"
"-112.289433116","36.514438934","2050134","400304470","FS-6878302","FED","FS-FIRESTAT","FS","USAZKNF","Kaibab National Forest","0307","Kaibab National Forest","060","030","EKV6","RIGGS","","","","","","2018","2018/07/15 00:00:00+00","196","1847","Natural","Natural","","","","","0.1","A","36.51444444","-112.28944444","USFS","AZ","005","04005","Coconino County"
"-112.281377569","36.509994494","2050135","400304471","FS-6877629","FED","FS-FIRESTAT","FS","USAZKNF","Kaibab National Forest","0307","Kaibab National Forest","044","017","EKV6","PRATT","","","","","","2018","2018/07/13 00:00:00+00","194","1626","Natural","Natural","","","","","0.1","A","36.51","-112.28138889","USFS","AZ","005","04005","Coconino County"
"-112.279988659","36.707494469","2050136","400304472","FS-6891065","FED","FS-FIRESTAT","FS","USAZKNF","Kaibab National Forest","0307","Kaibab National Forest","107","51","EKV6","LAKE","","","","","","2018","2018/08/12 00:00:00+00","224","1656","Natural","Natural","","","","","0.5","B","36.7075","-112.28","USFS","AZ","005","04005","Coconino County"
"-112.166377576","36.664438908","2050137","400304473","FS-6875699","FED","FS-FIRESTAT","FS","USAZKNF","Kaibab National Forest","0307","Kaibab National Forest","042","16","EKV6","MURRAY","","","","","","2018","2018/07/12 00:00:00+00","193","0855","Natural","Natural","","","","","0.1","A","36.66444444","-112.16638889","USFS","AZ","005","04005","Coconino County"
"-112.249710901","36.545550048","2050138","400304474","FS-6877475","FED","FS-FIRESTAT","FS","USAZKNF","Kaibab National Forest","0307","Kaibab National Forest","065","32","EKV6","OQUER","","","","","","2018","2018/07/16 00:00:00+00","197","1711","Natural","Natural","","","","","0.1","A","36.54555556","-112.24972222","USFS","AZ","005","04005","Coconino County"
"-112.259988676","36.579716704","2050139","400304475","FS-6877627","FED","FS-FIRESTAT","FS","USAZKNF","Kaibab National Forest","0307","Kaibab National Forest","046","19","EKV6","EAST LAKE","","","","","","2018","2018/07/13 00:00:00+00","194","1905","Natural","Natural","","","","","0.1","A","36.57972222","-112.26","USFS","AZ","005","04005","Coconino County"
"-112.359155344","36.402216733","2050140","400304476","FS-6891070","FED","FS-FIRESTAT","FS","USAZKNF","Kaibab National Forest","0307","Kaibab National Forest","110","53","EKV6","STEAMBOAT","","","","","","2018","2018/08/15 00:00:00+00","227","1530","Natural","Natural","","","","","0.3","B","36.40222222","-112.35916667","USFS","AZ","005","04005","Coconino County"
"-112.366655319","36.643050043","2050141","400304477","FS-6891203","FED","FS-FIRESTAT","FS","USAZKNF","Kaibab National Forest","0307","Kaibab National Forest","119","62","EKV6","NAIL CANYON","","","","","","2018","2018/08/22 00:00:00+00","234","1739","Natural","Natural","","","","","0.1","A","36.64305556","-112.36666667","USFS","AZ","005","04005","Coconino County"
"-112.118044261","36.604161142","2050142","400304478","FS-6891216","FED","FS-FIRESTAT","FS","USAZKNF","Kaibab National Forest","0307","Kaibab National Forest","097","44","EKV6","SINK HOLE","","","","","","2018","2018/08/01 00:00:00+00","213","2140","Natural","Natural","","","","","0.1","A","36.60416667","-112.11805556","USFS","AZ","005","04005","Coconino County"
"-112.326933108","36.523327825","2050143","400304479","FS-6891201","FED","FS-FIRESTAT","FS","USAZKNF","Kaibab National Forest","0307","Kaibab National Forest","117","","EKV6","POINT","","","","","","2018","2018/08/22 00:00:00+00","234","1708","Natural","Natural","","","","","0.1","A","36.52333333","-112.32694444","USFS","AZ","005","04005","Coconino County"
"-112.133044254","36.654716687","2050144","400304480","FS-6902260","FED","FS-FIRESTAT","FS","USAZKNF","Kaibab National Forest","0307","Kaibab National Forest","086","039","EKV6","JOLLY","","","","","","2018","2018/07/26 00:00:00+00","207","1126","Natural","Natural","","","","","16","C","36.65472222","-112.13305556","USFS","AZ","005","04005","Coconino County"
"-111.961655423","36.389438929","2050145","400304481","FS-6874958","FED","FS-FIRESTAT","FS","USAZKNF","Kaibab National Forest","0307","Kaibab National Forest","030","11","EKV6","SADDLE","","","","","","2018","2018/07/09 00:00:00+00","190","0842","Natural","Natural","","","","","0.1","A","36.38944444","-111.96166667","USFS","AZ","005","04005","Coconino County"
"-112.417766428","36.551938938","2050146","400304482","FS-6877509","FED","FS-FIRESTAT","FS","USAZKNF","Kaibab National Forest","0307","Kaibab National Forest","054","26","EKV6","CORRAL","","","","","","2018","2018/07/14 00:00:00+00","195","1545","Natural","Natural","","","","","0.1","A","36.55194444","-112.41777778","USFS","AZ","005","04005","Coconino County"
"-112.406655318","36.568605605","2050147","400304483","FS-6891071","FED","FS-FIRESTAT","FS","USAZKNF","Kaibab National Forest","0307","Kaibab National Forest","111","54","EKV6","LITTLE","","","","","","2018","2018/08/15 00:00:00+00","227","1832","Natural","Natural","","","","","0.1","A","36.56861111","-112.40666667","USFS","AZ","005","04005","Coconino County"
"-112.353044225","36.50166117","2050148","400304484","FS-6891217","FED","FS-FIRESTAT","FS","USAZKNF","Kaibab National Forest","0307","Kaibab National Forest","106","","EKV6","BURNT CORRAL","","","","","","2018","2018/08/12 00:00:00+00","224","1629","Natural","Natural","","","","","2","B","36.50166667","-112.35305556","USFS","AZ","005","04005","Coconino County"
"-112.333044226","36.533605605","2050149","400304485","FS-6874877","FED","FS-FIRESTAT","FS","USAZKNF","Kaibab National Forest","0307","Kaibab National Forest","017","006","EKV6","SNIPE","","","","","","2018","2018/07/07 00:00:00+00","188","1415","Natural","Natural","","","","","0.1","A","36.53361111","-112.33305556","USFS","AZ","005","04005","Coconino County"
"-112.273877556","36.648050036","2050150","400304486","FS-6877504","FED","FS-FIRESTAT","FS","USAZKNF","Kaibab National Forest","0307","Kaibab National Forest","055","027","EKV6","MUD","","","","","","2018","2018/07/14 00:00:00+00","195","1649","Natural","Natural","","","","","0.1","A","36.64805556","-112.27388889","USFS","AZ","005","04005","Coconino County"
"-112.196933131","36.547772264","2050151","400304487","FS-6891195","FED","FS-FIRESTAT","FS","USAZKNF","Kaibab National Forest","0307","Kaibab National Forest","115","58","EKV6","HILL","","","","","","2018","2018/08/17 00:00:00+00","229","1623","Natural","Natural","","","","","0.1","A","36.54777778","-112.19694444","USFS","AZ","005","04005","Coconino County"
"-112.074433136","36.747494451","2050152","400304488","FS-6874878","FED","FS-FIRESTAT","FS","USAZKNF","Kaibab National Forest","0307","Kaibab National Forest","018","007","EKV6","VALLEY VIEW","","","","","","2018","2018/07/07 00:00:00+00","188","1441","Natural","Natural","","","","","0.1","A","36.7475","-112.07444444","USFS","AZ","005","04005","Coconino County"
"-112.228044244","36.559161155","2050153","400304489","FS-6902251","FED","FS-FIRESTAT","FS","USAZKNF","Kaibab National Forest","0307","Kaibab National Forest","122","64","EKV6","FORK","","","","","","2018","2018/08/23 00:00:00+00","235","1725","Natural","Natural","","","","","0.1","A","36.55916667","-112.22805556","USFS","AZ","005","04005","Coconino County"
"-112.17248868","36.709438902","2050154","400304490","FS-6902188","FED","FS-FIRESTAT","FS","USAZKNF","Kaibab National Forest","0307","Kaibab National Forest","104","48","EKV6","BILLY","","","","","","2018","2018/08/11 00:00:00+00","223","2138","Human","Recreation and ceremony","","","","","0.1","A","36.70944444","-112.1725","USFS","AZ","005","04005","Coconino County"
"-112.185822024","36.546661154","2050155","400304491","FS-6891074","FED","FS-FIRESTAT","FS","USAZKNF","Kaibab National Forest","0307","Kaibab National Forest","114","57","EKV6","CRANE","","","","","","2018","2018/08/17 00:00:00+00","229","1516","Natural","Natural","","","","","0.1","A","36.54666667","-112.18583333","USFS","AZ","005","04005","Coconino County"
"-112.416655321","36.522494501","2050156","400304492","FS-6920493","FED","FS-FIRESTAT","FS","USAZKNF","Kaibab National Forest","0307","Kaibab National Forest","138","69","EKV6","LITTLE SOWATS","","","","","","2018","2018/10/26 00:00:00+00","299","0800","Natural","Natural","","","","","0.1","A","36.5225","-112.41666667","USFS","AZ","005","04005","Coconino County"
"-112.332488666","36.539716714","2050157","400304493","FS-6920498","FED","FS-FIRESTAT","FS","USAZKNF","Kaibab National Forest","0307","Kaibab National Forest","137","38","EKV6","SAWMILL POINT","","","","","","2018","2018/10/24 00:00:00+00","297","0956","Natural","Natural","","","","","0.1","A","36.53972222","-112.3325","USFS","AZ","005","04005","Coconino County"
"-112.156933264","35.194716875","2050158","400304494","FS-6865457","FED","FS-FIRESTAT","FS","USAZKNF","Kaibab National Forest","0307","Kaibab National Forest","004","003","EKV6","SEVIER","","","","","","2018","2018/05/05 00:00:00+00","125","0900","Human","Debris and open burning","","2018/05/05 00:00:00+00","125","1100","0.1","A","35.19472222","-112.15694444","USFS","AZ","005","04005","Coconino County"
"-111.870266634","35.493605709","2050159","400304495","FS-6877484","FED","FS-FIRESTAT","FS","USAZKNF","Kaibab National Forest","0307","Kaibab National Forest","057","024","EKV6","PRONG","","","","","","2018","2018/07/15 00:00:00+00","196","1549","Natural","Natural","","2018/07/15 00:00:00+00","196","1834","0.1","A","35.49361111","-111.87027778","USFS","AZ","005","04005","Coconino County"
"-111.971655541","35.079994659","2050160","400304496","FS-6877482","FED","FS-FIRESTAT","FS","USAZKNF","Kaibab National Forest","0307","Kaibab National Forest","059","025","EKV6","THUMB","","","","","","2018","2018/07/15 00:00:00+00","196","1827","Natural","Natural","","2018/07/15 00:00:00+00","196","1830","0.1","A","35.08","-111.97166667","USFS","AZ","005","04005","Coconino County"
"-111.917488869","35.225827967","2050161","400304497","FS-6890993","FED","FS-FIRESTAT","FS","USAZKNF","Kaibab National Forest","0307","Kaibab National Forest","125","45","EKV6","GARLAND","","","","","","2018","2018/08/24 00:00:00+00","236","1002","Natural","Natural","","2018/08/24 00:00:00+00","236","1200","0.1","A","35.22583333","-111.9175","USFS","AZ","005","04005","Coconino County"
"-112.405266565","35.082772464","2050162","400304498","FS-6891857","FED","FS-FIRESTAT","FS","USAZKNF","Kaibab National Forest","0307","Kaibab National Forest","132","50","EKV6","HELLS","","","","","","2018","2018/08/30 00:00:00+00","242","1945","Human","Equipment and vehicle use","","2018/08/31 00:00:00+00","243","1205","0.1","A","35.08277778","-112.40527778","USFS","AZ","025","04025","Yavapai County"
"-112.160544375","35.291383532","2050163","400304499","FS-6891208","FED","FS-FIRESTAT","FS","USAZKNF","Kaibab National Forest","0307","Kaibab National Forest","091","40","EKV6","MOORE","","","","","","2018","2018/07/30 00:00:00+00","211","1303","Natural","Natural","","2018/07/30 00:00:00+00","211","1549","1","B","35.29138889","-112.16055556","USFS","AZ","005","04005","Coconino County"
"-112.046933294","35.10277244","2050164","400304500","FS-6890894","FED","FS-FIRESTAT","FS","USAZKNF","Kaibab National Forest","0307","Kaibab National Forest","129","049","L4AE","PERKINS","2018_9175433_PERKINS","","","","","2018","2018/08/25 00:00:00+00","237","1418","Natural","Natural","","2018/09/15 00:00:00+00","258","1800","565","E","35.10277778","-112.04694444","USFS","AZ","005","04005","Coconino County"
"-112.461377657","35.171661346","2050165","400304501","FS-6861850","FED","FS-FIRESTAT","FS","USAZKNF","Kaibab National Forest","0307","Kaibab National Forest","001","01","EKV6","HIGHWAY","","","","","","2018","2018/01/09 00:00:00+00","9","1541","Human","Equipment and vehicle use","","2018/01/18 00:00:00+00","18","1545","0.25","A","35.17166667","-112.46138889","USFS","AZ","025","04025","Yavapai County"
"-111.89776665","35.257216851","2050166","400304502","FS-6877512","FED","FS-FIRESTAT","FS","USAZKNF","Kaibab National Forest","0307","Kaibab National Forest","051","023","EKV6","FORTYNINE","","","","","","2018","2018/07/14 00:00:00+00","195","1341","Natural","Natural","","2018/07/14 00:00:00+00","195","1638","0.1","A","35.25722222","-111.89777778","USFS","AZ","005","04005","Coconino County"
"-111.919988873","35.166661314","2050167","400304503","FS-6890903","FED","FS-FIRESTAT","FS","USAZKNF","Kaibab National Forest","0307","Kaibab National Forest","127","","EKV6","MICKLE","","","","","","2018","2018/08/24 00:00:00+00","236","1524","Natural","Natural","","2018/08/24 00:00:00+00","236","1818","0.1","A","35.16666667","-111.92","USFS","AZ","005","04005","Coconino County"
"-111.884711073","35.479994601","2050168","400304504","FS-6874876","FED","FS-FIRESTAT","FS","USAZKNF","Kaibab National Forest","0307","Kaibab National Forest","015","10","EKV6","SHEEP","","","","","","2018","2018/07/06 00:00:00+00","187","1831","Natural","Natural","","2018/07/06 00:00:00+00","187","1950","0.1","A","35.48","-111.88472222","USFS","AZ","005","04005","Coconino County"
"-112.237488805","35.231105765","2050169","400304505","FS-6902254","FED","FS-FIRESTAT","FS","USAZKNF","Kaibab National Forest","0307","Kaibab National Forest","136","53","EKV6","SIGNAL","","","","","","2018","2018/09/23 00:00:00+00","266","1119","Human","Recreation and ceremony","","2018/10/30 00:00:00+00","303","1400","0.1","A","35.23111111","-112.2375","USFS","AZ","005","04005","Coconino County"
"-112.194711035","35.220827983","2050170","400304506","FS-6877478","FED","FS-FIRESTAT","FS","USAZKNF","Kaibab National Forest","0307","Kaibab National Forest","062","027","EKV6","SKI","","","","","","2018","2018/07/16 00:00:00+00","197","1030","Natural","Natural","","2018/07/19 00:00:00+00","200","1241","0.1","A","35.22083333","-112.19472222","USFS","AZ","005","04005","Coconino County"
"-112.326377571","36.393327842","2050171","400304507","FS-6877498","FED","FS-FIRESTAT","FS","USAZKNF","Kaibab National Forest","0307","Kaibab National Forest","056","028","EKV6","TIMP","","","","","","2018","2018/07/17 00:00:00+00","198","1104","Natural","Natural","","","","","0.1","A","36.39333333","-112.32638889","USFS","AZ","005","04005","Coconino County"
"-112.083044273","36.558883365","2050172","400304508","FS-6902178","FED","FS-FIRESTAT","FS","USAZKNF","Kaibab National Forest","0307","Kaibab National Forest","095","43","EKV6","TELEPHONE","","","","","","2018","2018/08/01 00:00:00+00","213","1815","Natural","Natural","","","","","0.2","A","36.55888889","-112.08305556","USFS","AZ","005","04005","Coconino County"
"-112.176377584","36.56693892","2050173","400304509","FS-6891194","FED","FS-FIRESTAT","FS","USAZKNF","Kaibab National Forest","0307","Kaibab National Forest","121","63","EKV6","EAST","","","","","","2018","2018/08/23 00:00:00+00","235","1138","Natural","Natural","","","","","0.1","A","36.56694444","-112.17638889","USFS","AZ","005","04005","Coconino County"
"-112.172488686","36.652216689","2050174","400304510","FS-6877628","FED","FS-FIRESTAT","FS","USAZKNF","Kaibab National Forest","0307","Kaibab National Forest","045","18","T731","SIX","","","","","","2018","2018/07/13 00:00:00+00","194","1808","Natural","Natural","","","","","0.1","A","36.65222222","-112.1725","USFS","AZ","005","04005","Coconino County"
"-112.033322071","36.364994497","2050175","400304511","FS-6902180","FED","FS-FIRESTAT","FS","USAZKNF","Kaibab National Forest","0307","Kaibab National Forest","100","046","L2V2","CAT","2018_9228358_CAT","","AZ3636511203320180806","CAT","","2018","2018/08/06 00:00:00+00","218","1454","Natural","Natural","","","","","4497","F","36.365","-112.03333333","USFS","AZ","005","04005","Coconino County"
"-112.51637748","36.939438896","2050176","400304512","FS-6865458","FED","FS-FIRESTAT","FS","USAZKNF","Kaibab National Forest","0307","Kaibab National Forest","005","002","EKV6","TANGLEFOOT","","","","","","2018","2018/05/05 00:00:00+00","125","2230","Human","Arson/incendiarism","","","","","0.1","A","36.93944444","-112.51638889","USFS","AZ","005","04005","Coconino County"
"-112.126099807","36.632216689","2050177","400304513","FS-6877622","FED","FS-FIRESTAT","FS","USAZKNF","Kaibab National Forest","0307","Kaibab National Forest","049","022","EKV6","FINDLEY","","","","","","2018","2018/07/13 00:00:00+00","194","2131","Natural","Natural","","","","","0.1","A","36.63222222","-112.12611111","USFS","AZ","005","04005","Coconino County"
"-112.126099807","36.631383359","2050178","400304514","FS-6877625","FED","FS-FIRESTAT","FS","USAZKNF","Kaibab National Forest","0307","Kaibab National Forest","047","020","EKV6","THREE LAKES","","","","","","2018","2018/07/13 00:00:00+00","194","1916","Natural","Natural","","","","","0.1","A","36.63138889","-112.12611111","USFS","AZ","005","04005","Coconino County"
"-112.023599856","36.33693894","2050179","400304515","FS-6874901","FED","FS-FIRESTAT","FS","USAZKNF","Kaibab National Forest","0307","Kaibab National Forest","021","009","EKV6","SOUTH","","","","","","2018","2018/07/08 00:00:00+00","189","1230","Natural","Natural","","","","","0.3","B","36.33694444","-112.02361111","USFS","AZ","005","04005","Coconino County"
"-112.06304429","36.424716711","2050180","400304516","FS-6890893","FED","FS-FIRESTAT","FS","USAZKNF","Kaibab National Forest","0307","Kaibab National Forest","130","66","EKV6","VIEWPOINT","","","","","","2018","2018/08/26 00:00:00+00","238","1106","Natural","Natural","","","","","0.1","A","36.42472222","-112.06305556","USFS","AZ","005","04005","Coconino County"
"-111.961099863","36.390827819","2050181","400304517","FS-6874977","FED","FS-FIRESTAT","FS","USAZKNF","Kaibab National Forest","0307","Kaibab National Forest","032","13","EKV6","CANYON","","","","","","2018","2018/07/09 00:00:00+00","190","1307","Natural","Natural","","","","","0.1","A","36.39083333","-111.96111111","USFS","AZ","005","04005","Coconino County"
"-112.123877655","35.925827888","2050182","400304518","FS-6917898","FED","FS-FIRESTAT","FS","USAZKNF","Kaibab National Forest","0307","Kaibab National Forest","141","17","EKV6","688","","","","","","2018","2018/11/24 00:00:00+00","328","1235","Human","Recreation and ceremony","","","","","0.1","A","35.92583333","-112.12388889","USFS","AZ","005","04005","Coconino County"
"-111.967488804","35.83638345","2050183","400304519","FS-6874906","FED","FS-FIRESTAT","FS","USAZKNF","Kaibab National Forest","0307","Kaibab National Forest","022","003","EKV6","BLUE","","","","","","2018","2018/07/08 00:00:00+00","189","1428","Natural","Natural","","2018/07/17 00:00:00+00","198","1600","0.3","B","35.83638889","-111.9675","USFS","AZ","005","04005","Coconino County"
"-112.157766547","35.838050132","2050184","400304520","FS-6891209","FED","FS-FIRESTAT","FS","USAZKNF","Kaibab National Forest","0307","Kaibab National Forest","092","11","EKV6","JACKSON","","","","","","2018","2018/07/30 00:00:00+00","211","1537","Natural","Natural","","2018/07/30 00:00:00+00","211","1953","0.5","B","35.83805556","-112.15777778","USFS","AZ","005","04005","Coconino County"
"-111.999710966","36.388883382","2050185","400304521","FS-6879417","FED","FS-FIRESTAT","FS","USAZKNF","Kaibab National Forest","0307","Kaibab National Forest","078","037","EKV6","BUFFALO","","","","","","2018","2018/07/21 00:00:00+00","202","0950","Natural","Natural","","","","","0.1","A","36.38888889","-111.99972222","USFS","AZ","003","04003","Cochise County"
"-112.177488696","36.539161154","2050186","400304522","FS-6874986","FED","FS-FIRESTAT","FS","USAZKNF","Kaibab National Forest","0307","Kaibab National Forest","036","15","EKV6","FRANKS","","","","","","2018","2018/06/09 00:00:00+00","160","2051","Natural","Natural","","","","","0.1","A","36.53916667","-112.1775","USFS","AZ","005","04005","Coconino County"
"-112.316655343","36.499716718","2050187","400304523","FS-6902259","FED","FS-FIRESTAT","FS","USAZKNF","Kaibab National Forest","0307","Kaibab National Forest","085","38","EKV6","DOVE","","","","","","2018","2018/07/25 00:00:00+00","206","1424","Natural","Natural","","","","","0.25","A","36.49972222","-112.31666667","USFS","AZ","005","04005","Coconino County"
"-112.124155368","36.631383359","2050188","400304524","FS-6877523","FED","FS-FIRESTAT","FS","USAZKNF","Kaibab National Forest","0307","Kaibab National Forest","050","023","EKV6","GAME","","","","","","2018","2018/07/14 00:00:00+00","195","1223","Natural","Natural","","","","","0.1","A","36.63138889","-112.12416667","USFS","AZ","005","04005","Coconino County"
"-112.295266441","36.662772256","2050189","400304525","FS-6877511","FED","FS-FIRESTAT","FS","USAZKNF","Kaibab National Forest","0307","Kaibab National Forest","052","024","EKV6","BUCK","","","","","","2018","2018/07/14 00:00:00+00","195","1415","Natural","Natural","","","","","0.1","A","36.66277778","-112.29527778","USFS","AZ","005","04005","Coconino County"
"-112.193599811","36.454716716","2050190","400304526","FS-6902176","FED","FS-FIRESTAT","FS","USAZKNF","Kaibab National Forest","0307","Kaibab National Forest","099","45","EKV6","COUGAR","","","","","","2018","2018/08/04 00:00:00+00","216","1526","Natural","Natural","","","","","0.25","A","36.45472222","-112.19361111","USFS","AZ","005","04005","Coconino County"
"-112.276377565","36.553883378","2050191","400304527","FS-6891202","FED","FS-FIRESTAT","FS","USAZKNF","Kaibab National Forest","0307","Kaibab National Forest","118","60","EKV6","SPRING","","","","","","2018","2018/08/22 00:00:00+00","234","1714","Natural","Natural","","","","","0.1","A","36.55388889","-112.27638889","USFS","AZ","005","04005","Coconino County"
"-112.204155361","36.539161156","2050192","400304528","FS-6882481","FED","FS-FIRESTAT","FS","USAZKNF","Kaibab National Forest","0307","Kaibab National Forest","088","41","EKV6","MOQUITCH","","","","","","2018","2018/07/26 00:00:00+00","207","2049","Natural","Natural","","","","","0.25","A","36.53916667","-112.20416667","USFS","AZ","005","04005","Coconino County"
"-112.268321992","36.702772249","2050193","400304529","FS-6902186","FED","FS-FIRESTAT","FS","USAZKNF","Kaibab National Forest","0307","Kaibab National Forest","102","47","EKV6","LAMBS","","","","","","2018","2018/08/10 00:00:00+00","222","1810","Natural","Natural","","","","","0.1","A","36.70277778","-112.26833333","USFS","AZ","005","04005","Coconino County"
"-112.076099837","36.431105601","2050194","400304530","FS-6879416","FED","FS-FIRESTAT","FS","USAZKNF","Kaibab National Forest","0307","Kaibab National Forest","077","036","EKV6","NORTH","","","","","","2018","2018/07/20 00:00:00+00","201","1911","Natural","Natural","","","","","0.1","A","36.43111111","-112.07611111","USFS","AZ","005","04005","Coconino County"
"-112.412766428","36.562494496","2050195","400304531","FS-6877510","FED","FS-FIRESTAT","FS","USAZKNF","Kaibab National Forest","0307","Kaibab National Forest","053","025","EKV6","SAWMILL","","","","","","2018","2018/07/14 00:00:00+00","195","1425","Natural","Natural","","","","","0.1","A","36.5625","-112.41277778","USFS","AZ","005","04005","Coconino County"
"-112.410821978","36.561383386","2050196","400304532","FS-6902195","FED","FS-FIRESTAT","FS","USAZKNF","Kaibab National Forest","0307","Kaibab National Forest","105","49","EKV6","TRICK","","","","","","2018","2018/08/12 00:00:00+00","224","1500","Natural","Natural","","","","","0.1","A","36.56138889","-112.41083333","USFS","AZ","005","04005","Coconino County"
"-112.3830442","36.694716698","2050197","400304533","FS-6902196","FED","FS-FIRESTAT","FS","USAZKNF","Kaibab National Forest","0307","Kaibab National Forest","112","55","EKV6","TOOTHPICK","","","","","","2018","2018/08/15 00:00:00+00","227","1900","Natural","Natural","","","","","0.1","A","36.69472222","-112.38305556","USFS","AZ","005","04005","Coconino County"
"-112.216377577","36.550272265","2050198","400304534","FS-6890892","FED","FS-FIRESTAT","FS","USAZKNF","Kaibab National Forest","0307","Kaibab National Forest","131","67","EKV6","HOLLOW","","","","","","2018","2018/08/26 00:00:00+00","238","1755","Natural","Natural","","","","","0.1","A","36.55027778","-112.21638889","USFS","AZ","005","04005","Coconino County"
"-112.134710919","36.599438914","2050199","400304535","FS-6874985","FED","FS-FIRESTAT","FS","USAZKNF","Kaibab National Forest","0307","Kaibab National Forest","035","14","EKV6","SINK","","","","","","2018","2018/07/09 00:00:00+00","190","1840","Natural","Natural","","","","","5","B","36.59944444","-112.13472222","USFS","AZ","005","04005","Coconino County"
"-112.119710907","36.748050014","2050200","400304536","FS-6874382","FED","FS-FIRESTAT","FS","USAZKNF","Kaibab National Forest","0307","Kaibab National Forest","009","03","EKV6","GRAVEL","","","","","","2018","2018/06/27 00:00:00+00","178","1926","Human","Missing data/not specified/undetermined","","","","","0.1","A","36.74805556","-112.11972222","USFS","AZ","005","04005","Coconino County"
"-112.125266466","36.744161125","2050201","400304537","FS-6861867","FED","FS-FIRESTAT","FS","USAZKNF","Kaibab National Forest","0307","Kaibab National Forest","003","03","EKV6","TRAIL","","","","","","2018","2018/04/20 00:00:00+00","110","1637","Natural","Natural","","2018/04/20 00:00:00+00","110","2100","0.1","A","36.74416667","-112.12527778","USFS","AZ","005","04005","Coconino County"
"-112.15471091","36.646105579","2050202","400304538","FS-6890995","FED","FS-FIRESTAT","FS","USAZKNF","Kaibab National Forest","0307","Kaibab National Forest","123","65","EKV6","CHARLIE","","","","","","2018","2018/08/23 00:00:00+00","235","1816","Natural","Natural","","","","","0.1","A","36.64611111","-112.15472222","USFS","AZ","005","04005","Coconino County"
"-112.307210907","36.369161184","2050203","400304539","FS-6882479","FED","FS-FIRESTAT","FS","USAZKNF","Kaibab National Forest","0307","Kaibab National Forest","087","40","L2VS","STINA","2018_9250771_STINA","","AZ3636911230720180726","STINA","","2018","2018/07/26 00:00:00+00","207","2031","Natural","Natural","","","","","2600","F","36.36916667","-112.30722222","USFS","AZ","005","04005","Coconino County"
"-112.588044171","36.588050064","2050204","400304540","FS-6874894","FED","FS-FIRESTAT","FS","USAZKNF","Kaibab National Forest","0307","Kaibab National Forest","020","008","EKV6","RED POINT","","","","","","2018","2018/07/07 00:00:00+00","188","1557","Natural","Natural","","","","","0.1","A","36.58805556","-112.58805556","USFS","AZ","005","04005","Coconino County"
"-112.299710893","36.526938933","2050205","400304541","FS-6890994","FED","FS-FIRESTAT","FS","USAZKNF","Kaibab National Forest","0307","Kaibab National Forest","120","62","EKV6","DUGWAY","","","","","","2018","2018/08/22 00:00:00+00","234","1801","Natural","Natural","","","","","0.1","A","36.52694444","-112.29972222","USFS","AZ","005","04005","Coconino County"
"-112.079988714","36.557772255","2050206","400304542","FS-6891212","FED","FS-FIRESTAT","FS","USAZKNF","Kaibab National Forest","0307","Kaibab National Forest","094","042","EKV6","GLEN","","","","","","2018","2018/08/01 00:00:00+00","213","1716","Natural","Natural","","","","","0.1","A","36.55777778","-112.08","USFS","AZ","005","04005","Coconino County"
"-112.316933124","36.383605622","2050207","400304543","FS-6879405","FED","FS-FIRESTAT","FS","USAZKNF","Kaibab National Forest","0307","Kaibab National Forest","074","033","EKV6","LOCUST","","","","","","2018","2018/07/19 00:00:00+00","200","1850","Natural","Natural","","","","","0.1","A","36.38361111","-112.31694444","USFS","AZ","005","04005","Coconino County"
"-112.49526642","36.474161182","2050208","400304544","FS-6874398","FED","FS-FIRESTAT","FS","USAZKNF","Kaibab National Forest","0307","Kaibab National Forest","014","004","EKV6","KWAGUNT","","","","","","2018","2018/07/06 00:00:00+00","187","1600","Natural","Natural","","","","","150","D","36.47416667","-112.49527778","USFS","AZ","005","04005","Coconino County"
"-112.170266471","36.604716695","2050209","400304545","FS-6891069","FED","FS-FIRESTAT","FS","USAZKNF","Kaibab National Forest","0307","Kaibab National Forest","109","52","EKV6","PLATEAU","","","","","","2018","2018/08/15 00:00:00+00","227","1508","Natural","Natural","","","","","0.1","A","36.60472222","-112.17027778","USFS","AZ","005","04005","Coconino County"
"-112.258877566","36.579438924","2050210","400304546","FS-6877624","FED","FS-FIRESTAT","FS","USAZKNF","Kaibab National Forest","0307","Kaibab National Forest","048","021","EKV6","CASTLE","","","","","","2018","2018/07/13 00:00:00+00","194","1918","Natural","Natural","","","","","0.1","A","36.57944444","-112.25888889","USFS","AZ","005","04005","Coconino County"
"-105.629712553","33.376939006","2050211","400304547","FS-6851306","FED","FS-FIRESTAT","FS","USNMLNF","Lincoln National Forest","0308","Lincoln National Forest","002","NM-LNF-043","LKX2","120 A","","","","","","2018","2018/01/30 00:00:00+00","30","0700","Human","Recreation and ceremony","","2018/01/30 00:00:00+00","30","0900","0.7","B","33.37694444","-105.62972222","USFS","NM","027","35027","Lincoln County"
"-105.876101418","32.946939087","2050212","400304548","FS-6850807","FED","FS-FIRESTAT","FS","USNMLNF","Lincoln National Forest","0308","Lincoln National Forest","001","","LKU0","DRY","","","","","","2018","2018/01/28 00:00:00+00","28","1633","Human","Equipment and vehicle use","","2018/01/28 00:00:00+00","28","1815","0.25","A","32.94694444","-105.87611111","USFS","NM","035","35035","Otero County"
"-105.718601468","32.718883566","2050213","400304549","FS-6863332","FED","FS-FIRESTAT","FS","USNMLNF","Lincoln National Forest","0308","Lincoln National Forest","008","","LPV6","460","","","","","","2018","2018/04/21 00:00:00+00","111","1620","Human","Recreation and ceremony","","","","","0.1","A","32.71888889","-105.71861111","USFS","NM","035","35035","Otero County"
"-105.901379192","32.952772427","2050214","400304550","FS-6863343","FED","FS-FIRESTAT","FS","USNMLNF","Lincoln National Forest","0308","Lincoln National Forest","003","","LME8","MM5","","","","","","2018","2018/03/20 00:00:00+00","79","1150","Human","Debris and open burning","","","","","0.1","A","32.95277778","-105.90138889","USFS","NM","035","35035","Otero County"
"-105.724990339","32.971661306","2050215","400304551","FS-6867953","FED","FS-FIRESTAT","FS","USNMLNF","Lincoln National Forest","0308","Lincoln National Forest","027","","LT6T","SADDLE 15","","","","","","2018","2018/06/02 00:00:00+00","153","0647","Human","Recreation and ceremony","","","","","0.1","A","32.97166667","-105.725","USFS","NM","035","35035","Otero County"
"-105.881101385","33.402494575","2050216","400304552","FS-6875527","FED","FS-FIRESTAT","FS","USNMLNF","Lincoln National Forest","0308","Lincoln National Forest","035","503","LV6G","THREE RIVERS","","","","","","2018","2018/06/15 00:00:00+00","166","1800","Human","Missing data/not specified/undetermined","","","","","0.1","A","33.4025","-105.88111111","USFS","NM","027","35027","Lincoln County"
"-105.603323669","33.377216785","2050217","400304553","FS-6892631","FED","FS-FIRESTAT","FS","USNMLNF","Lincoln National Forest","0308","Lincoln National Forest","053","NM-lnf-685","EKV7","READ MESA","","","","","","2018","2018/08/02 00:00:00+00","214","1200","Natural","Natural","","2018/08/02 00:00:00+00","214","1300","0.5","B","33.37722222","-105.60333333","USFS","NM","027","35027","Lincoln County"
"-105.669990297","33.754716728","2050218","400304554","FS-6899342","FED","FS-FIRESTAT","FS","USNMLNF","Lincoln National Forest","0308","Lincoln National Forest","048","609","EKV7","TRAILS CANYON","","","","","","2018","2018/07/14 00:00:00+00","195","1500","Natural","Natural","","2018/07/15 00:00:00+00","196","0800","0.1","A","33.75472222","-105.67","USFS","NM","027","35027","Lincoln County"
"-104.651101739","32.197216933","2050219","400304555","FS-6904995","FED","FS-FIRESTAT","FS","USNMLNF","Lincoln National Forest","0308","Lincoln National Forest","011","","LQN7","JUNIPER TANK","","","","","","2018","2018/04/28 00:00:00+00","118","1300","Human","Equipment and vehicle use","","","","","0.1","A","32.19722222","-104.65111111","USFS","NM","015","35015","Eddy County"
"-104.744157279","32.191383608","2050220","400304556","FS-6904993","FED","FS-FIRESTAT","FS","USNMLNF","Lincoln National Forest","0308","Lincoln National Forest","004","","LMK8","BROKEN TANK","","","","","","2018","2018/03/20 00:00:00+00","79","1300","Human","Equipment and vehicle use","","","","","0.1","A","32.19138889","-104.74416667","USFS","NM","015","35015","Eddy County"
"-105.712212571","32.837494657","2050221","400304557","FS-6877233","FED","FS-FIRESTAT","FS","USNMLNF","Lincoln National Forest","0308","Lincoln National Forest","050","","L0MQ","SPRING","","","","","","2018","2018/07/16 00:00:00+00","197","1344","Human","Recreation and ceremony","","","","","0.02","A","32.8375","-105.71222222","USFS","NM","035","35035","Otero County"
"-105.444434842","32.970827952","2050222","400304558","FS-6896998","FED","FS-FIRESTAT","FS","USNMLNF","Lincoln National Forest","0308","Lincoln National Forest","054","","EKV7","SCAR","","","","","","2018","2018/08/02 00:00:00+00","214","2232","Natural","Natural","","","","","0.1","A","32.97083333","-105.44444444","USFS","NM","035","35035","Otero County"
"-105.695268132","32.879994649","2050223","400304559","FS-6864383","FED","FS-FIRESTAT","FS","USNMLNF","Lincoln National Forest","0308","Lincoln National Forest","007","P3LN9L","LN9L","RUSSIA","","","","","","2018","2018/04/17 00:00:00+00","107","1900","Human","Missing data/not specified/undetermined","","","","","0.5","B","32.88","-105.69527778","USFS","NM","027","35027","Lincoln County"
"-105.475545964","32.837494646","2050224","400304560","FS-6896962","FED","FS-FIRESTAT","FS","USNMLNF","Lincoln National Forest","0308","Lincoln National Forest","049","","EKV7","FLATS","","","","","","2018","2018/07/14 00:00:00+00","195","1653","Natural","Natural","","","","","0.1","A","32.8375","-105.47555556","USFS","NM","035","35035","Otero County"
"-105.494434847","32.732772443","2050225","400304561","FS-6867842","FED","FS-FIRESTAT","FS","USNMLNF","Lincoln National Forest","0308","Lincoln National Forest","017","","EKV7","BLUEWATER","","","","","","2018","2018/05/22 00:00:00+00","142","1729","Natural","Natural","","","","","0.25","A","32.73277778","-105.49444444","USFS","NM","035","35035","Otero County"
"-105.684434803","32.74999467","2050226","400304562","FS-6882084","FED","FS-FIRESTAT","FS","USNMLNF","Lincoln National Forest","0308","Lincoln National Forest","039","","LW9P","PEPPER SPRING","","","","","","2018","2018/06/26 00:00:00+00","177","1715","Natural","Natural","","","","","78","C","32.75","-105.68444444","USFS","NM","035","35035","Otero County"
"-105.735545907","32.830550219","2050227","400304563","FS-6896947","FED","FS-FIRESTAT","FS","USNMLNF","Lincoln National Forest","0308","Lincoln National Forest","055","","L4D9","BLUFF SPRINGS 5","","","","","","2018","2018/09/01 00:00:00+00","244","1330","Human","Recreation and ceremony","","","","","0.2","A","32.83055556","-105.73555556","USFS","NM","035","35035","Otero County"
"-105.731934781","32.933605752","2050228","400304564","FS-6863836","FED","FS-FIRESTAT","FS","USNMLNF","Lincoln National Forest","0308","Lincoln National Forest","005","","LMR2","PUMP HOUSE","","","","","","2018","2018/04/13 00:00:00+00","103","1740","Human","Missing data/not specified/undetermined","","","","","0.1","A","32.93361111","-105.73194444","USFS","NM","035","35035","Otero County"
"-105.738601449","32.935827972","2050229","400304565","FS-6894451","FED","FS-FIRESTAT","FS","USNMLNF","Lincoln National Forest","0308","Lincoln National Forest","057","P3L4JP","L4JP","SLEEPY GRASS","","","","","","2018","2018/09/04 00:00:00+00","247","0900","Human","Recreation and ceremony","","","","","0.1","A","32.93583333","-105.73861111","USFS","NM","035","35035","Otero County"
"-105.778879233","32.735272456","2050230","400304566","FS-6898835","FED","FS-FIRESTAT","FS","USNMLNF","Lincoln National Forest","0308","Lincoln National Forest","052","","EKV7","DANLEY","","","","","","2018","2018/07/26 00:00:00+00","207","1131","Natural","Natural","","","","","5.3","B","32.73527778","-105.77888889","USFS","NM","035","35035","Otero County"
"-105.711657021","32.837494657","2050231","400304567","FS-6896931","FED","FS-FIRESTAT","FS","USNMLNF","Lincoln National Forest","0308","Lincoln National Forest","056","","L4EA","BLUFF SPRINGS 6","","","","","","2018","2018/09/01 00:00:00+00","244","1345","Human","Recreation and ceremony","","","","","0.2","A","32.8375","-105.71166667","USFS","NM","035","35035","Otero County"
"-105.656379243","32.994439069","2050232","400304568","FS-6867637","FED","FS-FIRESTAT","FS","USNMLNF","Lincoln National Forest","0308","Lincoln National Forest","029","","1111","SPUD PATCH","","","","","","2018","2018/06/02 00:00:00+00","153","1937","Human","Recreation and ceremony","","","","","0.1","A","32.99444444","-105.65638889","USFS","NM","035","35035","Otero County"
"-105.762768128","32.716383569","2050233","400304569","FS-6876667","FED","FS-FIRESTAT","FS","USNMLNF","Lincoln National Forest","0308","Lincoln National Forest","047","","L0CR","HORNBUCKLE FIRE","","","","","","2018","2018/07/14 00:00:00+00","195","1230","Human","Recreation and ceremony","","","","","0.1","A","32.71638889","-105.76277778","USFS","NM","035","35035","Otero County"
"-105.711934791","32.837494657","2050234","400304570","FS-6877237","FED","FS-FIRESTAT","FS","USNMLNF","Lincoln National Forest","0308","Lincoln National Forest","051","","L0MS","SPRING 2","","","","","","2018","2018/07/16 00:00:00+00","197","1344","Human","Recreation and ceremony","","","","","0.01","A","32.8375","-105.71194444","USFS","NM","035","35035","Otero County"
"-112.125822179","34.973605792","2050235","400304571","FS-6873918","FED","FS-FIRESTAT","FS","USAZPNF","Prescott National Forest","0309","Prescott National Forest","029","Chino-9","EKV8","HENDERSON","","","","","","2018","2018/07/06 00:00:00+00","187","1953","Natural","Natural","","","","","0.1","A","34.97361111","-112.12583333","USFS","AZ","025","04025","Yavapai County"
"-112.432766572","34.941661374","2050236","400304572","FS-6851503","FED","FS-FIRESTAT","FS","USAZPNF","Prescott National Forest","0309","Prescott National Forest","001","Chino 001","LK5V","CINDER","","","","","","2018","2018/02/11 00:00:00+00","42","1330","Human","Missing data/not specified/undetermined","","","","","0.5","B","34.94166667","-112.43277778","USFS","AZ","025","04025","Yavapai County"
"-112.582488793","34.592216978","2050237","400304573","FS-6865603","FED","FS-FIRESTAT","FS","USAZPNF","Prescott National Forest","0309","Prescott National Forest","016","Brad - 7","LTG3","TWO ROCK 6","","","","","","2018","2018/05/26 00:00:00+00","146","1150","Human","Equipment and vehicle use","","","","","0.1","A","34.59222222","-112.5825","USFS","AZ","025","04025","Yavapai County"
"-112.582211013","34.591939198","2050238","400304574","FS-6865615","FED","FS-FIRESTAT","FS","USAZPNF","Prescott National Forest","0309","Prescott National Forest","017","Brad - 8","LTG3","TWO ROCK 7","","","","","","2018","2018/05/26 00:00:00+00","146","1150","Human","Equipment and vehicle use","","","","","0.1","A","34.59194444","-112.58222222","USFS","AZ","025","04025","Yavapai County"
"-112.582488793","34.592216978","2050239","400304575","FS-6865617","FED","FS-FIRESTAT","FS","USAZPNF","Prescott National Forest","0309","Prescott National Forest","018","Brad - 9","LTG3","TWO ROCK 8","","","","","","2018","2018/05/26 00:00:00+00","146","1150","Human","Equipment and vehicle use","","","","","0.1","A","34.59222222","-112.5825","USFS","AZ","025","04025","Yavapai County"
"-112.583599902","34.592772538","2050240","400304576","FS-6865602","FED","FS-FIRESTAT","FS","USAZPNF","Prescott National Forest","0309","Prescott National Forest","015","Brad - 6","LTG3","TWO ROCK 5","","","","","","2018","2018/05/26 00:00:00+00","146","1155","Human","Equipment and vehicle use","","","","","0.1","A","34.59277778","-112.58361111","USFS","AZ","025","04025","Yavapai County"
"-112.0233222","34.973050236","2050241","400304577","FS-6866722","FED","FS-FIRESTAT","FS","USAZPNF","Prescott National Forest","0309","Prescott National Forest","021","Chino-6","LTX1","SYCAMORE 2","","","","","","2018","2018/05/28 00:00:00+00","148","1230","Human","Missing data/not specified/undetermined","","","","","0.1","A","34.97305556","-112.02333333","USFS","AZ","025","04025","Yavapai County"
"-112.014711091","34.974994675","2050242","400304578","FS-6866721","FED","FS-FIRESTAT","FS","USAZPNF","Prescott National Forest","0309","Prescott National Forest","019","Chino-4","LTX1","SYCAMORE","2018_9129919_SYCAMORE","","","","","2018","2018/05/28 00:00:00+00","148","1221","Human","Missing data/not specified/undetermined","","2018/06/02 00:00:00+00","153","1255","230","D","34.975","-112.01472222","USFS","AZ","025","04025","Yavapai County"
"-111.986933315","34.988605782","2050243","400304579","FS-6866321","FED","FS-FIRESTAT","FS","USAZPNF","Prescott National Forest","0309","Prescott National Forest","020","Chino - 5","LT46","TAYLOR","","","","","","2018","2018/05/29 00:00:00+00","149","1800","Human","Missing data/not specified/undetermined","","2018/05/30 00:00:00+00","150","1500","0.25","A","34.98861111","-111.98694444","USFS","AZ","005","04005","Coconino County"
"-112.123877743","34.931105797","2050244","400304580","FS-6873919","FED","FS-FIRESTAT","FS","USAZPNF","Prescott National Forest","0309","Prescott National Forest","030","Chino-10","EKV8","HENDERSON 2","","","","","","2018","2018/07/06 00:00:00+00","187","2038","Natural","Natural","","","","","0.1","A","34.93111111","-112.12388889","USFS","AZ","025","04025","Yavapai County"
"-112.135266633","34.907216911","2050245","400304581","FS-6874166","FED","FS-FIRESTAT","FS","USAZPNF","Prescott National Forest","0309","Prescott National Forest","031","Chino -12","EKV8","HENDERSON 3","","","","","","2018","2018/07/06 00:00:00+00","187","2045","Natural","Natural","","","","","0.1","A","34.90722222","-112.13527778","USFS","AZ","025","04025","Yavapai County"
"-112.136099963","34.908328021","2050246","400304582","FS-6874385","FED","FS-FIRESTAT","FS","USAZPNF","Prescott National Forest","0309","Prescott National Forest","032","Chino - 12","EKV8","HENDERSON 4","","","","","","2018","2018/07/06 00:00:00+00","187","2047","Natural","Natural","","","","","0.1","A","34.90833333","-112.13611111","USFS","AZ","025","04025","Yavapai County"
"-112.733599856","34.79610585","2050247","400304583","FS-6880765","FED","FS-FIRESTAT","FS","USAZPNF","Prescott National Forest","0309","Prescott National Forest","041","Chino-17","EKV8","HUMPHREY","","","","","","2018","2018/07/25 00:00:00+00","206","1513","Natural","Natural","","","","","0.1","A","34.79611111","-112.73361111","USFS","AZ","025","04025","Yavapai County"
"-112.57526657","34.642772531","2050248","400304584","FS-6874396","FED","FS-FIRESTAT","FS","USAZPNF","Prescott National Forest","0309","Prescott National Forest","034","Brad - 10","EKV8","GRANITE","","","","","","2018","2018/07/07 00:00:00+00","188","1811","Natural","Natural","","","","","0.1","A","34.64277778","-112.57527778","USFS","AZ","025","04025","Yavapai County"
"-112.275822216","34.176661466","2050249","400304585","FS-6874433","FED","FS-FIRESTAT","FS","USAZPNF","Prescott National Forest","0309","Prescott National Forest","036","Brad -","EKV8","KENTUCK","","","","","","2018","2018/07/09 00:00:00+00","190","1158","Natural","Natural","","","","","0.1","A","34.17666667","-112.27583333","USFS","AZ","025","04025","Yavapai County"
"-112.451377725","34.386105888","2050250","400304586","FS-6882061","FED","FS-FIRESTAT","FS","USAZPNF","Prescott National Forest","0309","Prescott National Forest","045","Brad - 13","EKV8","QUAIL","","","","","","2018","2018/07/28 00:00:00+00","209","1729","Natural","Natural","","","","","0.5","B","34.38611111","-112.45138889","USFS","AZ","025","04025","Yavapai County"
"-112.536377692","34.582216977","2050251","400304587","FS-6897901","FED","FS-FIRESTAT","FS","USAZPNF","Prescott National Forest","0309","Prescott National Forest","058","Brad-22","L5AC","SPENCE","","","","","","2018","2018/09/22 00:00:00+00","265","1348","Human","Power generation/transmission/distribution","","2018/09/22 00:00:00+00","265","1900","0.01","A","34.58222222","-112.53638889","USFS","AZ","025","04025","Yavapai County"
"-112.541655474","34.5544392","2050252","400304588","FS-6882060","FED","FS-FIRESTAT","FS","USAZPNF","Prescott National Forest","0309","Prescott National Forest","044","Brad-12","EKV8","MILLER CREEK","","","","","","2018","2018/07/28 00:00:00+00","209","1538","Natural","Natural","","","","","0.7","B","34.55444444","-112.54166667","USFS","AZ","025","04025","Yavapai County"
"-112.883044256","35.048328046","2050253","400304589","FS-6892823","FED","FS-FIRESTAT","FS","USAZPNF","Prescott National Forest","0309","Prescott National Forest","057","Chino-20","EKV8","RED","","","","","","2018","2018/09/03 00:00:00+00","246","1940","Natural","Natural","","","","","0.1","A","35.04833333","-112.88305556","USFS","AZ","025","04025","Yavapai County"
"-112.326933317","34.16721702","2050254","400304590","FS-6885467","FED","FS-FIRESTAT","FS","USAZPNF","Prescott National Forest","0309","Prescott National Forest","052","Brad-18","EKV8","LANE","","","","","","2018","2018/08/09 00:00:00+00","221","1800","Natural","Natural","","2018/08/10 00:00:00+00","222","1230","0.1","A","34.16722222","-112.32694444","USFS","AZ","025","04025","Yavapai County"
"-112.537488809","34.503328097","2050255","400304591","FS-6914583","FED","FS-FIRESTAT","FS","USAZPNF","Prescott National Forest","0309","Prescott National Forest","059","Brad - 3","L6N2","COLD","","","","","","2018","2018/12/11 00:00:00+00","345","1107","Human","Missing data/not specified/undetermined","","","","","0.1","A","34.50333333","-112.5375","USFS","AZ","025","04025","Yavapai County"
"-112.124711073","34.932216907","2050256","400304592","FS-6881035","FED","FS-FIRESTAT","FS","USAZPNF","Prescott National Forest","0309","Prescott National Forest","042","Chino - 18","EKV8","RAILROAD","","","","","","2018","2018/07/25 00:00:00+00","206","1550","Natural","Natural","","","","","25","C","34.93222222","-112.12472222","USFS","AZ","025","04025","Yavapai County"
"-112.758599856","34.747216968","2050257","400304593","FS-6874007","FED","FS-FIRESTAT","FS","USAZPNF","Prescott National Forest","0309","Prescott National Forest","028","Chino-9","EKV8","HORSE WASH","","","","","","2018","2018/07/06 00:00:00+00","187","1646","Natural","Natural","","","","","0.1","A","34.74722222","-112.75861111","USFS","AZ","025","04025","Yavapai County"
"-112.964155373","34.779439195","2050258","400304594","FS-6874414","FED","FS-FIRESTAT","FS","USAZPNF","Prescott National Forest","0309","Prescott National Forest","035","Chino - 15","L05B","STUBBS","2018_9267465_STUBBS","","AZ3477911297320180708","STUBBS","","2018","2018/07/08 00:00:00+00","189","1842","Natural","Natural","","2018/08/30 00:00:00+00","242","1800","8500","G","34.77944444","-112.96416667","USFS","AZ","025","04025","Yavapai County"
"-112.792210945","34.911661398","2050259","400304595","FS-6883192","FED","FS-FIRESTAT","FS","USAZPNF","Prescott National Forest","0309","Prescott National Forest","051","Chino-19","EKV8","WOODLAND","","","","","","2018","2018/08/02 00:00:00+00","214","2030","Natural","Natural","","","","","0.1","A","34.91166667","-112.79222222","USFS","AZ","025","04025","Yavapai County"
"-112.553599914","34.524716985","2050260","400304596","FS-6886761","FED","FS-FIRESTAT","FS","USAZPNF","Prescott National Forest","0309","Prescott National Forest","053","Brad-19","EKV8","PORTER","","","","","","2018","2018/08/14 00:00:00+00","226","1230","Natural","Natural","","2018/08/14 00:00:00+00","226","1600","0.1","A","34.52472222","-112.55361111","USFS","AZ","025","04025","Yavapai County"
"-112.030266691","34.455828075","2050261","400304597","FS-6882055","FED","FS-FIRESTAT","FS","USAZPNF","Prescott National Forest","0309","Prescott National Forest","043","Verde-13","L11J","REIMER","","","","","","2018","2018/07/28 00:00:00+00","209","1425","Human","Missing data/not specified/undetermined","","","","","0.1","A","34.45583333","-112.03027778","USFS","AZ","025","04025","Yavapai County"
"-112.030266691","34.458328074","2050262","400304598","FS-6872233","FED","FS-FIRESTAT","FS","USAZPNF","Prescott National Forest","0309","Prescott National Forest","027","Verde - 10","LXE5","WINGFIELD","","","","","","2018","2018/06/29 00:00:00+00","180","0154","Human","Equipment and vehicle use","","2018/06/29 00:00:00+00","180","1200","0.1","A","34.45833333","-112.03027778","USFS","AZ","025","04025","Yavapai County"
"-112.037766692","34.427216969","2050263","400304599","FS-6875880","FED","FS-FIRESTAT","FS","USAZPNF","Prescott National Forest","0309","Prescott National Forest","040","Verde - 12","LZ84","CIENEGA","","","","","","2018","2018/07/13 00:00:00+00","194","1100","Human","Missing data/not specified/undetermined","","","","","0.5","B","34.42722222","-112.03777778","USFS","AZ","025","04025","Yavapai County"
"-111.961100017","34.669161382","2050264","400304600","FS-6858767","FED","FS-FIRESTAT","FS","USAZPNF","Prescott National Forest","0309","Prescott National Forest","008","Verde - 6","LN5H","THOUSAND","","","","","","2018","2018/04/16 00:00:00+00","106","1246","Human","Missing data/not specified/undetermined","","","","","0.1","A","34.66916667","-111.96111111","USFS","AZ","025","04025","Yavapai County"
