"ï»¿X","Y","OBJECTID","FOD_ID","FPA_ID","SOURCE_SYSTEM_TYPE","SOURCE_SYSTEM","NWCG_REPORTING_AGENCY","NWCG_REPORTING_UNIT_ID","NWCG_REPORTING_UNIT_NAME","SOURCE_REPORTING_UNIT","SOURCE_REPORTING_UNIT_NAME","LOCAL_FIRE_REPORT_ID","LOCAL_INCIDENT_ID","FIRE_CODE","FIRE_NAME","ICS_209_PLUS_INCIDENT_JOIN_ID","ICS_209_PLUS_COMPLEX_JOIN_ID","MTBS_ID","MTBS_FIRE_NAME","COMPLEX_NAME","FIRE_YEAR","DISCOVERY_DATE","DISCOVERY_DOY","DISCOVERY_TIME","NWCG_CAUSE_CLASSIFICATION","NWCG_GENERAL_CAUSE","NWCG_CAUSE_AGE_CATEGORY","CONT_DATE","CONT_DOY","CONT_TIME","FIRE_SIZE","FIRE_SIZE_CLASS","LATITUDE","LONGITUDE","OWNER_DESCR","STATE","COUNTY","FIPS_CODE","FIPS_NAME"
"-111.836487195","47.085093325","1980001","400106455","SFO-2017MTCES000051","NONFED","ST-NASF","ST/C&L","USMTCES","Central Land Office","MTCES","Central Land Office","","000051","","SOUTH FORK STICKNEY","","","","","","2017","2017/06/04 00:00:00+00","155","1808","Natural","Natural","","2017/06/05 00:00:00+00","156","1754","1","B","47.0851","-111.8365","PRIVATE","MT","Lewis & Clark","30049","Lewis and Clark County"
"-103.333589297","46.482892598","1980002","400106456","SFO-2017440082018-8","NONFED","ST-NASF","ST/C&L","USNDNDS","North Dakota State Forest Service","44008","Local Fire Department","","2018-8","","GNAT","","","","","","2017","2017/06/05 00:00:00+00","156","1809","Natural","Natural","","2017/06/05 00:00:00+00","156","1905","1","B","46.4829","-103.3336","PRIVATE","ND","Slope","38087","Slope County"
"-88.593636998","31.999222825","1980003","400106457","SFO-2017MSMFC7047","NONFED","ST-NASF","ST/C&L","USMSMSS","Mississippi Forestry Commission","MSMFC","Mississippi Forestry Commission","","7047","","3921","","","","","","2017","2017/02/10 00:00:00+00","41","1655","Human","Debris and open burning","","2017/02/10 00:00:00+00","41","1814","1","B","31.99922873","-88.5936423","PRIVATE","MS","Clarke","28023","Clarke County"
"-103.383190148","40.754593328","1980004","400106458","SFO-201775301248","NONFED","ST-NASF","ST/C&L","USCOSTRX","Sterling Fire Rescue","7530","Sterling Fire Rescue","","1248","","UNKNOWN","","","","","","2017","2017/06/05 00:00:00+00","156","1839","Natural","Natural","","2017/06/05 00:00:00+00","156","1920","2","B","40.7546","-103.3832","MISSING/NOT SPECIFIED","CO","LOGAN","08075","Logan County"
"-82.534096538","29.085294558","1980005","400106459","SFO-2017FLFLS2017080410","NONFED","ST-NASF","ST/C&L","USFLFLS","Florida Forest Service","FLFLS","Florida Forest Service","","2017080410","","COUNTY LINE #2 (42)","","","","","","2017","2017/05/30 00:00:00+00","150","1731","Natural","Natural","","2017/06/06 00:00:00+00","157","1049","50","C","29.0853","-82.5341","PRIVATE","FL","Marion","12083","Marion County"
"-108.071989471","37.260794127","1980006","400106460","SFO-20176745170087","NONFED","ST-NASF","ST/C&L","USCOFTLX","Fort Lewis-Mesa Fire Protection District","6745","Fort Lewis-Mesa Fire Protection District","","170087","","UNKNOWN","","","","","","2017","2017/06/06 00:00:00+00","157","1523","Natural","Natural","","2017/06/06 00:00:00+00","157","1622","0.5","B","37.2608","-108.072","MISSING/NOT SPECIFIED","CO","LA PLATA","08067","La Plata County"
"-118.742185389","48.946953911","1980007","400106462","SFO-2017WADNR168","NONFED","ST-NASF","ST/C&L","USWAWAS","Washington State Department of Natural Resources Headquarters","WADNR","Washington Department of Natural Resources","","168","","VULCAN ROCKS","","","","","","2017","2017/06/01 00:00:00+00","152","1300","Natural","Natural","","2017/06/07 00:00:00+00","158","1055","0.1","A","48.94696","-118.7422","STATE","WA","19","53019","Ferry County"
"-108.071989471","37.260794127","1980008","400106463","SFO-20176745170088","NONFED","ST-NASF","ST/C&L","USCOFTLX","Fort Lewis-Mesa Fire Protection District","6745","Fort Lewis-Mesa Fire Protection District","","170088","","UNKNOWN","","","","","","2017","2017/06/07 00:00:00+00","158","1016","Natural","Natural","","2017/06/07 00:00:00+00","158","1155","0.5","B","37.2608","-108.072","MISSING/NOT SPECIFIED","CO","LA PLATA","08067","La Plata County"
"-89.402014887","31.746365078","1980009","400106464","SFO-2017MSMFC7046","NONFED","ST-NASF","ST/C&L","USMSMSS","Mississippi Forestry Commission","MSMFC","Mississippi Forestry Commission","","7046","","3920","","","","","","2017","2017/02/10 00:00:00+00","41","1647","Human","Debris and open burning","","2017/02/10 00:00:00+00","41","1823","1","B","31.7463709","-89.4020204","STATE","MS","Covington","28031","Covington County"
"-90.448556131","31.753562884","1980010","400106465","SFO-2017MSMFC7044","NONFED","ST-NASF","ST/C&L","USMSMSS","Mississippi Forestry Commission","MSMFC","Mississippi Forestry Commission","","7044","","3918","","","","","","2017","2017/02/10 00:00:00+00","41","1834","Human","Debris and open burning","","2017/02/10 00:00:00+00","41","2005","3","B","31.75356867","-90.44856193","PRIVATE","MS","Copiah","28029","Copiah County"
"-104.770589972","39.478493602","1980011","400106466","SFO-20175208469","NONFED","ST-NASF","ST/C&L","USCOSOMX","South Metro Fire Rescue","520","South Metro Fire Rescue","","8469","","UNKNOWN","","","","","","2017","2017/06/07 00:00:00+00","158","1617","Natural","Natural","","2017/06/07 00:00:00+00","158","1623","0.1","A","39.4785","-104.7706","MISSING/NOT SPECIFIED","CO","ARAPAHOE","08005","Arapahoe County"
"-105.195789881","39.419993639","1980012","400106467","SFO-2017597870","NONFED","ST-NASF","ST/C&L","USCONOFX","North Fork Fire Protection District","5978","North Fork Fire Protection District","","70","","REYNOLDS FIRE","","","","","","2017","2017/06/07 00:00:00+00","158","1710","Natural","Natural","","2017/06/07 00:00:00+00","158","1800","0.1","A","39.42","-105.1958","COUNTY","CO","JEFFERSON","08059","Jefferson County"
"-82.023496721","28.034194796","1980013","400106468","SFO-2017FLFLS2017140302","NONFED","ST-NASF","ST/C&L","USFLFLS","Florida Forest Service","FLFLS","Florida Forest Service","","2017140302","","DOLPHIN (53) ","","","","","","2017","2017/05/27 00:00:00+00","147","0830","Natural","Natural","","2017/06/08 00:00:00+00","159","0947","0.3","B","28.0342","-82.0235","PRIVATE","FL","Polk","12105","Polk County"
"-120.739156056","44.365554414","1980014","400106470","SFO-2017ORODF1795102417","NONFED","ST-NASF","ST/C&L","USORORS","Oregon Department of Forestry Salem Headquarters","ORODF","Oregon Department of Forestry","","1795102417","","JOHNSON CREEK","","","","","","2017","2017/06/08 00:00:00+00","159","1506","Natural","Natural","","2017/06/08 00:00:00+00","159","1706","0.1","A","44.36556","-120.73917","PRIVATE","OR","Crook","41013","Crook County"
"-115.929192887","46.874739403","1980015","400106471","SFO-2017IDDL9902017002","NONFED","ST-NASF","ST/C&L","USIDIDS","Idaho Department of Lands","IDDL","Idaho Department of Lands","","9902017002","","WEST 400","","","","","","2017","2017/06/08 00:00:00+00","159","2100","Natural","Natural","","2017/06/09 00:00:00+00","160","1200","0.1","A","46.87474565","-115.92920648","STATE","ID","Clearwater","16035","Clearwater County"
"-104.624490255","37.087093938","1980016","400106472","SFO-201771552017045","NONFED","ST-NASF","ST/C&L","USCOSTOX","Stonewall Fire Protection District","7155","Stonewall Fire Protection District","","2017045","","UNKNOWN","","","","","","2017","2017/06/09 00:00:00+00","160","1039","Natural","Natural","","2017/06/09 00:00:00+00","160","1300","1","B","37.0871","-104.6245","MISSING/NOT SPECIFIED","CO","LAS ANIMAS","08071","Las Animas County"
"-120.703596059","44.38305441","1980017","400106473","SFO-2017ORODF1795102517","NONFED","ST-NASF","ST/C&L","USORORS","Oregon Department of Forestry Salem Headquarters","ORODF","Oregon Department of Forestry","","1795102517","","SECTION 4","","","","","","2017","2017/06/09 00:00:00+00","160","1006","Natural","Natural","","2017/06/09 00:00:00+00","160","1306","0.1","A","44.38306","-120.70361","PRIVATE","OR","Crook","41013","Crook County"
"-81.479830048","32.233160468","1980018","400106475","SFO-2017GAGAS-FY2017-Bulloch-070","NONFED","ST-NASF","ST/C&L","USGAGAS","Georgia Forestry Commission","GAGAS","Georgia Forestry Commission","","FY2017-Bulloch-070","","FY2017-BULLOCH-070","","","","","","2017","2017/06/09 00:00:00+00","160","1955","Natural","Natural","","2017/06/09 00:00:00+00","160","2051","1","B","32.23316667","-81.47983333","PRIVATE","GA","Bulloch             ","13031","Bulloch County"
"-103.168249493","46.731231655","1980019","400106476","SFO-201740262018-22","NONFED","ST-NASF","ST/C&L","USNDNDS","North Dakota State Forest Service","4026","Local Fire Department","","2018-22","","RICHARD","","","","","","2017","2017/06/10 00:00:00+00","161","1310","Natural","Natural","","2017/06/10 00:00:00+00","161","1430","100","D","46.7312391","-103.1682602","PRIVATE","ND","Billings","38007","Billings County"
"-93.082576531","43.20639626","1980020","400106477","SFO-2017IAIAS17325","NONFED","ST-NASF","ST/C&L","USIAIAS","Iowa Department of Natural Resources","IAIAS","Iowa Department of Natural Resources","","17325","","","","","","","","2017","2017/06/10 00:00:00+00","161","","Natural","Natural","","2017/06/10 00:00:00+00","161","","0.1","A","43.206404","-93.082584","MUNICIPAL/LOCAL","IA","Cerro Gordo","19033","Cerro Gordo County"
"-120.273243098","37.941049885","1980021","400106478","SFO-2017CACDFTCU006713","NONFED","ST-NASF","ST/C&L","USCACDF","California Department of Forestry & Fire Protection","CACDF","Headquarters, California Department of Forestry & Fire Protection","","TCU006713","","ANDERSON","","","","","","2017","2017/06/11 00:00:00+00","162","1807","Natural","Natural","","2017/06/11 00:00:00+00","162","1820","0.01","A","37.941055","-120.273256","MISSING/NOT SPECIFIED","CA","TUOLUMNE","06109","Tuolumne County"
"-84.329412742","35.038926291","1980022","400106479","SFO-2017TNTNS17-C0014","NONFED","ST-NASF","ST/C&L","USTNTNS","Tennessee Division of Forestry","TNTNS","Tennessee Division of Forestry","","17-C0014","","BURGERTOWN RD. FIRE","","","","","","2017","2017/02/10 00:00:00+00","41","2207","Human","Debris and open burning","","2017/02/10 00:00:00+00","41","2327","2.3","B","35.038933","-84.329417","PRIVATE","TN","POLK","47139","Polk County"
"-81.278429603","35.688228037","1980023","400106480","SFO-2017NCNCSNCST-018-FY2017-0077","NONFED","ST-NASF","ST/C&L","USNCNCS","North Carolina Forest Service","NCNCS","North Carolina State Division of Forest Resouces","","NCST-018-FY2017-0077","","STONE MASON","","","","","","2017","2017/02/11 00:00:00+00","42","0950","Human","Debris and open burning","","2017/02/11 00:00:00+00","42","1040","0.16","A","35.688235","-81.278433","MISSING/NOT SPECIFIED","NC","Catawba","37035","Catawba County"
"-119.359000372","36.800498928","1980024","400106481","SFO-2017CACDFFKU008056","NONFED","ST-NASF","ST/C&L","USCACDF","California Department of Forestry & Fire Protection","CACDF","Headquarters, California Department of Forestry & Fire Protection","","FKU008056","","TIVY","","","","","","2017","2017/06/11 00:00:00+00","162","2031","Natural","Natural","","2017/06/11 00:00:00+00","162","2221","76","C","36.800504","-119.359013","MISSING/NOT SPECIFIED","CA","FRESNO","06019","Fresno County"
"-84.743976806","44.874109484","1980025","400106483","SFO-2017MDNR2017690008","NONFED","ST-NASF","ST/C&L","USMIMIS","Michigan Department of Natural Resources","MIDNR","Michigan Department of Natural Resources","","2017690008","","OTSEGO 07 LYNN LAKE RD","","","","","","2017","2017/06/12 00:00:00+00","163","0541","Natural","Natural","","2017/06/12 00:00:00+00","163","0621","0.1","A","44.874118","-84.743982","STATE","MI","Otsego         ","26137","Otsego County"
"-82.058596645","29.924694347","1980026","400106485","SFO-2017FLFLS2017060640","NONFED","ST-NASF","ST/C&L","USFLFLS","Florida Forest Service","FLFLS","Florida Forest Service","","2017060640","","DUPONT (04)","2017_7280190_DUPONT","","","","","2017","2017/05/07 00:00:00+00","127","1630","Natural","Natural","","2017/06/12 00:00:00+00","163","1150","391","E","29.9247","-82.0586","PRIVATE","FL","Bradford","12007","Bradford County"
"-104.600989871","40.666993427","1980027","400106486","SFO-201712303222","NONFED","ST-NASF","ST/C&L","USCOAULX","Ault-Pierce Fire Department","12303","Ault-Pierce Fire Protection District","","222","","UNKNOWN","","","","","","2017","2017/06/12 00:00:00+00","163","1457","Natural","Natural","","2017/06/12 00:00:00+00","163","1525","0.01","A","40.667","-104.601","MISSING/NOT SPECIFIED","CO","WELD","08123","Weld County"
"-77.62569724","42.900791471","1980028","400106487","SFO-2017NY2613NY2613-2017-0000125","NONFED","ST-NASF","ST/C&L","USNYNYX","Fire Department of New York","NY2613","Fire Department of New York","","NY2613-2017-0000125","","N/A","","","","","","2017","2017/06/12 00:00:00+00","163","1525","Natural","Natural","","2017/06/12 00:00:00+00","163","1544","6.1","B","42.9008","-77.6257","MISSING/NOT SPECIFIED","NY","Livingston","36051","Livingston County"
"-117.976985554","48.856143832","1980029","400106488","SFO-2017WADNR174","NONFED","ST-NASF","ST/C&L","USWAWAS","Washington State Department of Natural Resources Headquarters","WADNR","Washington Department of Natural Resources","","174","","HOPE CREEK","","","","","","2017","2017/06/01 00:00:00+00","152","1830","Natural","Natural","","2017/06/12 00:00:00+00","163","1616","0.01","A","48.85615","-117.977","PRIVATE","WA","65","53065","Stevens County"
"-77.604297227","43.158591424","1980030","400106489","SFO-2017NY2808NY2808-2017-0015370","NONFED","ST-NASF","ST/C&L","USNYNYX","Fire Department of New York","NY2808","Fire Department of New York","","NY2808-2017-0015370","","N/A","","","","","","2017","2017/06/12 00:00:00+00","163","1704","Natural","Natural","","2017/06/12 00:00:00+00","163","1722","6.1","B","43.1586","-77.6043","MISSING/NOT SPECIFIED","NY","Monroe","36055","Monroe County"
"-104.77759021","37.192493931","1980031","400106490","SFO-201771552017047","NONFED","ST-NASF","ST/C&L","USCOSTOX","Stonewall Fire Protection District","7155","Stonewall Fire Protection District","","2017047","","CLARK MOUNTAIN FIRE","","","","","","2017","2017/06/12 00:00:00+00","163","1950","Natural","Natural","","2017/06/12 00:00:00+00","163","2330","1","B","37.1925","-104.7776","MISSING/NOT SPECIFIED","CO","LAS ANIMAS","08071","Las Animas County"
"-112.065687271","46.485093401","1980032","400106492","SFO-2017MTCES000067","NONFED","ST-NASF","ST/C&L","USMTCES","Central Land Office","MTCES","Central Land Office","","000067","","BUFFALO CREEK","","","","","","2017","2017/06/12 00:00:00+00","163","2210","Natural","Natural","","2017/06/13 00:00:00+00","164","0223","0.1","A","46.4851","-112.0657","PRIVATE","MT","Jefferson","30043","Jefferson County"
"-82.537796537","29.086294558","1980033","400106493","SFO-2017FLFLS2017080408","NONFED","ST-NASF","ST/C&L","USFLFLS","Florida Forest Service","FLFLS","Florida Forest Service","","2017080408","","COUNTY LINE # 1 (42)","","","","","","2017","2017/05/30 00:00:00+00","150","1712","Natural","Natural","","2017/06/13 00:00:00+00","164","1022","50","C","29.0863","-82.5378","PRIVATE","FL","Levy","12075","Levy County"
"-92.136418068","46.760488193","1980034","400106494","SFO-2017MNMNS2017-251-049","NONFED","ST-NASF","ST/C&L","USMNMNS","Minnesota Department of Natural Resources","MNMNS","Minnesota Department of Natural Resources","","2017-251-049","","","","","","","","2017","2017/06/13 00:00:00+00","164","1215","Natural","Natural","","2017/06/13 00:00:00+00","164","1345","0.2","A","46.76049652","-92.13642575","MISSING/NOT SPECIFIED","MN","St. Louis","27137","St. Louis County"
"-81.471396902","27.361394946","1980035","400106495","SFO-2017FLFLS2017160557","NONFED","ST-NASF","ST/C&L","USFLFLS","Florida Forest Service","FLFLS","Florida Forest Service","","2017160557","","SANDSPUR (28)","","","","","","2017","2017/06/13 00:00:00+00","164","1502","Natural","Natural","","2017/06/13 00:00:00+00","164","1527","0.1","A","27.3614","-81.4714","PRIVATE","FL","Highlands","12055","Highlands County"
"-81.462796905","27.355594947","1980036","400106496","SFO-2017FLFLS2017160558","NONFED","ST-NASF","ST/C&L","USFLFLS","Florida Forest Service","FLFLS","Florida Forest Service","","2017160558","","NORTHERN (28)","","","","","","2017","2017/06/13 00:00:00+00","164","1535","Natural","Natural","","2017/06/13 00:00:00+00","164","1551","0.1","A","27.3556","-81.4628","STATE","FL","Highlands","12055","Highlands County"
"-73.647098618","41.513491576","1980037","400106497","SFO-2017NY4011NY4011-2017-0000242","NONFED","ST-NASF","ST/C&L","USNYNYX","Fire Department of New York","NY4011","Fire Department of New York","","NY4011-2017-0000242","","N/A","","","","","","2017","2017/06/13 00:00:00+00","164","1756","Natural","Natural","","2017/06/13 00:00:00+00","164","1837","6.3","B","41.5135","-73.6471","PRIVATE","NY","Putnam","36079","Putnam County"
"-106.81526667","44.088327172","1980038","400106498","SFO-2017195022018-32","NONFED","ST-NASF","ST/C&L","USWYJOX","Johnson County","19502","Johnson County Fire Control District #1","","2018-32","","ROBINSON CANYON","","","","","","2017","2017/06/13 00:00:00+00","164","0220","Natural","Natural","","2017/06/13 00:00:00+00","164","2000","1","B","44.088334","-106.8152778","UNDEFINED FEDERAL","WY","Johnson","56019","Johnson County"
"-100.48999146","34.308877487","1980039","400106499","SFO-2017TXTXS5394","NONFED","ST-NASF","ST/C&L","USTXTXS","Texas A & M Forest Service","TXTXS","Texas Forest Service","","5394","","FOUR CORNERS","","","","","","2017","2017/06/13 00:00:00+00","164","0450","Natural","Natural","","2017/06/13 00:00:00+00","164","0730","21.54","C","34.30888333","-100.49","MISSING/NOT SPECIFIED","TX","Cottle","48101","Cottle County"
"-83.035496374","29.614794447","1980040","400106500","SFO-2017FLFLS2017050189","NONFED","ST-NASF","ST/C&L","USFLFLS","Florida Forest Service","FLFLS","Florida Forest Service","","2017050189","","521ST (15)","","","","","","2017","2017/06/14 00:00:00+00","165","1523","Natural","Natural","","2017/06/14 00:00:00+00","165","1545","0.2","A","29.6148","-83.0355","PRIVATE","FL","Dixie","12029","Dixie County"
"-74.09439844","42.031191493","1980041","400106501","SFO-2017NY5651NY5651-2017-532","NONFED","ST-NASF","ST/C&L","USNYNYX","Fire Department of New York","NY5651","Fire Department of New York","","NY5651-2017-532","","N/A","","","","","","2017","2017/06/14 00:00:00+00","165","1555","Natural","Natural","","2017/06/14 00:00:00+00","165","1830","0.1","A","42.0312","-74.0944","MUNICIPAL/LOCAL","NY","Ulster","36111","Ulster County"
"-98.624325545","28.968328401","1980042","400106502","SFO-2017TXTXS5397","NONFED","ST-NASF","ST/C&L","USTXTXS","Texas A & M Forest Service","TXTXS","Texas Forest Service","","5397","","DOMBSHE","","","","","","2017","2017/06/14 00:00:00+00","165","0810","Natural","Natural","","2017/06/14 00:00:00+00","165","2045","30.1","C","28.96833333","-98.62433333","MISSING/NOT SPECIFIED","TX","Atascosa","48013","Atascosa County"
"-76.404197666","42.454391502","1980043","400106504","SFO-2017NY5519NY5519-2017-1700128","NONFED","ST-NASF","ST/C&L","USNYNYX","Fire Department of New York","NY5519","Fire Department of New York","","NY5519-2017-1700128","","N/A","","","","","","2017","2017/06/15 00:00:00+00","166","0444","Natural","Natural","","2017/06/15 00:00:00+00","166","1516","0.1","A","42.4544","-76.4042","MISSING/NOT SPECIFIED","NY","Tompkins","36109","Tompkins County"
"-82.990296364","30.197294311","1980044","400106506","SFO-2017FLFLS2017060812","NONFED","ST-NASF","ST/C&L","USFLFLS","Florida Forest Service","FLFLS","Florida Forest Service","","2017060812","","HWY 129 RD(61)","","","","","","2017","2017/06/15 00:00:00+00","166","1545","Natural","Natural","","2017/06/15 00:00:00+00","166","1644","3","B","30.1973","-82.9903","PRIVATE","FL","Suwannee","12121","Suwannee County"
"-76.404197666","42.454391502","1980045","400106508","SFO-2017NY5519NY5519-2017-1700129","NONFED","ST-NASF","ST/C&L","USNYNYX","Fire Department of New York","NY5519","Fire Department of New York","","NY5519-2017-1700129","","N/A","","","","","","2017","2017/06/16 00:00:00+00","167","0811","Natural","Natural","","2017/06/16 00:00:00+00","167","1133","0.1","A","42.4544","-76.4042","MISSING/NOT SPECIFIED","NY","Tompkins","36109","Tompkins County"
"-100.062491579","34.087494174","1980046","400106509","SFO-2017TXTXS5400","NONFED","ST-NASF","ST/C&L","USTXTXS","Texas A & M Forest Service","TXTXS","Texas Forest Service","","5400","","GILBERT","2017_7169431_GILBERT","","","","","2017","2017/06/16 00:00:00+00","167","0910","Natural","Natural","","2017/06/16 00:00:00+00","167","1240","208","D","34.0875","-100.0625","MISSING/NOT SPECIFIED","TX","Cottle","48101","Cottle County"
"-82.557657504","32.418207682","1980047","400106510","SFO-2017GAGAS-FY2017-Treutlen-048","NONFED","ST-NASF","ST/C&L","USGAGAS","Georgia Forestry Commission","GAGAS","Georgia Forestry Commission","","FY2017-Treutlen-048","","FY2017-TREUTLEN-048","","","","","","2017","2017/06/16 00:00:00+00","167","1355","Natural","Natural","","2017/06/16 00:00:00+00","167","1418","2.2","B","32.41821389","-82.55766111","PRIVATE","GA","Treutlen            ","13283","Treutlen County"
"-83.616384928","33.407885281","1980048","400106511","SFO-2017GAGAS-FY2017-Jasper-029","NONFED","ST-NASF","ST/C&L","USGAGAS","Georgia Forestry Commission","GAGAS","Georgia Forestry Commission","","FY2017-Jasper-029","","FY2017-JASPER-029","","","","","","2017","2017/06/16 00:00:00+00","167","1612","Natural","Natural","","2017/06/16 00:00:00+00","167","1703","0.02","A","33.40789167","-83.61638889","PRIVATE","GA","Jasper              ","13159","Jasper County"
"-83.379196278","29.533994476","1980049","400106512","SFO-2017FLFLS2017050191","NONFED","ST-NASF","ST/C&L","USFLFLS","Florida Forest Service","FLFLS","Florida Forest Service","","2017050191","","SANDY CREEK (15)","","","","","","2017","2017/06/16 00:00:00+00","167","1415","Natural","Natural","","2017/06/16 00:00:00+00","167","1829","6","B","29.534","-83.3792","PRIVATE","FL","Dixie","12029","Dixie County"
"-85.264595701","30.495094312","1980050","400106513","SFO-2017FLFLS2017020359","NONFED","ST-NASF","ST/C&L","USFLFLS","Florida Forest Service","FLFLS","Florida Forest Service","","2017020359","","MARTIN SEWELL RD  (07)","","","","","","2017","2017/06/16 00:00:00+00","167","2130","Natural","Natural","","2017/06/17 00:00:00+00","168","0043","3","B","30.4951","-85.2646","PRIVATE","FL","Calhoun","12013","Calhoun County"
"-105.233089965","38.57649376","1980051","400106515","SFO-201731502300065","NONFED","ST-NASF","ST/C&L","USCODEX","Denver County","3150","Local Fire Department","","2300065","","UNKNOWN","","","","","","2017","2017/06/16 00:00:00+00","167","0800","Natural","Natural","","2017/06/17 00:00:00+00","168","1700","26","C","38.5765","-105.2331","UNDEFINED FEDERAL","CO","DENVER","08031","Denver County"
"-82.010329897","32.143938275","1980052","400106516","SFO-2017GAGAS-FY2017-Tattnall-048","NONFED","ST-NASF","ST/C&L","USGAGAS","Georgia Forestry Commission","GAGAS","Georgia Forestry Commission","","FY2017-Tattnall-048","","FY2017-TATTNALL-048","","","","","","2017","2017/06/17 00:00:00+00","168","1801","Natural","Natural","","2017/06/17 00:00:00+00","168","1914","0.14","A","32.14394444","-82.01033333","PRIVATE","GA","Tattnall            ","13267","Tattnall County"
"-81.05229702","27.494994903","1980053","400106517","SFO-2017FLFLS2017160568","NONFED","ST-NASF","ST/C&L","USFLFLS","Florida Forest Service","FLFLS","Florida Forest Service","","2017160568","","TRIPLE DIAMOND (47)","","","","","","2017","2017/06/18 00:00:00+00","169","1405","Natural","Natural","","2017/06/18 00:00:00+00","169","1526","3.7","B","27.495","-81.0523","PRIVATE","FL","Okeechobee","12093","Okeechobee County"
"-105.92288964","40.056693603","1980054","400106518","SFO-20174915618001","NONFED","ST-NASF","ST/C&L","USCOGNDX","Grand Fire Protection District #1","4915","Grand Fire Protection District # 1","","618001","","UNKNOWN","","","","","","2017","2017/06/18 00:00:00+00","169","1602","Natural","Natural","","2017/06/18 00:00:00+00","169","1650","0.01","A","40.0567","-105.9229","MISSING/NOT SPECIFIED","CO","GRAND","08049","Grand County"
"-70.376440674","41.617820448","1980055","400106519","SFO-2017MADCRMA0117031","NONFED","ST-NASF","ST/C&L","USMAMAS","Massachusetts Bureau of Forest Fire Control","MADCR","Massachusetts Department of Conservation and Recreation","","MA0117031","","","","","","","","2017","2017/06/18 00:00:00+00","169","2011","Natural","Natural","","2017/06/18 00:00:00+00","169","","0.25","A","41.617829","-70.376441","MISSING/NOT SPECIFIED","MA","Barnstable","25001","Barnstable County"
"-78.843780349","35.406445009","1980056","400106522","SFO-2017NCNCSNCST-043-FY2017-0096","NONFED","ST-NASF","ST/C&L","USNCNCS","North Carolina Forest Service","NCNCS","North Carolina State Division of Forest Resouces","","NCST-043-FY2017-0096","","PINE STREET","","","","","","2017","2017/02/11 00:00:00+00","42","1110","Human","Debris and open burning","","2017/02/11 00:00:00+00","42","1125","0.33","B","35.406452","-78.843783","MISSING/NOT SPECIFIED","NC","Harnett","37085","Harnett County"
"-122.733819258","41.351027808","1980057","400106523","SFO-2017CACDFSKU004330","NONFED","ST-NASF","ST/C&L","USCACDF","California Department of Forestry & Fire Protection","CACDF","Headquarters, California Department of Forestry & Fire Protection","","SKU004330","","SCHOOLHOUSE","","","","","","2017","2017/06/19 00:00:00+00","170","1942","Natural","Natural","","2017/06/19 00:00:00+00","170","2238","3.5","B","41.351033","-122.733833","MISSING/NOT SPECIFIED","CA","SISKIYOU","06093","Siskiyou County"
"-73.318298769","40.76459171","1980058","400106530","SFO-2017NY5225NY5225-2017-1587","NONFED","ST-NASF","ST/C&L","USNYNYX","Fire Department of New York","NY5225","Fire Department of New York","","NY5225-2017-1587","","N/A","","","","","","2017","2017/06/19 00:00:00+00","170","1657","Natural","Natural","","2017/06/20 00:00:00+00","171","1708","0.1","A","40.7646","-73.3183","MISSING/NOT SPECIFIED","NY","Suffolk","36103","Suffolk County"
"-105.195789881","39.419993639","1980059","400106531","SFO-2017597880","NONFED","ST-NASF","ST/C&L","USCONOFX","North Fork Fire Protection District","5978","North Fork Fire Protection District","","80","","UNKNOWN","","","","","","2017","2017/06/20 00:00:00+00","171","1746","Natural","Natural","","2017/06/20 00:00:00+00","171","1746","0.01","A","39.42","-105.1958","MISSING/NOT SPECIFIED","CO","JEFFERSON","08059","Jefferson County"
"-104.867889993","39.095893662","1980060","400106533","SFO-201741551146","NONFED","ST-NASF","ST/C&L","USCOTRLX","Tri Lakes Monument Fire Rescue Authority","4155","Tri-Lakes Monument Fire Protection District","","1146","","UNKNOWN","","","","","","2017","2017/06/20 00:00:00+00","171","2120","Natural","Natural","","2017/06/20 00:00:00+00","171","2130","0.01","A","39.0959","-104.8679","MISSING/NOT SPECIFIED","CO","EL PASO","08041","El Paso County"
"-104.599390077","38.890693673","1980061","400106535","SFO-201741421093","NONFED","ST-NASF","ST/C&L","USCOFALX","Falcon Fire Protection District","4142","Falcon Fire Protection District","","1093","","UNKNOWN","","","","","","2017","2017/06/20 00:00:00+00","171","2149","Natural","Natural","","2017/06/20 00:00:00+00","171","2210","0.25","A","38.8907","-104.5994","MISSING/NOT SPECIFIED","CO","EL PASO","08041","El Paso County"
"-73.44019857","43.269491238","1980062","400106536","SFO-2017NY5801NY5801-2017-17063","NONFED","ST-NASF","ST/C&L","USNYNYX","Fire Department of New York","NY5801","Fire Department of New York","","NY5801-2017-17063","","N/A","","","","","","2017","2017/06/20 00:00:00+00","171","2157","Natural","Natural","","2017/06/20 00:00:00+00","171","2229","0.1","A","43.2695","-73.4402","MISSING/NOT SPECIFIED","NY","Washington","36115","Washington County"
"-68.760999575","45.784424632","1980063","400106541","SFO-2017MEMES41307018","NONFED","ST-NASF","ST/C&L","USMEMES","Maine Forest Service","MEMES","Maine Forest Service","","41307018","","KLIMAS FIRE","","","","","","2017","2017/06/13 00:00:00+00","164","0000","Natural","Natural","","2017/06/21 00:00:00+00","172","0000","6","B","45.784434","-68.7609996","PRIVATE","ME","Penobscot","23019","Penobscot County"
"-104.830942769","44.509477156","1980064","400106543","SFO-2017115232018-094","NONFED","ST-NASF","ST/C&L","USWYCRX","Crook County","11523","Crook County","","2018-094","","CABIN CREEK","","","","","","2017","2017/06/21 00:00:00+00","172","","Natural","Natural","","2017/06/21 00:00:00+00","172","1122","1","B","44.5094842","-104.8309535","MISSING/NOT SPECIFIED","WY","Crook","56011","Crook County"
"-82.03310774","30.487133105","1980065","400106546","SFO-2017GAGAS-FY2017-Charlton-054","NONFED","ST-NASF","ST/C&L","USGAGAS","Georgia Forestry Commission","GAGAS","Georgia Forestry Commission","","FY2017-Charlton-054","","FY2017-CHARLTON-054","","","","","","2017","2017/06/21 00:00:00+00","172","2008","Natural","Natural","","2017/06/21 00:00:00+00","172","2113","0.8","B","30.48713889","-82.03311111","PRIVATE","GA","Charlton            ","13049","Charlton County"
"-105.195789881","39.419993639","1980066","400106547","SFO-2017597883","NONFED","ST-NASF","ST/C&L","USCONOFX","North Fork Fire Protection District","5978","North Fork Fire Protection District","","83","","OUZEL FIRE","","","","","","2017","2017/06/21 00:00:00+00","172","1758","Natural","Natural","","2017/06/21 00:00:00+00","172","2200","0.5","B","39.42","-105.1958","UNDEFINED FEDERAL","CO","JEFFERSON","08059","Jefferson County"
"-93.637772483","42.310902435","1980067","400106549","SFO-2017IAIAS17333","NONFED","ST-NASF","ST/C&L","USIAIAS","Iowa Department of Natural Resources","IAIAS","Iowa Department of Natural Resources","","17333","","","","","","","","2017","2017/06/21 00:00:00+00","172","","Natural","Natural","","2017/06/21 00:00:00+00","172","","1","B","42.31091","-93.63778","PRIVATE","IA","Hamilton","19079","Hamilton County"
"-111.269988413","40.599993933","1980068","400106550","SFO-2017UTFFSL5988","NONFED","ST-NASF","ST/C&L","USUTUTS","Utah Division Forestry Fire State Lands","UTFFSL","Utah Division of Forestry, Fire & State Lands","","5988","","FRANCIS ASSIST 2","","","","","","2017","2017/06/20 00:00:00+00","171","","Natural","Natural","","2017/06/21 00:00:00+00","172","","0.1","A","40.6","-111.27","PRIVATE","UT","Summit","49043","Summit County"
"-70.603748481","43.688911064","1980069","400106552","SFO-2017MEMES42107098","NONFED","ST-NASF","ST/C&L","USMEMES","Maine Forest Service","MEMES","Maine Forest Service","","42107098","","WAYCOTT LIGHTNING","","","","","","2017","2017/06/27 00:00:00+00","178","","Natural","Natural","","2017/06/27 00:00:00+00","178","","0.1","A","43.68892","-70.603749","PRIVATE","ME","York","23031","York County"
"-117.033901636","48.230019351","1980070","400106553","SFO-2017IDDL2302017004","NONFED","ST-NASF","ST/C&L","USIDIDS","Idaho Department of Lands","IDDL","Idaho Department of Lands","","2302017004","","ALMOST WASHINGTON","","","","","","2017","2017/06/26 00:00:00+00","177","1800","Natural","Natural","","2017/06/27 00:00:00+00","178","0033","0.1","A","48.23002558","-117.03391575","PRIVATE","ID","Bonner","16017","Bonner County"
"-122.237853239","41.953561722","1980071","400106554","SFO-2017CACDFSKU004535","NONFED","ST-NASF","ST/C&L","USCACDF","California Department of Forestry & Fire Protection","CACDF","Headquarters, California Department of Forestry & Fire Protection","","SKU004535","","COPCO","","","","","","2017","2017/06/26 00:00:00+00","177","1330","Natural","Natural","","2017/06/27 00:00:00+00","178","0623","2.7","B","41.953567","-122.237867","UNDEFINED FEDERAL","CA","SISKIYOU","06093","Siskiyou County"
"-114.244586474","48.069793488","1980072","400106555","SFO-2017MTNWS000130","NONFED","ST-NASF","ST/C&L","USMTNWS","Northwestern Land Office","MTNWS","Northwestern Land Office","","000130","","CRAGGY CLIFF","","","","","","2017","2017/06/27 00:00:00+00","178","0837","Natural","Natural","","2017/06/27 00:00:00+00","178","1015","0.05","A","48.0698","-114.2446","PRIVATE","MT","Flathead","30029","Flathead County"
"-82.307196602","29.113694545","1980073","400106556","SFO-2017FLFLS2017080426","NONFED","ST-NASF","ST/C&L","USFLFLS","Florida Forest Service","FLFLS","Florida Forest Service","","2017080426","","80TH ST (42)","","","","","","2017","2017/06/26 00:00:00+00","177","1628","Natural","Natural","","2017/06/27 00:00:00+00","178","1042","10","C","29.1137","-82.3072","PRIVATE","FL","Marion","12083","Marion County"
"-117.362206347","45.877773973","1980074","400106557","SFO-2017ORODF1797403717","NONFED","ST-NASF","ST/C&L","USORORS","Oregon Department of Forestry Salem Headquarters","ORODF","Oregon Department of Forestry","","1797403717","","COURTNEY BUTTE","","","","","","2017","2017/06/26 00:00:00+00","177","1606","Natural","Natural","","2017/06/27 00:00:00+00","178","1106","0.02","A","45.87778","-117.36222","PRIVATE","OR","Wallowa","41063","Wallowa County"
"-116.986559917","48.222134186","1980075","400106558","SFO-2017IDDL2302017005","NONFED","ST-NASF","ST/C&L","USIDIDS","Idaho Department of Lands","IDDL","Idaho Department of Lands","","2302017005","","BODIE SNAG","","","","","","2017","2017/06/26 00:00:00+00","177","1800","Natural","Natural","","2017/06/27 00:00:00+00","178","1254","0.1","A","48.22214042","-116.98657402","STATE","ID","Bonner","16017","Bonner County"
"-119.1427662","45.021104212","1980076","400106559","SFO-2017ORODF1797302117","NONFED","ST-NASF","ST/C&L","USORORS","Oregon Department of Forestry Salem Headquarters","ORODF","Oregon Department of Forestry","","1797302117","","RUSH","","","","","","2017","2017/06/26 00:00:00+00","177","2106","Natural","Natural","","2017/06/27 00:00:00+00","178","1306","0.1","A","45.02111","-119.14278","PRIVATE","OR","Umatilla","41059","Umatilla County"
"-81.146296974","28.081894762","1980077","400106561","SFO-2017FLFLS2017120462","NONFED","ST-NASF","ST/C&L","USFLFLS","Florida Forest Service","FLFLS","Florida Forest Service","","2017120462","","CABLE (49)","2017_7159596_CABLE","","FL2808408112620170626","CABLE","","2017","2017/06/26 00:00:00+00","177","1515","Natural","Natural","","2017/06/27 00:00:00+00","178","1429","656","E","28.0819","-81.1463","MUNICIPAL/LOCAL","FL","Osceola","12097","Osceola County"
"-116.400534474","48.245540682","1980078","400106562","SFO-2017IDDL2302017006","NONFED","ST-NASF","ST/C&L","USIDIDS","Idaho Department of Lands","IDDL","Idaho Department of Lands","","2302017006","","VORTEX","","","","","","2017","2017/06/26 00:00:00+00","177","1700","Natural","Natural","","2017/06/27 00:00:00+00","178","1528","0.1","A","48.24554698","-116.40054847","PRIVATE","ID","Bonner","16017","Bonner County"
"-122.199985481","46.051994455","1980079","400106563","SFO-2017WADNR77","NONFED","ST-NASF","ST/C&L","USWAWAS","Washington State Department of Natural Resources Headquarters","WADNR","Washington Department of Natural Resources","","77","","BEAVER BAY","","","","","","2017","2017/06/10 00:00:00+00","161","1030","Natural","Natural","","2017/06/27 00:00:00+00","178","1530","0.1","A","46.052","-122.2","PRIVATE","WA","11","53011","Clark County"
"-106.028169106","43.752763145","1980080","400106564","SFO-201754032018-00888","NONFED","ST-NASF","ST/C&L","USWYCMX","Campbell County","5403","Campbell County Fire Department","","2018-00888","","T7 FIRE","","","","","","2017","2017/06/27 00:00:00+00","178","1403","Natural","Natural","","2017/06/27 00:00:00+00","178","1537","15","C","43.75277","-106.02818","MISSING/NOT SPECIFIED","WY","Campbell","56005","Campbell County"
"-81.067796969","28.920294557","1980081","400106567","SFO-2017FLFLS2017100596","NONFED","ST-NASF","ST/C&L","USFLFLS","Florida Forest Service","FLFLS","Florida Forest Service","","2017100596","","LOPEZ ST (64)","","","","","","2017","2017/06/27 00:00:00+00","178","1630","Natural","Natural","","2017/06/27 00:00:00+00","178","1659","0.1","A","28.9203","-81.0678","MUNICIPAL/LOCAL","FL","Volusia","12127","Volusia County"
"-119.099426169","45.214714194","1980082","400106568","SFO-2017ORODF1797302217","NONFED","ST-NASF","ST/C&L","USORORS","Oregon Department of Forestry Salem Headquarters","ORODF","Oregon Department of Forestry","","1797302217","","LOG SPRINGS ROAD","","","","","","2017","2017/06/27 00:00:00+00","178","0806","Natural","Natural","","2017/06/27 00:00:00+00","178","1706","0.1","A","45.21472","-119.09944","PRIVATE","OR","Umatilla","41059","Umatilla County"
"-104.714606084","44.590202737","1980083","400106570","SFO-2017115232018-106","NONFED","ST-NASF","ST/C&L","USWYCRX","Crook County","11523","Crook County","","2018-106","","JOINER RIDGE DEVIL'S TOWER","","","","","","2017","2017/06/27 00:00:00+00","178","1923","Natural","Natural","","2017/06/27 00:00:00+00","178","2053","1","B","44.5902098","-104.7146168","MISSING/NOT SPECIFIED","WY","Crook","56011","Crook County"
"-81.617896874","26.878295069","1980084","400106571","SFO-2017FLFLS2017150367","NONFED","ST-NASF","ST/C&L","USFLFLS","Florida Forest Service","FLFLS","Florida Forest Service","","2017150367","","TRAM GRUB (08)","","","","","","2017","2017/06/27 00:00:00+00","178","2200","Natural","Natural","","2017/06/28 00:00:00+00","179","0131","29","C","26.8783","-81.6179","STATE","FL","Charlotte","12015","Charlotte County"
"-123.263946005","42.434124782","1980085","400106572","SFO-2017ORODF1771282117","NONFED","ST-NASF","ST/C&L","USORORS","Oregon Department of Forestry Salem Headquarters","ORODF","Oregon Department of Forestry","","1771282117","","FOOTHILL BLVD","","","","","","2017","2017/06/25 00:00:00+00","176","1406","Natural","Natural","","2017/06/28 00:00:00+00","179","1006","0.01","A","42.43413","-123.26396","PRIVATE","OR","Josephine","41033","Josephine County"
"-123.267326004","42.438174782","1980086","400106573","SFO-2017ORODF1771282917","NONFED","ST-NASF","ST/C&L","USORORS","Oregon Department of Forestry Salem Headquarters","ORODF","Oregon Department of Forestry","","1771282917","","FOOTHILL BLVD #2","","","","","","2017","2017/06/25 00:00:00+00","176","1606","Natural","Natural","","2017/06/28 00:00:00+00","179","1006","0.1","A","42.43818","-123.26734","PRIVATE","OR","Josephine","41033","Josephine County"
"-116.217012811","44.089405576","1980087","400106574","SFO-2017IDDL6102017003","NONFED","ST-NASF","ST/C&L","USIDIDS","Idaho Department of Lands","IDDL","Idaho Department of Lands","","6102017003","","SOLDIER","","","","","","2017","2017/06/27 00:00:00+00","178","0900","Natural","Natural","","2017/06/28 00:00:00+00","179","1100","0.1","A","44.08941157","-116.21702591","PRIVATE","ID","Boise","16015","Boise County"
"-123.220705991","42.55514477","1980088","400106575","SFO-2017ORODF1771282217","NONFED","ST-NASF","ST/C&L","USORORS","Oregon Department of Forestry Salem Headquarters","ORODF","Oregon Department of Forestry","","1771282217","","DIXIE GULCH","","","","","","2017","2017/06/25 00:00:00+00","176","1506","Natural","Natural","","2017/06/28 00:00:00+00","179","1206","0.1","A","42.55515","-123.22072","PRIVATE","OR","Jackson","41029","Jackson County"
"-81.344496858","29.783894359","1980089","400106576","SFO-2017FLFLS2017100584","NONFED","ST-NASF","ST/C&L","USFLFLS","Florida Forest Service","FLFLS","Florida Forest Service","","2017100584","","MIZEL GRADE (55)","","","","","","2017","2017/06/24 00:00:00+00","175","1518","Natural","Natural","","2017/06/28 00:00:00+00","179","1241","40","C","29.7839","-81.3445","PRIVATE","FL","St. Johns","12109","St. Johns County"
"-103.245690226","40.378193371","1980090","400106577","SFO-201712105627171","NONFED","ST-NASF","ST/C&L","USCOAKRX","Akron Volunteer Fire Department","12105","Akron Volunteer Fire Department","","627171","","UNKNOWN","","","","","","2017","2017/06/27 00:00:00+00","178","1757","Natural","Natural","","2017/06/28 00:00:00+00","179","0130","30","C","40.3782","-103.2457","MISSING/NOT SPECIFIED","CO","WASHINGTON","08121","Washington County"
"-119.423886174","44.907024248","1980091","400106578","SFO-2017ORODF1795205117","NONFED","ST-NASF","ST/C&L","USORORS","Oregon Department of Forestry Salem Headquarters","ORODF","Oregon Department of Forestry","","1795205117","","FERN BUTTE","","","","","","2017","2017/06/26 00:00:00+00","177","1506","Natural","Natural","","2017/06/28 00:00:00+00","179","1406","0.35","B","44.90703","-119.4239","UNDEFINED FEDERAL","OR","Grant","41023","Grant County"
"-122.769806116","42.209244752","1980092","400106580","SFO-2017ORODF1771135117","NONFED","ST-NASF","ST/C&L","USORORS","Oregon Department of Forestry Salem Headquarters","ORODF","Oregon Department of Forestry","","1771135117","","QUAIL RUN","","","","","","2017","2017/06/25 00:00:00+00","176","1506","Natural","Natural","","2017/06/28 00:00:00+00","179","1406","0.1","A","42.20925","-122.76982","UNDEFINED FEDERAL","OR","Jackson","41029","Jackson County"
"-105.639818003","44.948274973","1980093","400106581","SFO-201754032018-00893","NONFED","ST-NASF","ST/C&L","USWYCMX","Campbell County","5403","Campbell County Fire Department","","2018-00893","","17-","","","","","","2017","2017/06/28 00:00:00+00","179","1538","Natural","Natural","","2017/06/28 00:00:00+00","179","1600","1","B","44.948282","-105.639829","PRIVATE","WY","Campbell","56005","Campbell County"
"-118.86526625","45.013054186","1980094","400106582","SFO-2017ORODF1797302417","NONFED","ST-NASF","ST/C&L","USORORS","Oregon Department of Forestry Salem Headquarters","ORODF","Oregon Department of Forestry","","1797302417","","DRIFTWOOD","","","","","","2017","2017/06/28 00:00:00+00","179","1206","Natural","Natural","","2017/06/28 00:00:00+00","179","1906","0.65","B","45.01306","-118.86528","PRIVATE","OR","Umatilla","41059","Umatilla County"
"-83.295096297","29.671794442","1980095","400106583","SFO-2017FLFLS2017050193","NONFED","ST-NASF","ST/C&L","USFLFLS","Florida Forest Service","FLFLS","Florida Forest Service","","2017050193","","COW CATCH PEN (15)","","","","","","2017","2017/06/27 00:00:00+00","178","1649","Natural","Natural","","2017/06/28 00:00:00+00","179","1948","4.8","B","29.6718","-83.2951","PRIVATE","FL","Dixie","12029","Dixie County"
"-116.714475945","48.239277466","1980096","400106584","SFO-2017IDDL2302017007","NONFED","ST-NASF","ST/C&L","USIDIDS","Idaho Department of Lands","IDDL","Idaho Department of Lands","","2302017007","","POT O GOLD","","","","","","2017","2017/06/27 00:00:00+00","178","1700","Natural","Natural","","2017/06/28 00:00:00+00","179","2253","0.01","A","48.23928373","-116.71449","PRIVATE","ID","Bonner","16017","Bonner County"
"-122.358876196","42.104894722","1980097","400106587","SFO-2017ORODF1771135617","NONFED","ST-NASF","ST/C&L","USORORS","Oregon Department of Forestry Salem Headquarters","ORODF","Oregon Department of Forestry","","1771135617","","COPCO1","","","","","","2017","2017/06/25 00:00:00+00","176","1706","Natural","Natural","","2017/06/29 00:00:00+00","180","1206","0.01","A","42.1049","-122.35889","UNDEFINED FEDERAL","OR","Jackson","41029","Jackson County"
"-114.343286436","48.145793492","1980098","400106588","SFO-2017MTNWS000140","NONFED","ST-NASF","ST/C&L","USMTNWS","Northwestern Land Office","MTNWS","Northwestern Land Office","","000140","","HERRON HILL","","","","","","2017","2017/06/28 00:00:00+00","179","1552","Natural","Natural","","2017/06/29 00:00:00+00","180","1230","0.41","B","48.1458","-114.3433","STATE","MT","Flathead","30029","Flathead County"
"-82.670896533","28.069694804","1980099","400106589","SFO-2017FLFLS2017140345","NONFED","ST-NASF","ST/C&L","USFLFLS","Florida Forest Service","FLFLS","Florida Forest Service","","2017140345","","PINE AVE (52)","","","","","","2017","2017/06/29 00:00:00+00","180","1000","Natural","Natural","","2017/06/29 00:00:00+00","180","1244","1","B","28.0697","-82.6709","MUNICIPAL/LOCAL","FL","Pinellas","12103","Pinellas County"
"-80.775597074","28.329794692","1980100","400106590","SFO-2017FLFLS2017120461","NONFED","ST-NASF","ST/C&L","USFLFLS","Florida Forest Service","FLFLS","Florida Forest Service","","2017120461","","TUCKER (5)","2017_7366010_TUCKER","","FL2833008077620170626","TUCKER","","2017","2017/06/26 00:00:00+00","177","1505","Natural","Natural","","2017/06/29 00:00:00+00","180","1315","9000","G","28.3298","-80.7756","STATE","FL","Brevard","12009","Brevard County"
"-123.19920597","42.698314759","1980101","400106592","SFO-2017ORODF1771283117","NONFED","ST-NASF","ST/C&L","USORORS","Oregon Department of Forestry Salem Headquarters","ORODF","Oregon Department of Forestry","","1771283117","","LITTLE BOULDER","","","","","","2017","2017/06/25 00:00:00+00","176","1706","Natural","Natural","","2017/06/29 00:00:00+00","180","1406","0.25","A","42.69832","-123.19922","UNDEFINED FEDERAL","OR","Jackson","41029","Jackson County"
"-122.675656086","42.480824725","1980102","400106593","SFO-2017ORODF1771136217","NONFED","ST-NASF","ST/C&L","USORORS","Oregon Department of Forestry Salem Headquarters","ORODF","Oregon Department of Forestry","","1771136217","","S OBENCHAIN","","","","","","2017","2017/06/25 00:00:00+00","176","1906","Natural","Natural","","2017/06/29 00:00:00+00","180","1406","0.25","A","42.48083","-122.67567","UNDEFINED FEDERAL","OR","Jackson","41029","Jackson County"
"-123.550085925","42.660364794","1980103","400106594","SFO-2017ORODF1771284317","NONFED","ST-NASF","ST/C&L","USORORS","Oregon Department of Forestry Salem Headquarters","ORODF","Oregon Department of Forestry","","1771284317","","ROCK CREEK","","","","","","2017","2017/06/26 00:00:00+00","177","0906","Natural","Natural","","2017/06/29 00:00:00+00","180","1406","0.1","A","42.66037","-123.5501","PRIVATE","OR","Josephine","41033","Josephine County"
"-120.308046072","44.660274352","1980104","400106595","SFO-2017ORODF1795206217","NONFED","ST-NASF","ST/C&L","USORORS","Oregon Department of Forestry Salem Headquarters","ORODF","Oregon Department of Forestry","","1795206217","","RICHARD BUTTE","","","","","","2017","2017/06/28 00:00:00+00","179","1606","Natural","Natural","","2017/06/29 00:00:00+00","180","1406","0.5","B","44.66028","-120.30806","PRIVATE","OR","Wheeler","41069","Wheeler County"
"-80.1473973","26.965395013","1980105","400106596","SFO-2017FLFLS2017160601","NONFED","ST-NASF","ST/C&L","USFLFLS","Florida Forest Service","FLFLS","Florida Forest Service","","2017160601","","HIDDEN BRIDGE (43)","","","","","","2017","2017/06/29 00:00:00+00","180","1249","Natural","Natural","","2017/06/29 00:00:00+00","180","1411","3.5","B","26.9654","-80.1474","MISSING/NOT SPECIFIED","FL","Martin","12085","Martin County"
"-80.372697229","27.139594975","1980106","400106597","SFO-2017FLFLS2017160602","NONFED","ST-NASF","ST/C&L","USFLFLS","Florida Forest Service","FLFLS","Florida Forest Service","","2017160602","","CONCRETE  (43)","","","","","","2017","2017/06/29 00:00:00+00","180","1356","Natural","Natural","","2017/06/29 00:00:00+00","180","1452","5","B","27.1396","-80.3727","MUNICIPAL/LOCAL","FL","Martin","12085","Martin County"
"-101.652789578","47.295192358","1980107","400106598","SFO-2017290252018-13","NONFED","ST-NASF","ST/C&L","USNDNDS","North Dakota State Forest Service","29025","Local Fire Department","","2018-13","","SAILER FIRE","","","","","","2017","2017/06/29 00:00:00+00","180","1446","Natural","Natural","","2017/06/29 00:00:00+00","180","1515","2","B","47.2952","-101.6528","MISSING/NOT SPECIFIED","ND","Mercer","38057","Mercer County"
"-105.164892181","44.555878979","1980108","400106599","SFO-201754032018-00903","NONFED","ST-NASF","ST/C&L","USWYCMX","Campbell County","5403","Campbell County Fire Department","","2018-00903","","HILL TOP FIRE","","","","","","2017","2017/06/29 00:00:00+00","180","1327","Natural","Natural","","2017/06/29 00:00:00+00","180","1550","1","B","44.555886","-105.164903","MISSING/NOT SPECIFIED","WY","Campbell","56005","Campbell County"
"-104.428390068","39.336993599","1980109","400106600","SFO-20173935190","NONFED","ST-NASF","ST/C&L","USCOKIOX","Kiowa Fire Protection District","3935","Kiowa Fire Protection District","","190","","UNKNOWN","","","","","","2017","2017/06/29 00:00:00+00","180","1534","Natural","Natural","","2017/06/29 00:00:00+00","180","1600","2","B","39.337","-104.4284","MISSING/NOT SPECIFIED","CO","ELBERT","08039","Elbert County"
"-114.916686287","48.284993542","1980110","400106601","SFO-2017MTNWS006004","NONFED","ST-NASF","ST/C&L","USMTNWS","Northwestern Land Office","MTNWS","Northwestern Land Office","","006004","","LOST WOLF","","","","","","2017","2017/06/29 00:00:00+00","180","0918","Natural","Natural","","2017/06/29 00:00:00+00","180","1630","0.01","A","48.285","-114.9167","PRIVATE","MT","Lincoln","30053","Lincoln County"
"-80.785397075","28.237094715","1980111","400106602","SFO-2017FLFLS2017120469","NONFED","ST-NASF","ST/C&L","USFLFLS","Florida Forest Service","FLFLS","Florida Forest Service","","2017120469","","PALM SALVAGE (05)","","","","","","2017","2017/06/29 00:00:00+00","180","1510","Natural","Natural","","2017/06/29 00:00:00+00","180","1647","10","C","28.2371","-80.7854","PRIVATE","FL","Brevard","12009","Brevard County"
"-117.057102984","47.797876803","1980112","400106603","SFO-2017WADNR303","NONFED","ST-NASF","ST/C&L","USWAWAS","Washington State Department of Natural Resources Headquarters","WADNR","Washington Department of Natural Resources","","303","","NEWMAN LAKE SPOT","","","","","","2017","2017/06/17 00:00:00+00","168","1900","Natural","Natural","","2017/06/22 00:00:00+00","173","1033","0.01","A","47.797883","-117.057117","STATE","WA","63","53063","Spokane County"
"-81.132296944","29.107394514","1980113","400106605","SFO-2017FLFLS2017100577","NONFED","ST-NASF","ST/C&L","USFLFLS","Florida Forest Service","FLFLS","Florida Forest Service","","2017100577","","POWER LINE (64)","","","","","","2017","2017/06/22 00:00:00+00","173","0925","Natural","Natural","","2017/06/22 00:00:00+00","173","1339","14","C","29.1074","-81.1323","MUNICIPAL/LOCAL","FL","Volusia","12127","Volusia County"
"-104.850989828","40.537893462","1980114","400106606","SFO-2017123811628","NONFED","ST-NASF","ST/C&L","USCOWDSX","Windsor-Severance Fire Protection District","12381","Windsor-Severance Fire Protection District","","1628","","UNKNOWN","","","","","","2017","2017/06/22 00:00:00+00","173","1544","Natural","Natural","","2017/06/22 00:00:00+00","173","1548","0.01","A","40.5379","-104.851","MISSING/NOT SPECIFIED","CO","WELD","08123","Weld County"
"-105.317289805","39.83769359","1980115","400106607","SFO-201759431735","NONFED","ST-NASF","ST/C&L","USCOGAGX","Golden Gate Fire Protection District","5943","Golden Gate Fire Protection District","","1735","","UNKNOWN","","","","","","2017","2017/06/22 00:00:00+00","173","1806","Natural","Natural","","2017/06/22 00:00:00+00","173","1915","0.01","A","39.8377","-105.3173","MISSING/NOT SPECIFIED","CO","JEFFERSON","08059","Jefferson County"
"-107.646389265","39.968293739","1980116","400106608","SFO-201710325154","NONFED","ST-NASF","ST/C&L","USCORBX","Rio Blanco County","10325","Rio Blanco Fire Protection District (Meeker)","","154","","UNKNOWN","","","","","","2017","2017/06/22 00:00:00+00","173","1956","Natural","Natural","","2017/06/22 00:00:00+00","173","1956","0.01","A","39.9683","-107.6464","MISSING/NOT SPECIFIED","CO","RIO BLANCO","08103","Rio Blanco County"
"-81.203051597","36.172807932","1980117","400106609","SFO-2017NCNCSNCST-097-FY2017-0119","NONFED","ST-NASF","ST/C&L","USNCNCS","North Carolina Forest Service","NCNCS","North Carolina State Division of Forest Resouces","","NCST-097-FY2017-0119","","RUNNING BEAR","","","","","","2017","2017/02/11 00:00:00+00","42","1108","Human","Debris and open burning","","2017/02/11 00:00:00+00","42","1130","0.16","A","36.172815","-81.203055","MISSING/NOT SPECIFIED","NC","Wilkes","37193","Wilkes County"
"-102.934157467","35.733160718","1980118","400106611","SFO-2017TXTXS5407","NONFED","ST-NASF","ST/C&L","USTXTXS","Texas A & M Forest Service","TXTXS","Texas Forest Service","","5407","","ROMERO","2017_7361139_ROMERO","","TX3573310293420170622","ROMERO","","2017","2017/06/21 00:00:00+00","172","2143","Natural","Natural","","2017/06/22 00:00:00+00","173","0430","1758","F","35.73316667","-102.9341667","MISSING/NOT SPECIFIED","TX","Hartley","48205","Hartley County"
"-105.195789881","39.419993639","1980119","400106615","SFO-2017597885","NONFED","ST-NASF","ST/C&L","USCONOFX","North Fork Fire Protection District","5978","North Fork Fire Protection District","","85","","UNKNOWN","","","","","","2017","2017/06/23 00:00:00+00","174","0753","Natural","Natural","","2017/06/23 00:00:00+00","174","1200","2.5","B","39.42","-105.1958","UNDEFINED FEDERAL","CO","JEFFERSON","08059","Jefferson County"
"-81.708196784","28.881994584","1980120","400106616","SFO-2017FLFLS2017110393","NONFED","ST-NASF","ST/C&L","USFLFLS","Florida Forest Service","FLFLS","Florida Forest Service","","2017110393","","OFF ROAD (35)","","","","","","2017","2017/06/23 00:00:00+00","174","1200","Natural","Natural","","2017/06/23 00:00:00+00","174","1426","0.1","A","28.882","-81.7082","PRIVATE","FL","Lake","12069","Lake County"
"-81.972096747","27.689494878","1980121","400106617","SFO-2017FLFLS2017140333","NONFED","ST-NASF","ST/C&L","USFLFLS","Florida Forest Service","FLFLS","Florida Forest Service","","2017140333","","AG ROCK WEST (53)","","","","","","2017","2017/06/23 00:00:00+00","174","2145","Natural","Natural","","2017/06/24 00:00:00+00","175","0023","20","C","27.6895","-81.9721","PRIVATE","FL","Polk","12105","Polk County"
"-100.30965837","31.703161282","1980122","400106618","SFO-2017TXTXS5410","NONFED","ST-NASF","ST/C&L","USTXTXS","Texas A & M Forest Service","TXTXS","Texas Forest Service","","5410","","POVERTY CANYON","","","","","","2017","2017/06/23 00:00:00+00","174","2212","Natural","Natural","","2017/06/24 00:00:00+00","175","1458","90","C","31.70316667","-100.3096667","MISSING/NOT SPECIFIED","TX","Coke","48081","Coke County"
"-81.416196853","29.32649447","1980123","400106619","SFO-2017FLFLS2017100583","NONFED","ST-NASF","ST/C&L","USFLFLS","Florida Forest Service","FLFLS","Florida Forest Service","","2017100583","","SHOOTING RANGE (64)","","","","","","2017","2017/06/24 00:00:00+00","175","1215","Natural","Natural","","2017/06/24 00:00:00+00","175","2114","40","C","29.3265","-81.4162","PRIVATE","FL","Flagler","12035","Flagler County"
"-120.461585514","47.184154205","1980124","400106620","SFO-2017WADNR86","NONFED","ST-NASF","ST/C&L","USWAWAS","Washington State Department of Natural Resources Headquarters","WADNR","Washington Department of Natural Resources","","86","","NANEUM STRIKE","","","","","","2017","2017/06/01 00:00:00+00","152","1114","Natural","Natural","","2017/06/25 00:00:00+00","176","0950","0.05","A","47.18416","-120.4616","STATE","WA","37","53037","Kittitas County"
"-120.974156361","42.422774574","1980125","400106621","SFO-2017ORODF1798204017","NONFED","ST-NASF","ST/C&L","USORORS","Oregon Department of Forestry Salem Headquarters","ORODF","Oregon Department of Forestry","","1798204017","","CAMPBELL 170","","","","","","2017","2017/06/25 00:00:00+00","176","1506","Natural","Natural","","2017/06/25 00:00:00+00","176","1706","0.1","A","42.42278","-120.97417","PRIVATE","OR","Klamath","41035","Klamath County"
"-122.080269284","41.818744717","1980126","400106622","SFO-2017CACDFSKU004497","NONFED","ST-NASF","ST/C&L","USCACDF","California Department of Forestry & Fire Protection","CACDF","Headquarters, California Department of Forestry & Fire Protection","","SKU004497","","MEISS","","","","","","2017","2017/06/25 00:00:00+00","176","1647","Natural","Natural","","2017/06/25 00:00:00+00","176","1725","0.01","A","41.81875","-122.080283","MISSING/NOT SPECIFIED","CA","SISKIYOU","06093","Siskiyou County"
"-123.205815961","42.743884757","1980127","400106623","SFO-2017ORODF1773224317","NONFED","ST-NASF","ST/C&L","USORORS","Oregon Department of Forestry Salem Headquarters","ORODF","Oregon Department of Forestry","","1773224317","","BULL RUN","","","","","","2017","2017/06/25 00:00:00+00","176","1706","Natural","Natural","","2017/06/25 00:00:00+00","176","1906","0.01","A","42.74389","-123.20583","UNDEFINED FEDERAL","OR","Douglas","41019","Douglas County"
"-81.257796891","29.568994408","1980128","400106624","SFO-2017FLFLS2017100586","NONFED","ST-NASF","ST/C&L","USFLFLS","Florida Forest Service","FLFLS","Florida Forest Service","","2017100586","","BALL FIELD (18)","","","","","","2017","2017/06/25 00:00:00+00","176","1828","Natural","Natural","","2017/06/25 00:00:00+00","176","1915","0.1","A","29.569","-81.2578","MISSING/NOT SPECIFIED","FL","Flagler","12035","Flagler County"
"-122.371869234","41.854294741","1980129","400106625","SFO-2017CACDFSKU004512","NONFED","ST-NASF","ST/C&L","USCACDF","California Department of Forestry & Fire Protection","CACDF","Headquarters, California Department of Forestry & Fire Protection","","SKU004512","","YORK","","","","","","2017","2017/06/25 00:00:00+00","176","1853","Natural","Natural","","2017/06/25 00:00:00+00","176","1945","0.1","A","41.8543","-122.371883","MISSING/NOT SPECIFIED","CA","SISKIYOU","06093","Siskiyou County"
"-101.218658202","30.804494813","1980130","400106626","SFO-2017TXTXS5411","NONFED","ST-NASF","ST/C&L","USTXTXS","Texas A & M Forest Service","TXTXS","Texas Forest Service","","5411","","FOREHAND RANCH","2017_7163414_FOREHAND RANCH","","","","","2017","2017/06/24 00:00:00+00","175","1931","Natural","Natural","","2017/06/25 00:00:00+00","176","1951","300","E","30.8045","-101.2186667","MISSING/NOT SPECIFIED","TX","Crockett","48105","Crockett County"
"-123.370265891","43.008054755","1980131","400106627","SFO-2017ORODF1773224517","NONFED","ST-NASF","ST/C&L","USORORS","Oregon Department of Forestry Salem Headquarters","ORODF","Oregon Department of Forestry","","1773224517","","SKYLINE DRIVE","","","","","","2017","2017/06/25 00:00:00+00","176","1906","Natural","Natural","","2017/06/25 00:00:00+00","176","2006","0.01","A","43.00806","-123.37028","PRIVATE","OR","Douglas","41019","Douglas County"
"-121.03942633","42.548054571","1980132","400106628","SFO-2017ORODF1798204417","NONFED","ST-NASF","ST/C&L","USORORS","Oregon Department of Forestry Salem Headquarters","ORODF","Oregon Department of Forestry","","1798204417","","SWITZER 178","","","","","","2017","2017/06/25 00:00:00+00","176","1906","Natural","Natural","","2017/06/25 00:00:00+00","176","2106","0.1","A","42.54806","-121.03944","PRIVATE","OR","Klamath","41035","Klamath County"
"-122.269706195","42.196934708","1980133","400106629","SFO-2017ORODF1798113117","NONFED","ST-NASF","ST/C&L","USORORS","Oregon Department of Forestry Salem Headquarters","ORODF","Oregon Department of Forestry","","1798113117","","JOHNSON CREEK","","","","","","2017","2017/06/25 00:00:00+00","176","1606","Natural","Natural","","2017/06/25 00:00:00+00","176","2206","0.1","A","42.19694","-122.26972","PRIVATE","OR","Klamath","41035","Klamath County"
"-121.062206321","42.577214571","1980134","400106630","SFO-2017ORODF1798204117","NONFED","ST-NASF","ST/C&L","USORORS","Oregon Department of Forestry Salem Headquarters","ORODF","Oregon Department of Forestry","","1798204117","","MERYL 173","","","","","","2017","2017/06/25 00:00:00+00","176","1806","Natural","Natural","","2017/06/25 00:00:00+00","176","2206","0.1","A","42.57722","-121.06222","PRIVATE","OR","Klamath","41035","Klamath County"
"-121.009986369","42.340274584","1980135","400106631","SFO-2017ORODF1798204217","NONFED","ST-NASF","ST/C&L","USORORS","Oregon Department of Forestry Salem Headquarters","ORODF","Oregon Department of Forestry","","1798204217","","FISHOLE 174","","","","","","2017","2017/06/25 00:00:00+00","176","1806","Natural","Natural","","2017/06/25 00:00:00+00","176","2206","0.1","A","42.34028","-121.01","PRIVATE","OR","Klamath","41035","Klamath County"
"-81.517496781","30.474494203","1980136","400106633","SFO-2017FLFLS2017070378","NONFED","ST-NASF","ST/C&L","USFLFLS","Florida Forest Service","FLFLS","Florida Forest Service","","2017070378","","CEDAR PT 1 US (16)","","","","","","2017","2017/06/25 00:00:00+00","176","2018","Natural","Natural","","2017/06/25 00:00:00+00","176","2342","9","B","30.4745","-81.5175","STATE","FL","Duval","12031","Duval County"
"-123.37054539","45.623054601","1980137","400106634","SFO-2017ORODF1753109217","NONFED","ST-NASF","ST/C&L","USORORS","Oregon Department of Forestry Salem Headquarters","ORODF","Oregon Department of Forestry","","1753109217","","FIRE BREAK 1","","","","","","2017","2017/06/26 00:00:00+00","177","0806","Natural","Natural","","2017/06/26 00:00:00+00","177","0906","0.01","A","45.62306","-123.37056","STATE","OR","Washington","41067","Washington County"
"-81.163396941","28.935294556","1980138","400106636","SFO-2017FLFLS2017100587","NONFED","ST-NASF","ST/C&L","USFLFLS","Florida Forest Service","FLFLS","Florida Forest Service","","2017100587","","ELKCAM BLVD (64)","","","","","","2017","2017/06/25 00:00:00+00","176","1900","Natural","Natural","","2017/06/26 00:00:00+00","177","1030","1","B","28.9353","-81.1634","MUNICIPAL/LOCAL","FL","Volusia","12127","Volusia County"
"-123.194205392","45.739994576","1980139","400106637","SFO-2017ORODF1753109317","NONFED","ST-NASF","ST/C&L","USORORS","Oregon Department of Forestry Salem Headquarters","ORODF","Oregon Department of Forestry","","1753109317","","STUBB STEWART FIRE","","","","","","2017","2017/06/26 00:00:00+00","177","0906","Natural","Natural","","2017/06/26 00:00:00+00","177","1106","0.05","A","45.74","-123.19422","STATE","OR","Washington","41067","Washington County"
"-121.026096337","42.516104572","1980140","400106638","SFO-2017ORODF1798204717","NONFED","ST-NASF","ST/C&L","USORORS","Oregon Department of Forestry Salem Headquarters","ORODF","Oregon Department of Forestry","","1798204717","","LONG 182","","","","","","2017","2017/06/26 00:00:00+00","177","0606","Natural","Natural","","2017/06/26 00:00:00+00","177","1206","0.1","A","42.51611","-121.02611","PRIVATE","OR","Klamath","41035","Klamath County"
"-121.533456102","43.416664555","1980141","400106639","SFO-2017ORODF1799124917","NONFED","ST-NASF","ST/C&L","USORORS","Oregon Department of Forestry Salem Headquarters","ORODF","Oregon Department of Forestry","","1799124917","","SUMMITTE BUTTE","","","","","","2017","2017/06/26 00:00:00+00","177","0906","Natural","Natural","","2017/06/26 00:00:00+00","177","1306","0.1","A","43.41667","-121.53347","STATE","OR","Klamath","41035","Klamath County"
"-73.327698766","40.758791711","1980142","400106640","SFO-2017NY5225NY5225-2017-1669","NONFED","ST-NASF","ST/C&L","USNYNYX","Fire Department of New York","NY5225","Fire Department of New York","","NY5225-2017-1669","","N/A","","","","","","2017","2017/06/26 00:00:00+00","177","1315","Natural","Natural","","2017/06/26 00:00:00+00","177","1323","0.2","A","40.7588","-73.3277","MISSING/NOT SPECIFIED","NY","Suffolk","36103","Suffolk County"
"-119.072876331","44.396214251","1980143","400106641","SFO-2017ORODF1795204817","NONFED","ST-NASF","ST/C&L","USORORS","Oregon Department of Forestry Salem Headquarters","ORODF","Oregon Department of Forestry","","1795204817","","ANGEL GULCH","","","","","","2017","2017/06/26 00:00:00+00","177","1306","Natural","Natural","","2017/06/26 00:00:00+00","177","1406","0.1","A","44.39622","-119.07289","PRIVATE","OR","Grant","41023","Grant County"
"-122.209156223","42.07832471","1980144","400106643","SFO-2017ORODF1798113317","NONFED","ST-NASF","ST/C&L","USORORS","Oregon Department of Forestry Salem Headquarters","ORODF","Oregon Department of Forestry","","1798113317","","MUD 190","","","","","","2017","2017/06/26 00:00:00+00","177","1106","Natural","Natural","","2017/06/26 00:00:00+00","177","1606","0.1","A","42.07833","-122.20917","PRIVATE","OR","Klamath","41035","Klamath County"
"-81.01509698","29.061394522","1980145","400106644","SFO-2017FLFLS2017100592","NONFED","ST-NASF","ST/C&L","USFLFLS","Florida Forest Service","FLFLS","Florida Forest Service","","2017100592","","CRYSTAL CREEK (64)","","","","","","2017","2017/06/26 00:00:00+00","177","1410","Natural","Natural","","2017/06/26 00:00:00+00","177","1652","2","B","29.0614","-81.0151","PRIVATE","FL","Volusia","12127","Volusia County"
"-119.468236182","44.823104258","1980146","400106645","SFO-2017ORODF1795205217","NONFED","ST-NASF","ST/C&L","USORORS","Oregon Department of Forestry Salem Headquarters","ORODF","Oregon Department of Forestry","","1795205217","","MP 11.5","","","","","","2017","2017/06/26 00:00:00+00","177","1506","Natural","Natural","","2017/06/26 00:00:00+00","177","1806","0.37","B","44.82311","-119.46825","PRIVATE","OR","Grant","41023","Grant County"
"-123.351655891","43.026664752","1980147","400106647","SFO-2017ORODF1773224617","NONFED","ST-NASF","ST/C&L","USORORS","Oregon Department of Forestry Salem Headquarters","ORODF","Oregon Department of Forestry","","1773224617","","VANDINE","","","","","","2017","2017/06/25 00:00:00+00","176","2306","Natural","Natural","","2017/06/26 00:00:00+00","177","2006","0.1","A","43.02667","-123.35167","UNDEFINED FEDERAL","OR","Douglas","41019","Douglas County"
"-119.049706317","44.496214241","1980148","400106648","SFO-2017ORODF1795205017","NONFED","ST-NASF","ST/C&L","USORORS","Oregon Department of Forestry Salem Headquarters","ORODF","Oregon Department of Forestry","","1795205017","","GORDON LAKE","","","","","","2017","2017/06/26 00:00:00+00","177","1306","Natural","Natural","","2017/06/26 00:00:00+00","177","2006","0.1","A","44.49622","-119.04972","PRIVATE","OR","Grant","41023","Grant County"
"-81.886296793","27.008795043","1980149","400106650","SFO-2017FLFLS2017150365","NONFED","ST-NASF","ST/C&L","USFLFLS","Florida Forest Service","FLFLS","Florida Forest Service","","2017150365","","DUNCAN RD. (08)","","","","","","2017","2017/06/26 00:00:00+00","177","1900","Natural","Natural","","2017/06/26 00:00:00+00","177","2048","8","B","27.0088","-81.8863","MUNICIPAL/LOCAL","FL","Charlotte","12015","Charlotte County"
"-82.280496629","28.579994671","1980150","400106651","SFO-2017FLFLS2017110401","NONFED","ST-NASF","ST/C&L","USFLFLS","Florida Forest Service","FLFLS","Florida Forest Service","","2017110401","","HORSE TRAIL (27)","","","","","","2017","2017/06/26 00:00:00+00","177","1722","Natural","Natural","","2017/06/26 00:00:00+00","177","2053","18.3","C","28.58","-82.2805","STATE","FL","Hernando","12053","Hernando County"
"-104.682790063","38.841493686","1980151","400106654","SFO-201741181734162","NONFED","ST-NASF","ST/C&L","USCOCOLX","Colorado Springs Fire Department","4118","Colorado Springs Fire Department","","1734162","","UNKNOWN","","","","","","2017","2017/06/29 00:00:00+00","180","2015","Natural","Natural","","2017/06/29 00:00:00+00","180","2015","0.01","A","38.8415","-104.6828","MISSING/NOT SPECIFIED","CO","EL PASO","08041","El Paso County"
"-104.669989938","39.972293527","1980152","400106655","SFO-20171153264","NONFED","ST-NASF","ST/C&L","USCOGRBX","Greater Brighton Fire Protection District","115","Greater Brighton Fire Protection District","","3264","","UNKNOWN","","","","","","2017","2017/06/29 00:00:00+00","180","2050","Natural","Natural","","2017/06/29 00:00:00+00","180","2050","0.01","A","39.9723","-104.67","PRIVATE","CO","ADAM","08001","Adams County"
"-104.673590063","38.862393682","1980153","400106656","SFO-201741421163","NONFED","ST-NASF","ST/C&L","USCOFALX","Falcon Fire Protection District","4142","Falcon Fire Protection District","","1163","","UNKNOWN","","","","","","2017","2017/06/29 00:00:00+00","180","2014","Natural","Natural","","2017/06/29 00:00:00+00","180","2112","0.01","A","38.8624","-104.6736","MISSING/NOT SPECIFIED","CO","EL PASO","08041","El Paso County"
"-82.261696689","26.840495093","1980154","400106657","SFO-2017FLFLS2017150376","NONFED","ST-NASF","ST/C&L","USFLFLS","Florida Forest Service","FLFLS","Florida Forest Service","","2017150376","","CREEKSIDE (08)","","","","","","2017","2017/06/29 00:00:00+00","180","1555","Natural","Natural","","2017/06/29 00:00:00+00","180","2121","38","C","26.8405","-82.2617","STATE","FL","Charlotte","12015","Charlotte County"
"-105.407789663","40.828293464","1980155","400106658","SFO-2017699044","NONFED","ST-NASF","ST/C&L","USCOLVMX","Livermore Fire Protection District","6990","Livermore Fire Protection District","","44","","UNKNOWN","","","","","","2017","2017/06/29 00:00:00+00","180","1917","Natural","Natural","","2017/06/29 00:00:00+00","180","2200","0.25","A","40.8283","-105.4078","MISSING/NOT SPECIFIED","CO","LARIMER","08069","Larimer County"
"-78.587670442","35.104672065","1980156","400106660","SFO-2017NCNCSNCST-082-FY2017-0028","NONFED","ST-NASF","ST/C&L","USNCNCS","North Carolina Forest Service","NCNCS","North Carolina State Division of Forest Resouces","","NCST-082-FY2017-0028","","BALL FIELD","","","","","","2017","2017/02/11 00:00:00+00","42","1045","Human","Debris and open burning","","2017/02/11 00:00:00+00","42","1145","1.83","B","35.104679","-78.587673","MISSING/NOT SPECIFIED","NC","Sampson","37163","Sampson County"
"-123.263916003","42.443674781","1980157","400106661","SFO-2017ORODF1771284517","NONFED","ST-NASF","ST/C&L","USORORS","Oregon Department of Forestry Salem Headquarters","ORODF","Oregon Department of Forestry","","1771284517","","FOOTHILL BLVD #3","","","","","","2017","2017/06/26 00:00:00+00","177","1906","Natural","Natural","","2017/06/30 00:00:00+00","181","1106","0.01","A","42.44368","-123.26393","UNDEFINED FEDERAL","OR","Josephine","41033","Josephine County"
"-114.491686389","48.216693502","1980158","400106662","SFO-2017MTNWS000148","NONFED","ST-NASF","ST/C&L","USMTNWS","Northwestern Land Office","MTNWS","Northwestern Land Office","","000148","","WEBERG CREEK","","","","","","2017","2017/06/28 00:00:00+00","179","1900","Natural","Natural","","2017/06/30 00:00:00+00","181","1310","0.33","B","48.2167","-114.4917","PRIVATE","MT","Flathead","30029","Flathead County"
"-122.353986196","42.106324721","1980159","400106663","SFO-2017ORODF1771136417","NONFED","ST-NASF","ST/C&L","USORORS","Oregon Department of Forestry Salem Headquarters","ORODF","Oregon Department of Forestry","","1771136417","","COPCO 2","","","","","","2017","2017/06/26 00:00:00+00","177","0806","Natural","Natural","","2017/06/30 00:00:00+00","181","1406","0.25","A","42.10633","-122.354","PRIVATE","OR","Jackson","41029","Jackson County"
"-105.407469134","44.489793007","1980160","400106665","SFO-201754032018-00915","NONFED","ST-NASF","ST/C&L","USWYCMX","Campbell County","5403","Campbell County Fire Department","","2018-00915","","NORTH DRAW FIRE","","","","","","2017","2017/06/30 00:00:00+00","181","1225","Natural","Natural","","2017/06/30 00:00:00+00","181","1459","2","B","44.4898","-105.40748","UNDEFINED FEDERAL","WY","Campbell","56005","Campbell County"
"-114.851686323","48.186693542","1980161","400106666","SFO-2017MTNWS000154","NONFED","ST-NASF","ST/C&L","USMTNWS","Northwestern Land Office","MTNWS","Northwestern Land Office","","000154","","NORTH DAHL","","","","","","2017","2017/06/29 00:00:00+00","180","1738","Natural","Natural","","2017/06/30 00:00:00+00","181","1545","0.3","B","48.1867","-114.8517","PRIVATE","MT","Flathead","30029","Flathead County"
"-73.937498511","41.715691547","1980162","400106667","SFO-2017NY1409NY1409-2017-1701114","NONFED","ST-NASF","ST/C&L","USNYNYX","Fire Department of New York","NY1409","Fire Department of New York","","NY1409-2017-1701114","","N/A","","","","","","2017","2017/06/30 00:00:00+00","181","1538","Natural","Natural","","2017/06/30 00:00:00+00","181","1551","1.3","B","41.7157","-73.9375","MISSING/NOT SPECIFIED","NY","Dutchess","36027","Dutchess County"
"-123.172925993","42.583824764","1980163","400106668","SFO-2017ORODF1771284617","NONFED","ST-NASF","ST/C&L","USORORS","Oregon Department of Forestry Salem Headquarters","ORODF","Oregon Department of Forestry","","1771284617","","N FORD RD 237","","","","","","2017","2017/06/27 00:00:00+00","178","0906","Natural","Natural","","2017/06/30 00:00:00+00","181","1606","0.01","A","42.58383","-123.17294","PRIVATE","OR","Jackson","41029","Jackson County"
"-113.968286524","48.099993457","1980164","400106669","SFO-2017MTNWS000160","NONFED","ST-NASF","ST/C&L","USMTNWS","Northwestern Land Office","MTNWS","Northwestern Land Office","","000160","","SLETHAUG","","","","","","2017","2017/06/30 00:00:00+00","181","1600","Natural","Natural","","2017/06/30 00:00:00+00","181","1730","0.1","A","48.1","-113.9683","STATE","MT","Flathead","30029","Flathead County"
"-82.052896719","27.839094844","1980165","400106671","SFO-2017FLFLS2017140349","NONFED","ST-NASF","ST/C&L","USFLFLS","Florida Forest Service","FLFLS","Florida Forest Service","","2017140349","","NEW WALES (53)","","","","","","2017","2017/06/30 00:00:00+00","181","1815","Natural","Natural","","2017/06/30 00:00:00+00","181","1849","4","B","27.8391","-82.0529","PRIVATE","FL","Polk","12105","Polk County"
"-75.598697886","43.001691369","1980166","400106672","SFO-2017NY2717NY2717-2017-170091","NONFED","ST-NASF","ST/C&L","USNYNYX","Fire Department of New York","NY2717","Fire Department of New York","","NY2717-2017-170091","","N/A","","","","","","2017","2017/06/30 00:00:00+00","181","1828","Natural","Natural","","2017/06/30 00:00:00+00","181","1908","0.1","A","43.0017","-75.5987","MISSING/NOT SPECIFIED","NY","Madison","36053","Madison County"
"-81.686696812","28.247794736","1980167","400106673","SFO-2017FLFLS2017140348","NONFED","ST-NASF","ST/C&L","USFLFLS","Florida Forest Service","FLFLS","Florida Forest Service","","2017140348","","WALLABY RANCH (53)","","","","","","2017","2017/06/30 00:00:00+00","181","1819","Natural","Natural","","2017/06/30 00:00:00+00","181","2009","3","B","28.2478","-81.6867","PRIVATE","FL","Polk","12105","Polk County"
"-77.443347803","34.81722609","1980168","400106675","SFO-2017NCNCSNCST-067-FY2017-0070","NONFED","ST-NASF","ST/C&L","USNCNCS","North Carolina Forest Service","NCNCS","North Carolina State Division of Forest Resouces","","NCST-067-FY2017-0070","","RIDGECREST DRIVE","","","","","","2017","2017/02/11 00:00:00+00","42","1130","Human","Debris and open burning","","2017/02/11 00:00:00+00","42","1200","0.04","A","34.817233","-77.44335","MISSING/NOT SPECIFIED","NC","Onslow","37133","Onslow County"
"-122.322956199","42.121794718","1980169","400106677","SFO-2017ORODF1771136917","NONFED","ST-NASF","ST/C&L","USORORS","Oregon Department of Forestry Salem Headquarters","ORODF","Oregon Department of Forestry","","1771136917","","COPCO 3","","","","","","2017","2017/06/26 00:00:00+00","177","1406","Natural","Natural","","2017/07/01 00:00:00+00","182","1407","3.5","B","42.1218","-122.32297","PRIVATE","OR","Jackson","41029","Jackson County"
"-81.431396885","28.281194721","1980170","400106678","SFO-2017FLFLS2017120475","NONFED","ST-NASF","ST/C&L","USFLFLS","Florida Forest Service","FLFLS","Florida Forest Service","","2017120475","","3 MILE CREEK (05)","","","","","","2017","2017/06/30 00:00:00+00","181","1815","Natural","Natural","","2017/07/01 00:00:00+00","182","1610","200","D","28.2812","-81.4314","STATE","FL","Osceola","12097","Osceola County"
"-81.542396916","26.175195242","1980171","400106679","SFO-2017FLFLS2017170274","NONFED","ST-NASF","ST/C&L","USFLFLS","Florida Forest Service","FLFLS","Florida Forest Service","","2017170274","","40TH AVE   (11) ","","","","","","2017","2017/07/01 00:00:00+00","182","1557","Natural","Natural","","2017/07/01 00:00:00+00","182","1738","1.5","B","26.1752","-81.5424","STATE","FL","Collier","12021","Collier County"
"-88.328561535","36.032760258","1980172","400106683","SFO-2017TNTNS17-W0056","NONFED","ST-NASF","ST/C&L","USTNTNS","Tennessee Division of Forestry","TNTNS","Tennessee Division of Forestry","","17-W0056","","HILL","","","","","","2017","2017/02/11 00:00:00+00","42","1152","Human","Debris and open burning","","2017/02/11 00:00:00+00","42","1205","0.3","B","36.032767","-88.328567","PRIVATE","TN","CARROLL","47017","Carroll County"
"-80.99219702","28.066994762","1980173","400106685","SFO-2017FLFLS2017120477","NONFED","ST-NASF","ST/C&L","USFLFLS","Florida Forest Service","FLFLS","Florida Forest Service","","2017120477","","(49) QUIET","","","","","","2017","2017/07/01 00:00:00+00","182","1740","Natural","Natural","","2017/07/01 00:00:00+00","182","1926","0.5","B","28.067","-80.9922","MISSING/NOT SPECIFIED","FL","Osceola","12097","Osceola County"
"-80.380697226","27.162394969","1980174","400106686","SFO-2017FLFLS2017160606","NONFED","ST-NASF","ST/C&L","USFLFLS","Florida Forest Service","FLFLS","Florida Forest Service","","2017160606","","SEVEN FOURTEEN (43)","","","","","","2017","2017/07/01 00:00:00+00","182","1810","Natural","Natural","","2017/07/01 00:00:00+00","182","1939","10","C","27.1624","-80.3807","PRIVATE","FL","Martin","12085","Martin County"
"-105.352109139","44.539572996","1980175","400106688","SFO-201754032018-00916","NONFED","ST-NASF","ST/C&L","USWYCMX","Campbell County","5403","Campbell County Fire Department","","2018-00916","","BAY HORSE 2","","","","","","2017","2017/06/30 00:00:00+00","181","2136","Natural","Natural","","2017/07/01 00:00:00+00","182","","1","B","44.53958","-105.35212","MISSING/NOT SPECIFIED","WY","Campbell","56005","Campbell County"
"-117.70638578","48.142743849","1980176","400106689","SFO-2017WADNR423","NONFED","ST-NASF","ST/C&L","USWAWAS","Washington State Department of Natural Resources Headquarters","WADNR","Washington Department of Natural Resources","","423","","JOE SPLIT","","","","","","2017","2017/06/26 00:00:00+00","177","1810","Natural","Natural","","2017/07/02 00:00:00+00","183","1049","0.01","A","48.14275","-117.7064","PRIVATE","WA","65","53065","Stevens County"
"-115.97574567","44.455917372","1980177","400106691","SFO-2017IDDL9802017002","NONFED","ST-NASF","ST/C&L","USIDIDS","Idaho Department of Lands","IDDL","Idaho Department of Lands","","9802017002","","CORRAL CREEK","","","","","","2017","2017/06/30 00:00:00+00","181","1800","Natural","Natural","","2017/07/02 00:00:00+00","183","1119","0.92","B","44.45592342","-115.97575879","PRIVATE","ID","Valley","16085","Valley County"
"-106.545289507","39.986993657","1980178","400106692","SFO-2017493551","NONFED","ST-NASF","ST/C&L","USCOKREX","Kremmling Fire Protection District","4935","Kremmling Fire Protection District","","51","","UNKNOWN","","","","","","2017","2017/07/02 00:00:00+00","183","1246","Natural","Natural","","2017/07/02 00:00:00+00","183","1246","0.01","A","39.987","-106.5453","MISSING/NOT SPECIFIED","CO","GRAND","08049","Grand County"
"-118.224685747","47.881383922","1980179","400106693","SFO-2017WADNR458","NONFED","ST-NASF","ST/C&L","USWAWAS","Washington State Department of Natural Resources Headquarters","WADNR","Washington Department of Natural Resources","","458","","EGYPT STRIKE","","","","","","2017","2017/06/26 00:00:00+00","177","1800","Natural","Natural","","2017/07/02 00:00:00+00","183","1331","0.01","A","47.88139","-118.2247","STATE","WA","43","53043","Lincoln County"
"-123.183185979","42.66199476","1980180","400106694","SFO-2017ORODF1771282817","NONFED","ST-NASF","ST/C&L","USORORS","Oregon Department of Forestry Salem Headquarters","ORODF","Oregon Department of Forestry","","1771282817","","UPPER GRAVES CRK","","","","","","2017","2017/06/25 00:00:00+00","176","1506","Natural","Natural","","2017/07/02 00:00:00+00","183","1407","0.25","A","42.662","-123.1832","UNDEFINED FEDERAL","OR","Jackson","41029","Jackson County"
"-118.251385745","47.869013925","1980181","400106696","SFO-2017WADNR463","NONFED","ST-NASF","ST/C&L","USWAWAS","Washington State Department of Natural Resources Headquarters","WADNR","Washington Department of Natural Resources","","463","","25 STRIKE","","","","","","2017","2017/06/26 00:00:00+00","177","1900","Natural","Natural","","2017/07/02 00:00:00+00","183","1432","0.01","A","47.86902","-118.2514","PRIVATE","WA","43","53043","Lincoln County"
"-82.013096671","29.568294429","1980182","400106697","SFO-2017FLFLS2017080431","NONFED","ST-NASF","ST/C&L","USFLFLS","Florida Forest Service","FLFLS","Florida Forest Service","","2017080431","","RED WATER LAKE (54)","","","","","","2017","2017/07/02 00:00:00+00","183","1015","Natural","Natural","","2017/07/02 00:00:00+00","183","1443","0.1","A","29.5683","-82.0131","PRIVATE","FL","Putnam","12107","Putnam County"
"-123.183455968","42.725074756","1980183","400106698","SFO-2017ORODF1771283017","NONFED","ST-NASF","ST/C&L","USORORS","Oregon Department of Forestry Salem Headquarters","ORODF","Oregon Department of Forestry","","1771283017","","BIG BOULDER","","","","","","2017","2017/06/25 00:00:00+00","176","1706","Natural","Natural","","2017/07/02 00:00:00+00","183","1507","1.06","B","42.72508","-123.18347","PRIVATE","OR","Jackson","41029","Jackson County"
"-103.172990449","38.532793632","1980184","400106699","SFO-201761202017037","NONFED","ST-NASF","ST/C&L","USCOKCSZ","Kiowa County Sheriffs Office","6120","Kiowa County Fire Department (Kiowa County Sheriff's Office)","","2017037","","UNKNOWN","","","","","","2017","2017/06/29 00:00:00+00","180","1606","Natural","Natural","","2017/06/29 00:00:00+00","180","1651","2","B","38.5328","-103.173","PRIVATE","CO","KIOWA","08061","Kiowa County"
"-119.511886208","44.648274275","1980185","400106700","SFO-2017ORODF1795206117","NONFED","ST-NASF","ST/C&L","USORORS","Oregon Department of Forestry Salem Headquarters","ORODF","Oregon Department of Forestry","","1795206117","","SHIRTTAIL CREEK","","","","","","2017","2017/06/28 00:00:00+00","179","1406","Natural","Natural","","2017/06/29 00:00:00+00","180","1706","1","B","44.64828","-119.5119","UNDEFINED FEDERAL","OR","Grant","41023","Grant County"
"-80.359297223","27.47899489","1980186","400106701","SFO-2017FLFLS2017160603","NONFED","ST-NASF","ST/C&L","USFLFLS","Florida Forest Service","FLFLS","Florida Forest Service","","2017160603","","AIRPORT RD  (56)","","","","","","2017","2017/06/29 00:00:00+00","180","1604","Natural","Natural","","2017/06/29 00:00:00+00","180","1744","2","B","27.479","-80.3593","PRIVATE","FL","St. Lucie","12111","St. Lucie County"
"-105.584989025","44.891162975","1980187","400106702","SFO-201754032018-00906","NONFED","ST-NASF","ST/C&L","USWYCMX","Campbell County","5403","Campbell County Fire Department","","2018-00906","","BAY HORSE","","","","","","2017","2017/06/29 00:00:00+00","180","1639","Natural","Natural","","2017/06/29 00:00:00+00","180","1839","1","B","44.89117","-105.585","PRIVATE","WY","Campbell","56005","Campbell County"
"-104.528089953","40.129293495","1980188","400106703","SFO-201712345529","NONFED","ST-NASF","ST/C&L","USCOKEEX","Southeast Weld Fire Protection District","12345","Keenesburg Fire Department (Southeast Weld FPD)","","529","","UNKNOWN","","","","","","2017","2017/06/29 00:00:00+00","180","1818","Natural","Natural","","2017/06/29 00:00:00+00","180","1900","0.01","A","40.1293","-104.5281","MISSING/NOT SPECIFIED","CO","WELD","08123","Weld County"
"-78.749992341","36.078775861","1980189","400106705","SFO-2017NCNCSNCST-039-FY2017-0049","NONFED","ST-NASF","ST/C&L","USNCNCS","North Carolina Forest Service","NCNCS","North Carolina State Division of Forest Resouces","","NCST-039-FY2017-0049","","FLEMING ROAD","","","","","","2017","2017/02/11 00:00:00+00","42","1141","Human","Debris and open burning","","2017/02/11 00:00:00+00","42","1207","0.24","A","36.078783","-78.749995","MISSING/NOT SPECIFIED","NC","Granville","37077","Granville County"
"-104.777990043","38.827993694","1980190","400106707","SFO-201741181756742","NONFED","ST-NASF","ST/C&L","USCOCOLX","Colorado Springs Fire Department","4118","Colorado Springs Fire Department","","1756742","","UNKNOWN","","","","","","2017","2017/10/27 00:00:00+00","300","1113","Human","Missing data/not specified/undetermined","","2017/10/27 00:00:00+00","300","1113","0.01","A","38.828","-104.778","MISSING/NOT SPECIFIED","CO","EL PASO","08041","El Paso County"
"-72.620077925","41.927639461","1980191","400106708","SFO-2017CT_CTS047-2017-0001","NONFED","ST-NASF","ST/C&L","USCTCTS","Connecticut Division of Forestry","CTCTS","Connecticut Division of Forestry","","047-2017-0001","","28 DEAN AVE.","","","","","","2017","2017/10/27 00:00:00+00","300","1141","Human","Missing data/not specified/undetermined","","2017/10/27 00:00:00+00","300","1156","0.1","A","41.927648","-72.620079","PRIVATE","CT","Hartford ","09003","Hartford County"
"-121.432585074","48.337654245","1980192","400106709","SFO-2017WADNR238","NONFED","ST-NASF","ST/C&L","USWAWAS","Washington State Department of Natural Resources Headquarters","WADNR","Washington Department of Natural Resources","","238","","SUIATTLE","2017_7327433_SUIATTLE","","","","","2017","2017/07/30 00:00:00+00","211","1604","Human","Missing data/not specified/undetermined","","2017/10/27 00:00:00+00","300","1200","216","D","48.33766","-121.4326","STATE","WA","57","53057","Skagit County"
"-93.090493549","30.633694544","1980193","400106710","SFO-2017LADAF123377","NONFED","ST-NASF","ST/C&L","USLALAS","Louisiana Office of Forestry","LADAF","Louisiana Department of Agriculture and Forestry","","123377","","","","","","","","2017","2017/10/27 00:00:00+00","300","1200","Human","Missing data/not specified/undetermined","","2017/10/27 00:00:00+00","300","1340","0.25","A","30.6337","-93.0905","PRIVATE","LA","Beauregard","22011","Beauregard Parish"
"-123.754980389","39.387181033","1980194","400106711","SFO-2017CACDFMEU012944","NONFED","ST-NASF","ST/C&L","USCACDF","California Department of Forestry & Fire Protection","CACDF","Headquarters, California Department of Forestry & Fire Protection","","MEU012944","","SIMPSON","","","","","","2017","2017/10/27 00:00:00+00","300","0953","Human","Missing data/not specified/undetermined","","2017/10/27 00:00:00+00","300","1455","0.05","A","39.387186","-123.754994","MISSING/NOT SPECIFIED","CA","MENDOCINO","06045","Mendocino County"
"-121.801486449","41.028161751","1980195","400106712","SFO-2017CACDFSHU011183","NONFED","ST-NASF","ST/C&L","USCACDF","California Department of Forestry & Fire Protection","CACDF","Headquarters, California Department of Forestry & Fire Protection","","SHU011183","","SUMMIT","","","","","","2017","2017/10/27 00:00:00+00","300","1222","Human","Missing data/not specified/undetermined","","2017/10/27 00:00:00+00","300","1517","1","B","41.028167","-121.8015","MISSING/NOT SPECIFIED","CA","SHASTA","06089","Shasta County"
"-121.741819889","37.762328007","1980196","400106713","SFO-2017CACDFSCU007953","NONFED","ST-NASF","ST/C&L","USCACDF","California Department of Forestry & Fire Protection","CACDF","Headquarters, California Department of Forestry & Fire Protection","","SCU007953","","VASCO","","","","","","2017","2017/10/27 00:00:00+00","300","1513","Human","Missing data/not specified/undetermined","","2017/10/27 00:00:00+00","300","1600","4.7","B","37.762333","-121.741833","MISSING/NOT SPECIFIED","CA","ALAMEDA","06001","Alameda County"
"-88.069994879","31.250994237","1980197","400106714","SFO-2017ALAFC13125","NONFED","ST-NASF","ST/C&L","USALALS","Alabama Forestry Commission","ALAFC","Alabama Forestry Commission","","13125","","20171027-2","","","","","","2017","2017/10/27 00:00:00+00","300","1434","Human","Missing data/not specified/undetermined","","2017/10/27 00:00:00+00","300","1652","2","B","31.251","-88.07","MISSING/NOT SPECIFIED","AL","Washington","01129","Washington County"
"-82.914904972","37.985172634","1980198","400106715","SFO-2017KYKYS11520179017","NONFED","ST-NASF","ST/C&L","USKYKYS","Kentucky Division of Forestry","KYKYS","Kentucky Division of Forestry","","11520179017","","BIG LICK","","","","","","2017","2017/10/27 00:00:00+00","300","1400","Human","Missing data/not specified/undetermined","","2017/10/27 00:00:00+00","300","1700","1.5","B","37.98518","-82.914909","PRIVATE","KY","Johnson","21115","Johnson County"
"-79.870026649","41.400431844","1980199","400106716","SFO-2017PAPAS08(17)2-010","NONFED","ST-NASF","ST/C&L","USPAPAS","Pennsylvania Division of Forest Fire Protection","PAPAS","Pennsylvania Division of Forest Fire Protection","","08(17)2-010","","WATERWORKS RD","","","","","","2017","2017/10/27 00:00:00+00","300","1710","Human","Missing data/not specified/undetermined","","2017/10/27 00:00:00+00","300","1732","0.1","A","41.40044","-79.87003","MISSING/NOT SPECIFIED","PA","VENANGO","42121","Venango County"
"-104.631390139","38.242193768","1980200","400106717","SFO-20171014519571","NONFED","ST-NASF","ST/C&L","USCOPUCX","Pueblo Fire Department","10145","Pueblo Fire Department","","19571","","UNKNOWN","","","","","","2017","2017/10/27 00:00:00+00","300","2106","Human","Missing data/not specified/undetermined","","2017/10/27 00:00:00+00","300","2106","0.01","A","38.2422","-104.6314","MISSING/NOT SPECIFIED","CO","PUEBLO","08101","Pueblo County"
"-104.87639001","38.921393687","1980201","400106718","SFO-201741181756848","NONFED","ST-NASF","ST/C&L","USCOCOLX","Colorado Springs Fire Department","4118","Colorado Springs Fire Department","","1756848","","UNKNOWN","","","","","","2017","2017/10/27 00:00:00+00","300","2320","Human","Missing data/not specified/undetermined","","2017/10/27 00:00:00+00","300","2320","0.01","A","38.9214","-104.8764","MISSING/NOT SPECIFIED","CO","EL PASO","08041","El Paso County"
"-79.35661916","36.035870892","1980202","400106719","SFO-2017NCNCSNCST-001-FY2017-0017","NONFED","ST-NASF","ST/C&L","USNCNCS","North Carolina Forest Service","NCNCS","North Carolina State Division of Forest Resouces","","NCST-001-FY2017-0017","","HWY 54","","","","","","2017","2017/02/11 00:00:00+00","42","1142","Human","Debris and open burning","","2017/02/11 00:00:00+00","42","1217","1.01","B","36.035878","-79.356622","MISSING/NOT SPECIFIED","NC","Alamance","37001","Alamance County"
"-104.872090018","38.852493697","1980203","400106720","SFO-201741181756715","NONFED","ST-NASF","ST/C&L","USCOCOLX","Colorado Springs Fire Department","4118","Colorado Springs Fire Department","","1756715","","UNKNOWN","","","","","","2017","2017/10/27 00:00:00+00","300","0845","Human","Missing data/not specified/undetermined","","2017/10/27 00:00:00+00","300","0845","0.01","A","38.8525","-104.8721","MISSING/NOT SPECIFIED","CO","EL PASO","08041","El Paso County"
"-104.966289953","39.244493648","1980204","400106721","SFO-20173535767","NONFED","ST-NASF","ST/C&L","USCOLARX","Larkspur Fire Protection District","3535","Larkspur Fire Protection District","","767","","UNKNOWN","","","","","","2017","2017/10/27 00:00:00+00","300","0935","Human","Missing data/not specified/undetermined","","2017/10/27 00:00:00+00","300","0940","0.01","A","39.2445","-104.9663","MISSING/NOT SPECIFIED","CO","DOUGLAS","08035","Douglas County"
"-109.809988928","38.879994031","1980205","400106722","SFO-2017UTFFSL8389","NONFED","ST-NASF","ST/C&L","USUTUTS","Utah Division Forestry Fire State Lands","UTFFSL","Utah Division of Forestry, Fire & State Lands","","8389","","HWY191 MM153","","","","","","2017","2017/10/27 00:00:00+00","300","","Human","Missing data/not specified/undetermined","","2017/10/27 00:00:00+00","300","","0.1","A","38.88","-109.81","STATE","UT","Grand","49019","Grand County"
"-104.759189937","39.805993556","1980206","400106723","SFO-201750546890","NONFED","ST-NASF","ST/C&L","USCOAURX","Aurora Fire Department","505","Aurora Fire Department","","46890","","UNKNOWN","","","","","","2017","2017/10/28 00:00:00+00","301","1240","Human","Missing data/not specified/undetermined","","2017/10/28 00:00:00+00","301","1240","0.01","A","39.806","-104.7592","MISSING/NOT SPECIFIED","CO","ARAPAHOE","08005","Arapahoe County"
"-104.606790142","38.260693764","1980207","400106724","SFO-20171014519600","NONFED","ST-NASF","ST/C&L","USCOPUCX","Pueblo Fire Department","10145","Pueblo Fire Department","","19600","","UNKNOWN","","","","","","2017","2017/10/28 00:00:00+00","301","1328","Human","Missing data/not specified/undetermined","","2017/10/28 00:00:00+00","301","1340","0.1","A","38.2607","-104.6068","MISSING/NOT SPECIFIED","CO","PUEBLO","08101","Pueblo County"
"-104.742690056","38.784193698","1980208","400106725","SFO-201741181756932","NONFED","ST-NASF","ST/C&L","USCOCOLX","Colorado Springs Fire Department","4118","Colorado Springs Fire Department","","1756932","","UNKNOWN","","","","","","2017","2017/10/28 00:00:00+00","301","1353","Human","Missing data/not specified/undetermined","","2017/10/28 00:00:00+00","301","1353","0.01","A","38.7842","-104.7427","MISSING/NOT SPECIFIED","CO","EL PASO","08041","El Paso County"
"-123.382960434","39.451000999","1980209","400106726","SFO-2017CACDFMEU012992","NONFED","ST-NASF","ST/C&L","USCACDF","California Department of Forestry & Fire Protection","CACDF","Headquarters, California Department of Forestry & Fire Protection","","MEU012992","","HAWK","","","","","","2017","2017/10/28 00:00:00+00","301","1509","Human","Missing data/not specified/undetermined","","2017/10/28 00:00:00+00","301","1520","1","B","39.451006","-123.382974","MISSING/NOT SPECIFIED","CA","MENDOCINO","06045","Mendocino County"
"-120.044639246","36.938183961","1980210","400106727","SFO-2017CACDFMMU022073","NONFED","ST-NASF","ST/C&L","USCACDF","California Department of Forestry & Fire Protection","CACDF","Headquarters, California Department of Forestry & Fire Protection","","MMU022073","","PECAN","","","","","","2017","2017/10/28 00:00:00+00","301","1618","Human","Missing data/not specified/undetermined","","2017/10/28 00:00:00+00","301","1627","0.01","A","36.938189","-120.044652","MISSING/NOT SPECIFIED","CA","MADERA","06039","Madera County"
"-104.997090072","38.074093816","1980211","400106728","SFO-201710105172","NONFED","ST-NASF","ST/C&L","USCOBEUX","Beulah Valley Volunteer Fire Department","10105","Beulah Valley Volunteer Fire Department","","172","","UNKNOWN","","","","","","2017","2017/10/28 00:00:00+00","301","1838","Human","Missing data/not specified/undetermined","","2017/10/28 00:00:00+00","301","1850","0.01","A","38.0741","-104.9971","MISSING/NOT SPECIFIED","CO","PUEBLO","08101","Pueblo County"
"-104.798289395","43.761093044","1980212","400106729","SFO-2017455192018-68","NONFED","ST-NASF","ST/C&L","USWYWEX","Weston County","45519","Weston County Fire Protection District","","2018-68","","SOUTH PASTURE","","","","","","2017","2017/10/28 00:00:00+00","301","1646","Human","Missing data/not specified/undetermined","","2017/10/28 00:00:00+00","301","1930","17","C","43.7611","-104.7983","PRIVATE","WY","Weston","56045","Weston County"
"-105.056489868","39.808593576","1980213","400106730","SFO-201759034561","NONFED","ST-NASF","ST/C&L","USCOARVX","Arvada Fire Protection District","5903","Arvada Fire Protection District","","4561","","UNKNOWN","","","","","","2017","2017/10/28 00:00:00+00","301","1934","Human","Missing data/not specified/undetermined","","2017/10/28 00:00:00+00","301","1934","0.01","A","39.8086","-105.0565","MISSING/NOT SPECIFIED","CO","JEFFERSON","08059","Jefferson County"
"-107.786889535","37.244194112","1980214","400106731","SFO-20176770174584","NONFED","ST-NASF","ST/C&L","USCODFRX","Durango Fire Rescue Authority","6770","Durango Fire Rescue Authority","","174584","","UNKNOWN","","","","","","2017","2017/10/28 00:00:00+00","301","1938","Human","Missing data/not specified/undetermined","","2017/10/28 00:00:00+00","301","1938","0.01","A","37.2442","-107.7869","MISSING/NOT SPECIFIED","CO","LA PLATA","08067","La Plata County"
"-78.221907514","35.85782489","1980215","400106732","SFO-2017NCNCSNCST-064-FY2017-0086","NONFED","ST-NASF","ST/C&L","USNCNCS","North Carolina Forest Service","NCNCS","North Carolina State Division of Forest Resouces","","NCST-064-FY2017-0086","","ROCKY CROSS ROAD","","","","","","2017","2017/02/11 00:00:00+00","42","1213","Human","Debris and open burning","","2017/02/11 00:00:00+00","42","1238","1.56","B","35.857832","-78.22191","MISSING/NOT SPECIFIED","NC","Nash","37127","Nash County"
"-79.690995124","34.827194164","1980216","400106733","SFO-2017NCNCSNCST-077-FY2017-0208","NONFED","ST-NASF","ST/C&L","USNCNCS","North Carolina Forest Service","NCNCS","North Carolina State Division of Forest Resouces","","NCST-077-FY2017-0208","","NOT MY BROTHERS KEEPER","","","","","","2017","2017/02/11 00:00:00+00","42","1229","Human","Debris and open burning","","2017/02/11 00:00:00+00","42","1300","2.49","B","34.827201","-79.690998","MISSING/NOT SPECIFIED","NC","Richmond","37153","Richmond County"
"-119.18196741","36.718504924","1980217","400106734","SFO-2017CACDFFKU016016","NONFED","ST-NASF","ST/C&L","USCACDF","California Department of Forestry & Fire Protection","CACDF","Headquarters, California Department of Forestry & Fire Protection","","FKU016016","","SAGE","","","","","","2017","2017/10/28 00:00:00+00","301","2123","Human","Missing data/not specified/undetermined","","2017/10/28 00:00:00+00","301","2150","0.25","A","36.71851","-119.18198","MISSING/NOT SPECIFIED","CA","FRESNO","06019","Fresno County"
"-105.033589775","40.621593464","1980218","400106735","SFO-2017696018761","NONFED","ST-NASF","ST/C&L","USCOPFAX","Poudre Fire Authority","6960","Poudre Fire Authority","","18761","","UNKNOWN","","","","","","2017","2017/10/28 00:00:00+00","301","2250","Human","Missing data/not specified/undetermined","","2017/10/28 00:00:00+00","301","2250","0.01","A","40.6216","-105.0336","MISSING/NOT SPECIFIED","CO","LARIMER","08069","Larimer County"
"-104.829490031","38.824293698","1980219","400106736","SFO-201741181757019","NONFED","ST-NASF","ST/C&L","USCOCOLX","Colorado Springs Fire Department","4118","Colorado Springs Fire Department","","1757019","","UNKNOWN","","","","","","2017","2017/10/28 00:00:00+00","301","2325","Human","Missing data/not specified/undetermined","","2017/10/28 00:00:00+00","301","2325","0.01","A","38.8243","-104.8295","MISSING/NOT SPECIFIED","CO","EL PASO","08041","El Paso County"
"-104.859590022","38.845493697","1980220","400106737","SFO-201741181756880","NONFED","ST-NASF","ST/C&L","USCOCOLX","Colorado Springs Fire Department","4118","Colorado Springs Fire Department","","1756880","","UNKNOWN","","","","","","2017","2017/10/28 00:00:00+00","301","0407","Human","Missing data/not specified/undetermined","","2017/10/28 00:00:00+00","301","0407","0.01","A","38.8455","-104.8596","MISSING/NOT SPECIFIED","CO","EL PASO","08041","El Paso County"
"-77.520114779","34.823793091","1980221","400106739","SFO-2017NCNCSNCST-067-FY2017-0075","NONFED","ST-NASF","ST/C&L","USNCNCS","North Carolina Forest Service","NCNCS","North Carolina State Division of Forest Resouces","","NCST-067-FY2017-0075","","RICHLANDS TRAILER","","","","","","2017","2017/02/11 00:00:00+00","42","1300","Human","Debris and open burning","","2017/02/11 00:00:00+00","42","1321","0.74","B","34.8238","-77.520117","MISSING/NOT SPECIFIED","NC","Onslow","37133","Onslow County"
"-80.425849867","35.520958041","1980222","400106740","SFO-2017NCNCSNCST-080-FY2017-0077","NONFED","ST-NASF","ST/C&L","USNCNCS","North Carolina Forest Service","NCNCS","North Carolina State Division of Forest Resouces","","NCST-080-FY2017-0077","","HOT DOG","","","","","","2017","2017/02/11 00:00:00+00","42","1257","Human","Debris and open burning","","2017/02/11 00:00:00+00","42","1333","0.18","A","35.520965","-80.425853","MISSING/NOT SPECIFIED","NC","Rowan","37159","Rowan County"
"-117.093604997","34.203195062","1980223","400106741","SFO-2017CACDFBDU015452","NONFED","ST-NASF","ST/C&L","USCACDF","California Department of Forestry & Fire Protection","CACDF","Headquarters, California Department of Forestry & Fire Protection","","BDU015452","","HWY 18  / RUNNING SPRIN 5","","","","","","2017","2017/10/29 00:00:00+00","302","0914","Human","Missing data/not specified/undetermined","","2017/10/29 00:00:00+00","302","0930","0.1","A","34.2032","-117.093617","MISSING/NOT SPECIFIED","CA","SAN BERNARDINO","06071","San Bernardino County"
"-85.530095635","30.267294372","1980224","400106742","SFO-2017FLFLS2017020471","NONFED","ST-NASF","ST/C&L","USFLFLS","Florida Forest Service","FLFLS","Florida Forest Service","","2017020471","","HWY 231 - NOEL RD (03)","","","","","","2017","2017/10/28 00:00:00+00","301","2205","Human","Missing data/not specified/undetermined","","2017/10/29 00:00:00+00","302","0941","0.1","A","30.2673","-85.5301","PRIVATE","FL","Bay","12005","Bay County"
