"ï»¿X","Y","OBJECTID","FOD_ID","FPA_ID","SOURCE_SYSTEM_TYPE","SOURCE_SYSTEM","NWCG_REPORTING_AGENCY","NWCG_REPORTING_UNIT_ID","NWCG_REPORTING_UNIT_NAME","SOURCE_REPORTING_UNIT","SOURCE_REPORTING_UNIT_NAME","LOCAL_FIRE_REPORT_ID","LOCAL_INCIDENT_ID","FIRE_CODE","FIRE_NAME","ICS_209_PLUS_INCIDENT_JOIN_ID","ICS_209_PLUS_COMPLEX_JOIN_ID","MTBS_ID","MTBS_FIRE_NAME","COMPLEX_NAME","FIRE_YEAR","DISCOVERY_DATE","DISCOVERY_DOY","DISCOVERY_TIME","NWCG_CAUSE_CLASSIFICATION","NWCG_GENERAL_CAUSE","NWCG_CAUSE_AGE_CATEGORY","CONT_DATE","CONT_DOY","CONT_TIME","FIRE_SIZE","FIRE_SIZE_CLASS","LATITUDE","LONGITUDE","OWNER_DESCR","STATE","COUNTY","FIPS_CODE","FIPS_NAME"
"-119.647686357","43.721494356","340001","348642","W-105227","FED","DOI-WFMI","BLM","USORBUD","Burns District","ORBUD","Burns District","","","M347","2283","","","","","","2001","2001/08/08 00:00:00+00","220","0703","Natural","Natural","","2001/08/09 00:00:00+00","221","1136","0.3","B","43.7215","-119.6477","BLM","OR","Harney","41025","Harney County"
"-119.358286489","43.245994365","340002","348643","W-103424","FED","DOI-WFMI","BLM","USORBUD","Burns District","ORBUD","Burns District","","","M366","IRON MNT","2001_OR-BUD-2284_IRON MOUNTAIN","","","","","2001","2001/08/09 00:00:00+00","221","0906","Natural","Natural","","2001/08/09 00:00:00+00","221","2000","500","E","43.246","-119.3583","BLM","OR","Harney","41025","Harney County"
"-118.935486579","43.146494334","340003","348644","W-103699","FED","DOI-WFMI","BLM","USORBUD","Burns District","ORBUD","Burns District","","","M376","FOILED","","","","","","2001","2001/08/09 00:00:00+00","221","1144","Natural","Natural","","2001/08/09 00:00:00+00","221","1240","0.1","A","43.1465","-118.9355","BLM","OR","Harney","41025","Harney County"
"-118.495986829","42.084894381","340004","348645","W-103447","FED","DOI-WFMI","BLM","USORBUD","Burns District","ORBUD","Burns District","","","M399","2290","","","","","","2001","2001/08/09 00:00:00+00","221","1414","Natural","Natural","","2001/08/15 00:00:00+00","227","1500","0.1","A","42.0849","-118.496","BLM","OR","Harney","41025","Harney County"
"-118.892686616","42.971794344","340005","348646","W-105691","FED","DOI-WFMI","BLM","USORBUD","Burns District","ORBUD","Burns District","","","M377","2291","","","","","","2001","2001/08/09 00:00:00+00","221","1436","Natural","Natural","","2001/08/10 00:00:00+00","222","1513","35","C","42.9718","-118.8927","BLM","OR","Harney","41025","Harney County"
"-119.747686378","43.504894381","340006","348647","W-105605","FED","DOI-WFMI","BLM","USORBUD","Burns District","ORBUD","Burns District","","","M380","MOTH","","","","","","2001","2001/08/09 00:00:00+00","221","1521","Natural","Natural","","2001/08/10 00:00:00+00","222","0749","0.1","A","43.5049","-119.7477","BLM","OR","Harney","41025","Harney County"
"-119.720186384","43.496494379","340007","348648","W-103697","FED","DOI-WFMI","BLM","USORBUD","Burns District","ORBUD","Burns District","","","M378","EXPERIMENT","","","","","","2001","2001/08/09 00:00:00+00","221","1530","Natural","Natural","","2001/08/09 00:00:00+00","221","1800","0.1","A","43.4965","-119.7202","BLM","OR","Harney","41025","Harney County"
"-119.761586378","43.491494384","340008","348649","W-105236","FED","DOI-WFMI","BLM","USORBUD","Burns District","ORBUD","Burns District","","","M379","DOG FIRE","","","","","","2001","2001/08/09 00:00:00+00","221","1530","Natural","Natural","","2001/08/10 00:00:00+00","222","1135","0.2","A","43.4915","-119.7616","BLM","OR","Harney","41025","Harney County"
"-119.783886356","43.594594378","340009","348650","W-103425","FED","DOI-WFMI","BLM","USORBUD","Burns District","ORBUD","Burns District","","","M382","ARROWHEAD","","","","","","2001","2001/08/09 00:00:00+00","221","1540","Natural","Natural","","2001/08/09 00:00:00+00","221","2106","0.8","B","43.5946","-119.7839","BLM","OR","Harney","41025","Harney County"
"-119.747686353","43.649894371","340010","348651","W-105239","FED","DOI-WFMI","BLM","USORBUD","Burns District","ORBUD","Burns District","","","M383","2311","","","","","","2001","2001/08/09 00:00:00+00","221","1727","Natural","Natural","","2001/08/09 00:00:00+00","221","1742","0.1","A","43.6499","-119.7477","BLM","OR","Harney","41025","Harney County"
"-119.817686358","43.552894384","340011","348652","W-105686","FED","DOI-WFMI","BLM","USORBUD","Burns District","ORBUD","Burns District","","","M386","2316","","","","","","2001","2001/08/09 00:00:00+00","221","1728","Natural","Natural","","2001/08/09 00:00:00+00","221","1845","0.1","A","43.5529","-119.8177","BLM","OR","Harney","41025","Harney County"
"-119.767686375","43.504894383","340012","348653","W-103698","FED","DOI-WFMI","BLM","USORBUD","Burns District","ORBUD","Burns District","","","M398","NAPALM","","","","","","2001","2001/08/09 00:00:00+00","221","1733","Natural","Natural","","2001/08/12 00:00:00+00","224","1930","5","B","43.5049","-119.7677","BLM","OR","Harney","41025","Harney County"
"-119.767686375","43.504894383","340013","348654","W-105242","FED","DOI-WFMI","BLM","USORBUD","Burns District","ORBUD","Burns District","","","M400","2312","","","","","","2001","2001/08/09 00:00:00+00","221","1733","Natural","Natural","","2001/08/10 00:00:00+00","222","1000","0.1","A","43.5049","-119.7677","BLM","OR","Harney","41025","Harney County"
"-118.225386811","42.488794323","340014","348655","W-105297","FED","DOI-WFMI","BLM","USORBUD","Burns District","ORBUD","Burns District","","","M381","SHEEPSHEAD","2001_OR-BUD-2315_SHEEPSHEAD COMPLEX","2001_OR-BUD-2315_SHEEPSHEAD COMPLEX","OR4298911817020010809","SHEEPSHEAD","SHEEPSHEAD COMPLEX","2001","2001/08/09 00:00:00+00","221","1748","Natural","Natural","","2001/08/20 00:00:00+00","232","1800","41123.5","G","42.4888","-118.2254","BLM","OR","Harney","41025","Harney County"
"-119.854986345","43.590694385","340015","348656","W-105275","FED","DOI-WFMI","BLM","USORBUD","Burns District","ORBUD","Burns District","","","M387","TIPTOP X 2","","","","","","2001","2001/08/09 00:00:00+00","221","1815","Natural","Natural","","2001/08/09 00:00:00+00","221","2230","0.1","A","43.5907","-119.855","BLM","OR","Harney","41025","Harney County"
"-119.207986469","43.508994331","340016","348657","W-105276","FED","DOI-WFMI","BLM","USORBUD","Burns District","ORBUD","Burns District","","","M390","BAUER","","","","","","2001","2001/08/09 00:00:00+00","221","1845","Natural","Natural","","2001/08/09 00:00:00+00","221","2100","0.1","A","43.509","-119.208","BLM","OR","Harney","41025","Harney County"
"-119.767686372","43.519894382","340017","348658","W-105607","FED","DOI-WFMI","BLM","USORBUD","Burns District","ORBUD","Burns District","","","M401","2325","","","","","","2001","2001/08/09 00:00:00+00","221","1941","Natural","Natural","","2001/08/13 00:00:00+00","225","1100","0.1","A","43.5199","-119.7677","BLM","OR","Harney","41025","Harney County"
"-119.677986356","43.697394361","340018","348659","W-103426","FED","DOI-WFMI","BLM","USORBUD","Burns District","ORBUD","Burns District","","","M388","ROUGH","","","","","","2001","2001/08/10 00:00:00+00","222","1230","Natural","Natural","","2001/08/11 00:00:00+00","223","2110","2.5","B","43.6974","-119.678","BLM","OR","Harney","41025","Harney County"
"-118.767686686","42.676294356","340019","348660","W-103774","FED","DOI-WFMI","BLM","USORBUD","Burns District","ORBUD","Burns District","","","M392","DESERTMEAD","","","","","","2001","2001/08/10 00:00:00+00","222","1413","Natural","Natural","","2001/08/12 00:00:00+00","224","1830","20","C","42.6763","-118.7677","BLM","OR","Harney","41025","Harney County"
"-118.418486715","42.870694309","340020","348661","W-105559","FED","DOI-WFMI","BLM","USORBUD","Burns District","ORBUD","Burns District","","","M391","STONEHOUSE","2001_OR-BUD-2315_SHEEPSHEAD COMPLEX","2001_OR-BUD-2315_SHEEPSHEAD COMPLEX","OR4283711843020010810","SHEEPSHEAD COMPLEX (STONEHOUSE)","SHEEPSHEAD COMPLEX","2001","2001/08/10 00:00:00+00","222","1556","Natural","Natural","","2001/08/22 00:00:00+00","234","1800","9450","G","42.8707","-118.4185","BLM","OR","Harney","41025","Harney County"
"-119.88608636","43.476494396","340021","348662","W-105437","FED","DOI-WFMI","BLM","USORBUD","Burns District","ORBUD","Burns District","","","M384","WAGONTIRE","","","","","","2001","2001/08/10 00:00:00+00","222","1816","Natural","Natural","","2001/09/24 00:00:00+00","267","1115","200","D","43.4765","-119.8861","BLM","OR","Harney","41025","Harney County"
"-119.727686384","43.490094381","340022","348663","W-103427","FED","DOI-WFMI","BLM","USORBUD","Burns District","ORBUD","Burns District","","","M389","SQUAWBUTTE","","","","","","2001","2001/08/10 00:00:00+00","222","1820","Natural","Natural","","2001/08/10 00:00:00+00","222","2015","0.1","A","43.4901","-119.7277","BLM","OR","Harney","41025","Harney County"
"-119.633286353","43.755994352","340023","348664","W-105278","FED","DOI-WFMI","BLM","USORBUD","Burns District","ORBUD","Burns District","","","M402","2375","","","","","","2001","2001/08/10 00:00:00+00","222","2016","Natural","Natural","","2001/08/12 00:00:00+00","224","0845","2.2","B","43.756","-119.6333","BLM","OR","Harney","41025","Harney County"
"-119.524986369","43.767894341","340024","348665","W-103448","FED","DOI-WFMI","BLM","USORBUD","Burns District","ORBUD","Burns District","","","M403","KID SISTA","","","","","","2001","2001/08/11 00:00:00+00","223","1555","Natural","Natural","","2001/08/13 00:00:00+00","225","1612","2","B","43.7679","-119.525","BLM","OR","Harney","41025","Harney County"
"-119.507986373","43.76489434","340025","348666","W-103450","FED","DOI-WFMI","BLM","USORBUD","Burns District","ORBUD","Burns District","","","M404","MY BUDDY","","","","","","2001","2001/08/11 00:00:00+00","223","2335","Natural","Natural","","2001/08/13 00:00:00+00","225","1612","7","B","43.7649","-119.508","BLM","OR","Harney","41025","Harney County"
"-118.989386599","42.974894352","340026","348667","W-103451","FED","DOI-WFMI","BLM","USORBUD","Burns District","ORBUD","Burns District","","","M394","TWIN","","","","","","2001","2001/08/12 00:00:00+00","224","1841","Natural","Natural","","2001/08/13 00:00:00+00","225","1337","10","C","42.9749","-118.9894","BLM","OR","Harney","41025","Harney County"
"-119.854986345","43.590694385","340027","348668","W-105272","FED","DOI-WFMI","BLM","USORBUD","Burns District","ORBUD","Burns District","","","M428","SADDLE","","","","","","2001","2001/08/12 00:00:00+00","224","1925","Natural","Natural","","2001/08/13 00:00:00+00","225","0900","5","B","43.5907","-119.855","BLM","OR","Grant","41023","Grant County"
"-118.195686717","43.090694271","340028","348669","W-103696","FED","DOI-WFMI","BLM","USORBUD","Burns District","ORBUD","Burns District","","","M405","PATTY","","","","","","2001","2001/08/12 00:00:00+00","224","2030","Natural","Natural","","2001/08/13 00:00:00+00","225","1419","2.5","B","43.0907","-118.1957","BLM","OR","Harney","41025","Harney County"
"-118.284386696","43.121494276","340029","348670","W-105675","FED","DOI-WFMI","BLM","USORBUD","Burns District","ORBUD","Burns District","","","M393","POTLUCKDRA","","","","","","2001","2001/08/12 00:00:00+00","224","2030","Natural","Natural","","2001/08/20 00:00:00+00","232","1800","515","E","43.1215","-118.2844","STATE","OR","Harney","41025","Harney County"
"-118.188486719","43.08629427","340030","348671","W-103695","FED","DOI-WFMI","BLM","USORBUD","Burns District","ORBUD","Burns District","","","M406","SELMA","","","","","","2001","2001/08/13 00:00:00+00","225","1145","Natural","Natural","","2001/08/13 00:00:00+00","225","1430","4.5","B","43.0863","-118.1885","BLM","OR","Harney","41025","Harney County"
"-118.882686515","43.566494296","340031","348672","W-105285","FED","DOI-WFMI","BLM","USORBUD","Burns District","ORBUD","Burns District","","","M407","SUMMERCAMP","","","","","","2001","2001/08/29 00:00:00+00","241","1323","Natural","Natural","","2001/08/29 00:00:00+00","241","1515","0.1","A","43.5665","-118.8827","BLM","OR","Harney","41025","Harney County"
"-118.262686604","43.67489423","340032","348673","W-105286","FED","DOI-WFMI","BLM","USORBUD","Burns District","ORBUD","Burns District","","","M408","UPTONCABIN","","","","","","2001","2001/08/29 00:00:00+00","241","2033","Human","Debris and open burning","","2001/08/30 00:00:00+00","242","1530","0.5","B","43.6749","-118.2627","BLM","OR","Harney","41025","Harney County"
"-118.809386619","43.038194331","340033","348674","W-105288","FED","DOI-WFMI","BLM","USORBUD","Burns District","ORBUD","Burns District","","","M410","HAYTRUCK","","","","","","2001","2001/09/03 00:00:00+00","246","1449","Human","Equipment and vehicle use","","2001/09/03 00:00:00+00","246","2000","0.1","A","43.0382","-118.8094","PRIVATE","OR","Harney","41025","Harney County"
"-118.626886553","43.603194269","340034","348675","W-105681","FED","DOI-WFMI","BLM","USORBUD","Burns District","ORBUD","Burns District","","","M411","2477","","","","","","2001","2001/09/12 00:00:00+00","255","1434","Natural","Natural","","2001/09/12 00:00:00+00","255","1732","0.1","A","43.6032","-118.6269","BLM","OR","Harney","41025","Harney County"
"-118.632086618","43.2209943","340035","348676","W-105294","FED","DOI-WFMI","BLM","USORBUD","Burns District","ORBUD","Burns District","","","M412","DARRELS","","","","","","2001","2001/09/12 00:00:00+00","255","1544","Natural","Natural","","2001/09/12 00:00:00+00","255","1900","30","C","43.221","-118.6321","BLM","OR","Harney","41025","Harney County"
"-119.20108643","43.734594313","340036","348677","W-105661","FED","DOI-WFMI","BLM","USORBUD","Burns District","ORBUD","Burns District","","","M414","JUMBO","","","","","","2001","2001/09/12 00:00:00+00","255","1553","Natural","Natural","","2001/09/12 00:00:00+00","255","2007","0.3","B","43.7346","-119.2011","BLM","OR","Harney","41025","Harney County"
"-119.084886458","43.693194305","340037","348678","W-105683","FED","DOI-WFMI","BLM","USORBUD","Burns District","ORBUD","Burns District","","","M415","HIDDENJUNI","","","","","","2001","2001/09/12 00:00:00+00","255","1606","Natural","Natural","","2001/09/13 00:00:00+00","256","1558","0.1","A","43.6932","-119.0849","BLM","OR","Harney","41025","Harney County"
"-118.349886713","42.952094296","340038","348679","W-105435","FED","DOI-WFMI","BLM","USORBUD","Burns District","ORBUD","Burns District","","","M416","SQUAW CR 1","","","","","","2001","2001/09/12 00:00:00+00","255","1624","Natural","Natural","","2001/09/13 00:00:00+00","256","1136","0.1","A","42.9521","-118.3499","BLM","OR","Harney","41025","Harney County"
"-119.249386427","43.708194319","340039","348680","W-105282","FED","DOI-WFMI","BLM","USORBUD","Burns District","ORBUD","Burns District","","","M413","2486","","","","","","2001","2001/09/12 00:00:00+00","255","1641","Natural","Natural","","2001/09/12 00:00:00+00","255","1809","0.1","A","43.7082","-119.2494","BLM","OR","Harney","41025","Harney County"
"-118.35348671","42.963794295","340040","348681","W-105434","FED","DOI-WFMI","BLM","USORBUD","Burns District","ORBUD","Burns District","","","M417","SQUAW CR 2","","","","","","2001","2001/09/12 00:00:00+00","255","1651","Natural","Natural","","2001/09/13 00:00:00+00","256","1136","0.1","A","42.9638","-118.3535","BLM","OR","Harney","41025","Harney County"
"-118.620186651","43.041494313","340041","348682","W-105295","FED","DOI-WFMI","BLM","USORBUD","Burns District","ORBUD","Burns District","","","M418","2494","","","","","","2001","2001/09/13 00:00:00+00","256","1845","Natural","Natural","","2001/09/13 00:00:00+00","256","2124","1.5","B","43.0415","-118.6202","BLM","OR","Harney","41025","Harney County"
"-119.007686592","42.996494352","340042","348683","W-105678","FED","DOI-WFMI","BLM","USORBUD","Burns District","ORBUD","Burns District","","","M421","JACKASS CR","","","","","","2001","2001/09/15 00:00:00+00","258","1147","Natural","Natural","","2001/09/15 00:00:00+00","258","2000","75","C","42.9965","-119.0077","BLM","OR","Harney","41025","Harney County"
"-119.567686411","43.490094366","340043","348684","W-105432","FED","DOI-WFMI","BLM","USORBUD","Burns District","ORBUD","Burns District","","","M419","2501","","","","","","2001","2001/09/15 00:00:00+00","258","1252","Natural","Natural","","2001/09/15 00:00:00+00","258","2000","0.1","A","43.4901","-119.5677","BLM","OR","Harney","41025","Harney County"
"-118.580186679","42.91739432","340044","348685","W-105688","FED","DOI-WFMI","BLM","USORBUD","Burns District","ORBUD","Burns District","","","M420","LILKIGERCR","","","","","","2001","2001/09/15 00:00:00+00","258","1810","Natural","Natural","","2001/09/16 00:00:00+00","259","1600","1","B","42.9174","-118.5802","BLM","OR","Harney","41025","Harney County"
"-119.085986603","42.848194371","340045","348686","W-105436","FED","DOI-WFMI","BLM","USORBUD","Burns District","ORBUD","Burns District","","","M409","WALLS LAKE","","","","","","2001","2001/09/16 00:00:00+00","259","1315","Natural","Natural","","2001/09/16 00:00:00+00","259","1526","0.1","A","42.8482","-119.086","BLM","OR","Harney","41025","Harney County"
"-118.360986629","43.433194258","340046","348687","W-105280","FED","DOI-WFMI","BLM","USORBUD","Burns District","ORBUD","Burns District","","","M422","SHA AW","","","","","","2001","2001/09/16 00:00:00+00","259","1734","Natural","Natural","","2001/09/17 00:00:00+00","260","1245","7","B","43.4332","-118.361","BLM","OR","Harney","41025","Harney County"
"-118.24128658","43.829894216","340047","348688","W-105296","FED","DOI-WFMI","BLM","USORBUD","Burns District","ORBUD","Burns District","","","M424","NOT","","","","","","2001","2001/09/18 00:00:00+00","261","1049","Natural","Natural","","2001/09/18 00:00:00+00","261","1223","0.1","A","43.8299","-118.2413","BLM","OR","Harney","41025","Harney County"
"-119.62768637","43.664894358","340048","348689","W-105606","FED","DOI-WFMI","BLM","USORBUD","Burns District","ORBUD","Burns District","","","M425","SILVERTANK","","","","","","2001","2001/09/19 00:00:00+00","262","1330","Natural","Natural","","2001/09/19 00:00:00+00","262","1834","0.1","A","43.6649","-119.6277","BLM","OR","Harney","41025","Harney County"
"-119.891586336","43.608794387","340049","348690","W-105433","FED","DOI-WFMI","BLM","USORBUD","Burns District","ORBUD","Burns District","","","M426","WHITEY","","","","","","2001","2001/09/19 00:00:00+00","262","1331","Natural","Natural","","2001/09/19 00:00:00+00","262","1630","0.3","B","43.6088","-119.8916","BLM","OR","Harney","41025","Harney County"
"-119.000986671","42.529894389","340050","348691","W-106495","FED","DOI-WFMI","BLM","USORBUD","Burns District","ORBUD","Burns District","","","M427","2531","","","","","","2001","2001/09/19 00:00:00+00","262","1545","Natural","Natural","","2001/10/21 00:00:00+00","294","1800","2.5","B","42.5299","-119.001","BLM","OR","Harney","41025","Harney County"
"-118.28958658","43.785394224","340051","348692","W-105809","FED","DOI-WFMI","BLM","USORBUD","Burns District","ORBUD","Burns District","","","M395","2541","","","","","","2001","2001/09/28 00:00:00+00","271","1315","Human","Missing data/not specified/undetermined","","2001/09/28 00:00:00+00","271","1600","0.1","A","43.7854","-118.2896","BLM","OR","Harney","41025","Harney County"
"-118.70158668","42.784594341","340052","348693","W-106689","FED","DOI-WFMI","BLM","USORBUD","Burns District","ORBUD","Burns District","","","M429","HAMMOND","","","","","","2001","2001/10/01 00:00:00+00","274","1418","Human","Missing data/not specified/undetermined","","2001/10/25 00:00:00+00","298","1000","138.7","D","42.7846","-118.7016","BLM","OR","Harney","41025","Harney County"
"-118.477686836","42.056594382","340053","348694","W-106500","FED","DOI-WFMI","BLM","USORBUD","Burns District","ORBUD","Burns District","","","M430","COTTONWOOD","","","","","","2001","2001/10/14 00:00:00+00","287","1449","Human","Missing data/not specified/undetermined","","2001/10/14 00:00:00+00","287","1900","10","C","42.0566","-118.4777","BLM","OR","Harney","41025","Harney County"
"-118.497086551","43.738994247","340054","348695","W-106499","FED","DOI-WFMI","BLM","USORBUD","Burns District","ORBUD","Burns District","","","M431","FREEZE","","","","","","2001","2001/10/17 00:00:00+00","290","2130","Human","Missing data/not specified/undetermined","","2001/10/17 00:00:00+00","290","2300","0.5","B","43.739","-118.4971","BLM","OR","Harney","41025","Harney County"
"-118.782686505","43.722694275","340055","348696","W-106615","FED","DOI-WFMI","BLM","USORBUD","Burns District","ORBUD","Burns District","","","M433","2573","","","","","","2001","2001/10/28 00:00:00+00","301","1632","Human","Recreation and ceremony","","2001/10/29 00:00:00+00","302","1502","1.3","B","43.7227","-118.7827","BLM","OR","Harney","41025","Harney County"
"-118.815186501","43.708494279","340056","348697","W-106690","FED","DOI-WFMI","BLM","USORBUD","Burns District","ORBUD","Burns District","","","M436","2582","","","","","","2001","2001/11/04 00:00:00+00","308","0812","Human","Recreation and ceremony","","2001/11/05 00:00:00+00","309","1300","0.5","B","43.7085","-118.8152","BLM","OR","Grant","41023","Grant County"
"-118.817986604","43.117694325","340057","348698","W-109034","FED","DOI-WFMI","BLM","USORBUD","Burns District","ORBUD","Burns District","","","M448","MOSQUITO","","","","","","2002","2002/06/26 00:00:00+00","177","1829","Natural","Natural","","2002/06/28 00:00:00+00","179","1530","71","C","43.1177","-118.818","BLM","OR","Harney","41025","Harney County"
"-119.014886464","43.726294296","340058","348699","W-109179","FED","DOI-WFMI","BLM","USORBUD","Burns District","ORBUD","Burns District","","","M449","LITTLESMOK","","","","","","2002","2002/06/26 00:00:00+00","177","1911","Natural","Natural","","2002/06/27 00:00:00+00","178","0900","1.5","B","43.7263","-119.0149","BLM","OR","Harney","41025","Harney County"
"-118.560986549","43.689894256","340059","348700","W-108476","FED","DOI-WFMI","BLM","USORBUD","Burns District","ORBUD","Burns District","","","M450","2120","","","","","","2002","2002/06/26 00:00:00+00","177","1953","Natural","Natural","","2002/06/27 00:00:00+00","178","1057","0.1","A","43.6899","-118.561","BLM","OR","Harney","41025","Harney County"
"-118.593786525","43.791794252","340060","348701","W-109732","FED","DOI-WFMI","BLM","USORBUD","Burns District","ORBUD","Burns District","","","M451","PINE CREEK","","","","","","2002","2002/06/27 00:00:00+00","178","1222","Natural","Natural","","2002/06/27 00:00:00+00","178","1900","4","B","43.7918","-118.5938","BLM","OR","Harney","41025","Harney County"
"-118.652686663","42.936294325","340061","348702","W-109036","FED","DOI-WFMI","BLM","USORBUD","Burns District","ORBUD","Burns District","","","M452","BENJAMIN","","","","","","2002","2002/06/27 00:00:00+00","178","1645","Natural","Natural","","2002/06/28 00:00:00+00","179","1915","0.3","B","42.9363","-118.6527","BLM","OR","Harney","41025","Harney County"
"-118.205986573","43.907094206","340062","348703","W-109048","FED","DOI-WFMI","BLM","USORBUD","Burns District","ORBUD","Burns District","","","M455","EAGLEPITCH","","","","","","2002","2002/07/07 00:00:00+00","188","1308","Natural","Natural","","2002/07/09 00:00:00+00","190","1545","50","C","43.9071","-118.206","BLM","OR","Harney","41025","Harney County"
"-118.44628655","43.795194238","340063","348704","W-109288","FED","DOI-WFMI","BLM","USORBUD","Burns District","ORBUD","Burns District","","","M456","ISA FIRE","","","","","","2002","2002/07/07 00:00:00+00","188","1749","Natural","Natural","","2002/07/08 00:00:00+00","189","1500","2","B","43.7952","-118.4463","BLM","OR","Harney","41025","Harney County"
"-118.32128664","43.411494256","340064","348705","W-109286","FED","DOI-WFMI","BLM","USORBUD","Burns District","ORBUD","Burns District","","","M457","SLOKUMM","2002_OR-BUD-2161_SLOKUMM","","OR4341411833820020709","SLOKUMM","","2002","2002/07/09 00:00:00+00","190","1436","Natural","Natural","","2002/07/12 00:00:00+00","193","1700","2296.5","F","43.4115","-118.3213","BLM","OR","Harney","41025","Harney County"
"-118.930486458","43.83849428","340065","348706","W-109237","FED","DOI-WFMI","BLM","USORBUD","Burns District","ORBUD","Burns District","","","M460","ORA","","","","","","2002","2002/07/13 00:00:00+00","194","1540","Natural","Natural","","2002/07/13 00:00:00+00","194","1800","0.1","A","43.8385","-118.9305","BLM","OR","Harney","41025","Harney County"
"-119.208286427","43.746494313","340066","348707","W-109049","FED","DOI-WFMI","BLM","USORBUD","Burns District","ORBUD","Burns District","","","M461","SKULLCREEK","","","","","","2002","2002/07/14 00:00:00+00","195","0700","Natural","Natural","","2002/07/14 00:00:00+00","195","1813","0.6","B","43.7465","-119.2083","BLM","OR","Harney","41025","Harney County"
"-118.655986711","42.646794348","340067","348708","W-109283","FED","DOI-WFMI","BLM","USORBUD","Burns District","ORBUD","Burns District","","","M470","LITTINDIAN","","","","","","2002","2002/07/14 00:00:00+00","195","1313","Natural","Natural","","2002/07/15 00:00:00+00","196","1300","0.1","A","42.6468","-118.656","BLM","OR","Harney","41025","Harney County"
"-118.364086578","43.722094236","340068","348709","W-109181","FED","DOI-WFMI","BLM","USORBUD","Burns District","ORBUD","Burns District","","","M465","WARMSPRING","","","","","","2002","2002/07/14 00:00:00+00","195","1420","Natural","Natural","","2002/07/15 00:00:00+00","196","1435","68","C","43.7221","-118.3641","BLM","OR","Harney","41025","Harney County"
"-118.616886746","42.472694359","340069","348710","W-109238","FED","DOI-WFMI","BLM","USORBUD","Burns District","ORBUD","Burns District","","","M463","2196","","","","","","2002","2002/07/14 00:00:00+00","195","1523","Natural","Natural","","2002/07/14 00:00:00+00","195","1730","1","B","42.4727","-118.6169","PRIVATE","OR","Harney","41025","Harney County"
"-118.822986732","42.337894389","340070","348711","W-109044","FED","DOI-WFMI","BLM","USORBUD","Burns District","ORBUD","Burns District","","","M464","LONGHOLLOW","","","","","","2002","2002/07/14 00:00:00+00","195","1635","Natural","Natural","","2002/07/14 00:00:00+00","195","1755","1","B","42.3379","-118.823","BLM","OR","Harney","41025","Harney County"
"-118.23938673","42.965194285","340071","348712","W-109851","FED","DOI-WFMI","BLM","USORBUD","Burns District","ORBUD","Burns District","","","M466","10CENTLAKE","","","","","","2002","2002/07/14 00:00:00+00","195","1640","Natural","Natural","","2002/07/15 00:00:00+00","196","1900","65","C","42.9652","-118.2394","BLM","OR","Harney","41025","Harney County"
"-118.535386824","42.070694385","340072","348713","W-109041","FED","DOI-WFMI","BLM","USORBUD","Burns District","ORBUD","Burns District","","","M467","RED POINT","","","","","","2002","2002/07/14 00:00:00+00","195","1751","Natural","Natural","","2002/07/14 00:00:00+00","195","2130","0.3","B","42.0707","-118.5354","BLM","OR","Harney","41025","Harney County"
"-118.19208672","43.074894272","340073","348714","W-109287","FED","DOI-WFMI","BLM","USORBUD","Burns District","ORBUD","Burns District","","","M468","BAKER PASS","","","","","","2002","2002/07/14 00:00:00+00","195","1804","Natural","Natural","","2002/07/15 00:00:00+00","196","0900","36","C","43.0749","-118.1921","STATE","OR","Harney","41025","Harney County"
"-119.487986443","43.388794366","340074","348715","W-109240","FED","DOI-WFMI","BLM","USORBUD","Burns District","ORBUD","Burns District","","","M469","SILVERLAKE","","","","","","2002","2002/07/14 00:00:00+00","195","1958","Natural","Natural","","2002/07/15 00:00:00+00","196","1700","100","D","43.3888","-119.488","BLM","OR","Harney","41025","Harney County"
"-119.57468641","43.493194366","340075","348716","W-109053","FED","DOI-WFMI","BLM","USORBUD","Burns District","ORBUD","Burns District","","","M472","JUNIPERRDG","","","","","","2002","2002/07/15 00:00:00+00","196","0750","Natural","Natural","","2002/07/15 00:00:00+00","196","1446","0.1","A","43.4932","-119.5747","BLM","OR","Harney","41025","Harney County"
"-118.664086743","42.437894366","340076","348717","W-109276","FED","DOI-WFMI","BLM","USORBUD","Burns District","ORBUD","Burns District","","","M471","CARLSON","","","","","","2002","2002/07/15 00:00:00+00","196","1757","Natural","Natural","","2002/07/16 00:00:00+00","197","1700","3.5","B","42.4379","-118.6641","BLM","OR","Harney","41025","Harney County"
"-118.387386682","43.098794288","340077","348718","W-109306","FED","DOI-WFMI","BLM","USORBUD","Burns District","ORBUD","Burns District","","","M474","CAMP CREEK","","","","","","2002","2002/07/17 00:00:00+00","198","2050","Natural","Natural","","2002/07/18 00:00:00+00","199","1018","2.2","B","43.0988","-118.3874","STATE","OR","Harney","41025","Harney County"
"-118.707386636","43.038494322","340078","348719","W-110113","FED","DOI-WFMI","BLM","USORBUD","Burns District","ORBUD","Burns District","","","M476","SWAMPCREEK","2002_OR-BUD-2244_SWAMP CREEK","","","","","2002","2002/07/24 00:00:00+00","205","1237","Natural","Natural","","2002/07/25 00:00:00+00","206","1900","320","E","43.0385","-118.7074","PRIVATE","OR","Harney","41025","Harney County"
"-118.631286754","42.404294366","340079","348720","W-109852","FED","DOI-WFMI","BLM","USORBUD","Burns District","ORBUD","Burns District","","","M478","SMOKERFIRE","","","","","","2002","2002/07/25 00:00:00+00","206","1305","Human","Smoking","","2002/07/25 00:00:00+00","206","1859","2","B","42.4043","-118.6313","BLM","OR","Harney","41025","Harney County"
"-118.491886514","43.954594229","340080","348721","W-110665","FED","DOI-WFMI","BLM","USORBUD","Burns District","ORBUD","Burns District","","","M479","2263","","","","","","2002","2002/08/05 00:00:00+00","217","1443","Natural","Natural","","2002/08/05 00:00:00+00","217","1755","0.1","A","43.9546","-118.4919","BLM","OR","Harney","41025","Harney County"
"-118.800786638","42.932694338","340081","348722","W-110643","FED","DOI-WFMI","BLM","USORBUD","Burns District","ORBUD","Burns District","","","M480","HAMMONDHAY","","","","","","2002","2002/08/09 00:00:00+00","221","1544","Human","Equipment and vehicle use","","2002/08/10 00:00:00+00","222","0900","0.5","B","42.9327","-118.8008","PRIVATE","OR","Harney","41025","Harney County"
"-118.320386843","42.187394357","340082","348723","W-111264","FED","DOI-WFMI","BLM","USORBUD","Burns District","ORBUD","Burns District","","","M482","CAMPTRAILE","","","","","","2002","2002/08/13 00:00:00+00","225","1301","Human","Equipment and vehicle use","","2002/08/13 00:00:00+00","225","1400","0.1","A","42.1874","-118.3204","BLM","OR","Grant","41023","Grant County"
"-118.652086811","42.029294399","340083","348724","W-111262","FED","DOI-WFMI","BLM","USORBUD","Burns District","ORBUD","Burns District","","","M483","HOLLISTER","","","","","","2002","2002/08/19 00:00:00+00","231","2115","Natural","Natural","","2002/08/20 00:00:00+00","232","1520","2","B","42.0293","-118.6521","BLM","OR","Harney","41025","Harney County"
"-119.228286431","43.705094318","340084","348725","W-111352","FED","DOI-WFMI","BLM","USORBUD","Burns District","ORBUD","Burns District","","","M485","LUCK FIRE","","","","","","2002","2002/08/30 00:00:00+00","242","0731","Natural","Natural","","2002/08/30 00:00:00+00","242","1136","0.1","A","43.7051","-119.2283","BLM","OR","Harney","41025","Harney County"
"-119.278286426","43.686294324","340085","348726","W-111984","FED","DOI-WFMI","BLM","USORBUD","Burns District","ORBUD","Burns District","","","M486","DRIVEBY","","","","","","2002","2002/08/30 00:00:00+00","242","0804","Natural","Natural","","2002/08/30 00:00:00+00","242","1359","0.1","A","43.6863","-119.2783","BLM","OR","Harney","41025","Harney County"
"-118.556286789","42.27179437","340086","348727","W-111526","FED","DOI-WFMI","BLM","USORBUD","Burns District","ORBUD","Burns District","","","M487","TIMMY","","","","","","2002","2002/08/30 00:00:00+00","242","0901","Natural","Natural","","2002/08/30 00:00:00+00","242","1130","0.1","A","42.2718","-118.5563","BLM","OR","Harney","41025","Harney County"
"-119.119086427","43.830994298","340087","348728","W-112277","FED","DOI-WFMI","BLM","USORBUD","Burns District","ORBUD","Burns District","","","M484","2318","","","","","","2002","2002/08/30 00:00:00+00","242","0907","Natural","Natural","","2002/08/30 00:00:00+00","242","1136","0.1","A","43.831","-119.1191","PRIVATE","OR","Harney","41025","Harney County"
"-118.379586543","43.902094223","340088","348729","W-111428","FED","DOI-WFMI","BLM","USORBUD","Burns District","ORBUD","Burns District","","","M488","OTISRESERV","","","","","","2002","2002/08/30 00:00:00+00","242","1428","Natural","Natural","","2002/08/30 00:00:00+00","242","1731","0.3","B","43.9021","-118.3796","BLM","OR","Harney","41025","Harney County"
"-118.928286564","43.240394326","340089","348730","W-111315","FED","DOI-WFMI","BLM","USORBUD","Burns District","ORBUD","Burns District","","","M492","2324","","","","","","2002","2002/08/30 00:00:00+00","242","1650","Natural","Natural","","2002/08/30 00:00:00+00","242","1710","0.1","A","43.2404","-118.9283","BLM","OR","Harney","41025","Harney County"
"-118.920186678","42.567094379","340090","348731","W-111521","FED","DOI-WFMI","BLM","USORBUD","Burns District","ORBUD","Burns District","","","M489","HIKER","","","","","","2002","2002/08/30 00:00:00+00","242","1725","Natural","Natural","","2002/08/30 00:00:00+00","242","2030","0.1","A","42.5671","-118.9202","BLM","OR","Harney","41025","Harney County"
"-118.920186681","42.55269438","340091","348732","W-111520","FED","DOI-WFMI","BLM","USORBUD","Burns District","ORBUD","Burns District","","","M490","HOMECRBLUF","","","","","","2002","2002/08/30 00:00:00+00","242","1916","Natural","Natural","","2002/08/31 00:00:00+00","243","1800","0.1","A","42.5527","-118.9202","BLM","OR","Grant","41023","Grant County"
"-118.920186681","42.55269438","340092","348733","W-111982","FED","DOI-WFMI","BLM","USORBUD","Burns District","ORBUD","Burns District","","","M491","JOHNNYFIRE","","","","","","2002","2002/08/31 00:00:00+00","243","0926","Natural","Natural","","2002/08/31 00:00:00+00","243","1050","0.1","A","42.5527","-118.9202","BLM","OR","Harney","41025","Harney County"
"-118.444086607","43.474594263","340093","348734","W-112292","FED","DOI-WFMI","BLM","USORBUD","Burns District","ORBUD","Burns District","","","M493","BLACKSPOT","","","","","","2002","2002/09/14 00:00:00+00","257","0735","Human","Missing data/not specified/undetermined","","2002/09/14 00:00:00+00","257","1600","0.1","A","43.4746","-118.4441","BLM","OR","Harney","41025","Harney County"
"-118.444086607","43.474594263","340094","348735","W-112294","FED","DOI-WFMI","BLM","USORBUD","Burns District","ORBUD","Burns District","","","M495","FUNNYBLACK","","","","","","2002","2002/09/14 00:00:00+00","257","0745","Human","Missing data/not specified/undetermined","","2002/09/14 00:00:00+00","257","1600","0.1","A","43.4746","-118.4441","BLM","OR","Harney","41025","Harney County"
"-118.439886609","43.468494263","340095","348736","W-112295","FED","DOI-WFMI","BLM","USORBUD","Burns District","ORBUD","Burns District","","","M496","TINY BLACK","","","","","","2002","2002/09/14 00:00:00+00","257","0745","Human","Missing data/not specified/undetermined","","2002/09/14 00:00:00+00","257","1600","0.1","A","43.4685","-118.4399","BLM","OR","Harney","41025","Harney County"
"-118.43578661","43.468494262","340096","348737","W-112293","FED","DOI-WFMI","BLM","USORBUD","Burns District","ORBUD","Burns District","","","M494","BIGBLACKSP","","","","","","2002","2002/09/14 00:00:00+00","257","1240","Natural","Natural","","2002/09/14 00:00:00+00","257","1630","0.1","A","43.4685","-118.4358","BLM","OR","Harney","41025","Harney County"
"-119.170186508","43.325994341","340097","348738","W-113366","FED","DOI-WFMI","BLM","USORBUD","Burns District","ORBUD","Burns District","","","M500","HILLBILLY","","","","","","2002","2002/10/26 00:00:00+00","299","1326","Human","Missing data/not specified/undetermined","","2002/10/26 00:00:00+00","299","1601","0.1","A","43.326","-119.1702","BLM","OR","Harney","41025","Harney County"
"-119.727986385","43.487894381","340098","348739","W-114512","FED","DOI-WFMI","BLM","USORBUD","Burns District","ORBUD","Burns District","","","M518","SQUAWBUTTE","","","","","","2003","2003/05/29 00:00:00+00","149","1856","Human","Recreation and ceremony","","2003/05/30 00:00:00+00","150","0848","0.1","A","43.4879","-119.728","OTHER FEDERAL","OR","Harney","41025","Harney County"
"-118.69828653","43.660994272","340099","348740","W-115349","FED","DOI-WFMI","BLM","USORBUD","Burns District","ORBUD","Burns District","","","M519","JONESCANYO","","","","","","2003","2003/06/19 00:00:00+00","170","1550","Natural","Natural","","2003/06/19 00:00:00+00","170","1817","0.1","A","43.661","-118.6983","BLM","OR","Harney","41025","Harney County"
"-118.357386535","43.969594216","340100","348741","W-115350","FED","DOI-WFMI","BLM","USORBUD","Burns District","ORBUD","Burns District","","","M521","SQUAWCR","","","","","","2003","2003/06/27 00:00:00+00","178","1633","Human","Recreation and ceremony","","2003/06/28 00:00:00+00","179","1700","1","B","43.9696","-118.3574","BLM","OR","Harney","41025","Harney County"
"-118.538786759","42.472694352","340101","348744","W-116083","FED","DOI-WFMI","BLM","USORBUD","Burns District","ORBUD","Burns District","","","M526","SERRANNOPT","","","","","","2003","2003/07/23 00:00:00+00","204","1200","Natural","Natural","","2003/07/24 00:00:00+00","205","0800","11.4","C","42.4727","-118.5388","BLM","OR","Harney","41025","Harney County"
"-118.521286553","43.703794252","340102","348745","W-116457","FED","DOI-WFMI","BLM","USORBUD","Burns District","ORBUD","Burns District","","","M528","MCMULLEN","","","","","","2003","2003/07/23 00:00:00+00","204","1600","Natural","Natural","","2003/07/24 00:00:00+00","205","0919","0.3","B","43.7038","-118.5213","BLM","OR","Harney","41025","Harney County"
"-118.330486721","42.927094296","340103","348746","W-117354","FED","DOI-WFMI","BLM","USORBUD","Burns District","ORBUD","Burns District","","","M531","MAUPINPLAC","","","","","","2003","2003/07/23 00:00:00+00","204","2027","Natural","Natural","","2003/07/24 00:00:00+00","205","1045","0.1","A","42.9271","-118.3305","BLM","OR","Harney","41025","Harney County"
"-118.521286545","43.749294248","340104","348747","W-117364","FED","DOI-WFMI","BLM","USORBUD","Burns District","ORBUD","Burns District","","","M529","HWYSPR1","","","","","","2003","2003/07/23 00:00:00+00","204","2148","Natural","Natural","","2003/07/24 00:00:00+00","205","1050","0.1","A","43.7493","-118.5213","BLM","OR","Harney","41025","Harney County"
"-118.708286487","43.893494254","340105","348748","W-120922","FED","DOI-WFMI","BLM","USORBUD","Burns District","ORBUD","Burns District","","","M530","MULLERBAS","","","","","","2003","2003/07/24 00:00:00+00","205","0707","Natural","Natural","","2003/07/25 00:00:00+00","206","1256","2","B","43.8935","-118.7083","BLM","OR","Harney","41025","Harney County"
"-119.647686418","43.374294382","340106","348749","W-116051","FED","DOI-WFMI","BLM","USORBUD","Burns District","ORBUD","Burns District","","","M532","LTBIGSTICK","","","","","","2003","2003/07/24 00:00:00+00","205","1510","Natural","Natural","","2003/07/24 00:00:00+00","205","1722","0.3","B","43.3743","-119.6477","BLM","OR","Harney","41025","Harney County"
"-119.547986415","43.490094364","340107","348750","W-116164","FED","DOI-WFMI","BLM","USORBUD","Burns District","ORBUD","Burns District","","","M534","TOPROCK","","","","","","2003","2003/07/25 00:00:00+00","206","1200","Natural","Natural","","2003/07/25 00:00:00+00","206","1913","0.1","A","43.4901","-119.548","BLM","OR","Harney","41025","Harney County"
"-119.495786403","43.60629435","340108","348751","W-116056","FED","DOI-WFMI","BLM","USORBUD","Burns District","ORBUD","Burns District","","","M533","BOGGIN","","","","","","2003","2003/07/25 00:00:00+00","206","1247","Natural","Natural","","2003/07/25 00:00:00+00","206","1736","0.1","A","43.6063","-119.4958","BLM","OR","Harney","41025","Harney County"
"-119.583286355","43.789294345","340109","348752","W-116167","FED","DOI-WFMI","BLM","USORBUD","Burns District","ORBUD","Burns District","","","M535","MINERAL","","","","","","2003","2003/07/26 00:00:00+00","207","0830","Natural","Natural","","2003/07/26 00:00:00+00","207","1442","0.1","A","43.7893","-119.5833","BLM","OR","Harney","41025","Harney County"
"-119.856386352","43.550694388","340110","348753","W-116862","FED","DOI-WFMI","BLM","USORBUD","Burns District","ORBUD","Burns District","","","M536","2151","","","","","","2003","2003/07/26 00:00:00+00","207","0933","Natural","Natural","","2003/07/26 00:00:00+00","207","1124","0.1","A","43.5507","-119.8564","BLM","OR","Harney","41025","Harney County"
"-118.725986681","42.754894346","340111","348754","W-116381","FED","DOI-WFMI","BLM","USORBUD","Burns District","ORBUD","Burns District","","","M537","SKINTENT","","","","","","2003","2003/07/28 00:00:00+00","209","1205","Natural","Natural","","2003/07/28 00:00:00+00","209","1625","0.1","A","42.7549","-118.726","BLM","OR","Harney","41025","Harney County"
"-119.787186343","43.663994373","340112","348755","W-118076","FED","DOI-WFMI","BLM","USORBUD","Burns District","ORBUD","Burns District","","","M539","CECIL","2003_OR-BUD-2179_CECIL BULGER/SLASHER","","","","","2003","2003/07/29 00:00:00+00","210","1146","Natural","Natural","","2003/08/01 00:00:00+00","213","1830","168","D","43.664","-119.7872","BLM","OR","Harney","41025","Harney County"
"-119.30878646","43.461294344","340113","348756","W-116865","FED","DOI-WFMI","BLM","USORBUD","Burns District","ORBUD","Burns District","","","M541","ZINA","","","","","","2003","2003/08/04 00:00:00+00","216","1859","Natural","Natural","","2003/08/04 00:00:00+00","216","2147","0.1","A","43.4613","-119.3088","BLM","OR","Harney","41025","Harney County"
"-118.550786552","43.685194256","340114","348757","W-117367","FED","DOI-WFMI","BLM","USORBUD","Burns District","ORBUD","Burns District","","","M543","2197","","","","","","2003","2003/08/04 00:00:00+00","216","1917","Natural","Natural","","2003/08/04 00:00:00+00","216","2200","0.1","A","43.6852","-118.5508","BLM","OR","Harney","41025","Harney County"
"-119.313286457","43.478494343","340115","348758","W-118069","FED","DOI-WFMI","BLM","USORBUD","Burns District","ORBUD","Burns District","","","M542","2200","","","","","","2003","2003/08/04 00:00:00+00","216","2030","Natural","Natural","","2003/08/04 00:00:00+00","216","2209","0.1","A","43.4785","-119.3133","BLM","OR","Harney","41025","Harney County"
"-118.820686684","42.636294364","340116","348759","W-118155","FED","DOI-WFMI","BLM","USORBUD","Burns District","ORBUD","Burns District","","","M545","ALABAMA","","","","","","2003","2003/08/05 00:00:00+00","217","1405","Natural","Natural","","2003/08/05 00:00:00+00","217","2027","0.1","A","42.6363","-118.8207","BLM","OR","Harney","41025","Harney County"
"-118.987386554","43.240394331","340117","348760","W-117372","FED","DOI-WFMI","BLM","USORBUD","Burns District","ORBUD","Burns District","","","M547","BUFFALO","2003_OR-BUD-2208_BUFFALO","","","","","2003","2003/08/06 00:00:00+00","218","1657","Human","Equipment and vehicle use","","2003/08/06 00:00:00+00","218","2238","60","C","43.2404","-118.9874","BLM","OR","Harney","41025","Harney County"
"-118.765186691","42.653794358","340118","348761","W-120136","FED","DOI-WFMI","BLM","USORBUD","Burns District","ORBUD","Burns District","","","M550","2240","","","","","","2003","2003/08/19 00:00:00+00","231","1815","Natural","Natural","","2003/08/19 00:00:00+00","231","2015","0.1","A","42.6538","-118.7652","BLM","OR","Harney","41025","Harney County"
"-119.84438635","43.572594385","340119","348762","W-118821","FED","DOI-WFMI","BLM","USORBUD","Burns District","ORBUD","Burns District","","","M551","2277","","","","","","2003","2003/09/04 00:00:00+00","247","1704","Natural","Natural","","2003/09/07 00:00:00+00","250","1109","0.1","A","43.5726","-119.8444","BLM","OR","Harney","41025","Harney County"
"-119.95998635","43.463194404","340120","348763","W-118894","FED","DOI-WFMI","BLM","USORBUD","Burns District","ORBUD","Burns District","","","M552","2278","","","","","","2003","2003/09/05 00:00:00+00","248","1727","Natural","Natural","","2003/09/05 00:00:00+00","248","2025","0.1","A","43.4632","-119.96","BLM","OR","Harney","41025","Harney County"
"-120.080486336","43.427394418","340121","348764","W-118896","FED","DOI-WFMI","BLM","USORBUD","Burns District","ORBUD","Burns District","","","M553","2279","","","","","","2003","2003/09/05 00:00:00+00","248","1753","Natural","Natural","","2003/09/06 00:00:00+00","249","1224","0.1","A","43.4274","-120.0805","BLM","OR","Harney","41025","Harney County"
"-120.097186334","43.42239442","340122","348765","W-118895","FED","DOI-WFMI","BLM","USORBUD","Burns District","ORBUD","Burns District","","","M554","2280","","","","","","2003","2003/09/05 00:00:00+00","248","1753","Natural","Natural","","2003/09/06 00:00:00+00","249","1308","0.1","A","43.4224","-120.0972","BLM","OR","Harney","41025","Harney County"
"-119.946886349","43.481294402","340123","348766","W-119070","FED","DOI-WFMI","BLM","USORBUD","Burns District","ORBUD","Burns District","","","M555","2282","","","","","","2003","2003/09/05 00:00:00+00","248","1816","Natural","Natural","","2003/09/05 00:00:00+00","248","2043","0.1","A","43.4813","-119.9469","BLM","OR","Harney","41025","Harney County"
"-119.729086383","43.49679438","340124","348767","W-118610","FED","DOI-WFMI","BLM","USORBUD","Burns District","ORBUD","Burns District","","","M556","TASKFORCE","","","","","","2003","2003/09/05 00:00:00+00","248","1821","Natural","Natural","","2003/09/05 00:00:00+00","248","2120","0.1","A","43.4968","-119.7291","BLM","OR","Harney","41025","Harney County"
"-119.721286382","43.507894379","340125","348768","W-118612","FED","DOI-WFMI","BLM","USORBUD","Burns District","ORBUD","Burns District","","","M557","TFE2","","","","","","2003","2003/09/05 00:00:00+00","248","2147","Natural","Natural","","2003/09/06 00:00:00+00","249","1046","0.1","A","43.5079","-119.7213","BLM","OR","Harney","41025","Harney County"
"-119.721286382","43.507594379","340126","348769","W-118608","FED","DOI-WFMI","BLM","USORBUD","Burns District","ORBUD","Burns District","","","M558","CAKE","","","","","","2003","2003/09/06 00:00:00+00","249","1002","Natural","Natural","","2003/09/06 00:00:00+00","249","1016","0.1","A","43.5076","-119.7213","BLM","OR","Harney","41025","Harney County"
"-118.750986631","43.023194327","340127","348770","W-120080","FED","DOI-WFMI","BLM","USORBUD","Burns District","ORBUD","Burns District","","","M560","DIAMONDDUM","","","","","","2003","2003/09/14 00:00:00+00","257","1450","Human","Missing data/not specified/undetermined","","2003/09/14 00:00:00+00","257","1800","0.3","B","43.0232","-118.751","PRIVATE","OR","Harney","41025","Harney County"
"-119.348586441","43.533794342","340128","348771","W-119494","FED","DOI-WFMI","BLM","USORBUD","Burns District","ORBUD","Burns District","","","M561","BOTTLENECK","","","","","","2003","2003/09/28 00:00:00+00","271","1603","Human","Equipment and vehicle use","","2003/09/28 00:00:00+00","271","1745","0.1","A","43.5338","-119.3486","BLM","OR","Harney","41025","Harney County"
"-119.802986365","43.526794385","340129","348772","W-119698","FED","DOI-WFMI","BLM","USORBUD","Burns District","ORBUD","Burns District","","","AW30","ODOT 1","","","","","","2003","2003/10/20 00:00:00+00","293","1220","Human","Equipment and vehicle use","","2003/10/20 00:00:00+00","293","1345","0.1","A","43.5268","-119.803","BLM","OR","Harney","41025","Harney County"
"-119.823286362","43.525094387","340130","348773","W-119700","FED","DOI-WFMI","BLM","USORBUD","Burns District","ORBUD","Burns District","","","AW31","ODOT 2","","","","","","2003","2003/10/20 00:00:00+00","293","1413","Human","Equipment and vehicle use","","2003/10/20 00:00:00+00","293","1430","0.1","A","43.5251","-119.8233","BLM","OR","Harney","41025","Harney County"
"-119.767186411","43.301794398","340131","348774","W-121185","FED","DOI-WFMI","BLM","USORBUD","Burns District","ORBUD","Burns District","","","A4B0","HORSETRAIL","","","","","","2004","2004/06/04 00:00:00+00","156","1612","Human","Equipment and vehicle use","","2004/06/04 00:00:00+00","156","1712","0.1","A","43.3018","-119.7672","BLM","OR","Harney","41025","Harney County"
"-118.627986521","43.780394256","340132","348775","W-121550","FED","DOI-WFMI","BLM","USORBUD","Burns District","ORBUD","Burns District","","","A482","ELEPHANTB","","","","","","2004","2004/06/19 00:00:00+00","171","1013","Natural","Natural","","2004/06/19 00:00:00+00","171","1530","0.1","A","43.7804","-118.628","BLM","OR","Harney","41025","Harney County"
"-118.678286658","42.940994327","340133","348776","W-123917","FED","DOI-WFMI","BLM","USORBUD","Burns District","ORBUD","Burns District","","","BDS9","2048","","","","","","2004","2004/06/20 00:00:00+00","172","1226","Human","Recreation and ceremony","","2004/06/20 00:00:00+00","172","1246","0.1","A","42.941","-118.6783","BLM","OR","Harney","41025","Harney County"
"-119.926386356","43.459594401","340134","348777","W-121941","FED","DOI-WFMI","BLM","USORBUD","Burns District","ORBUD","Burns District","","","A6H2","ROUNDTOP","","","","","","2004","2004/06/29 00:00:00+00","181","1813","Natural","Natural","","2004/06/30 00:00:00+00","182","1045","0.1","A","43.4596","-119.9264","BLM","OR","Harney","41025","Harney County"
"-119.852686326","43.701494377","340135","348778","W-122165","FED","DOI-WFMI","BLM","USORBUD","Burns District","ORBUD","Burns District","","","A6KF","SWAMPCREEK","","","","","","2004","2004/06/30 00:00:00+00","182","1748","Natural","Natural","","2004/07/01 00:00:00+00","183","0913","0.1","A","43.7015","-119.8527","PRIVATE","OR","Harney","41025","Harney County"
"-118.990786428","43.947694277","340136","348779","W-122331","FED","DOI-WFMI","BLM","USORBUD","Burns District","ORBUD","Burns District","","","A6QR","2071","","","","","","2004","2004/07/01 00:00:00+00","183","0654","Natural","Natural","","2004/07/01 00:00:00+00","183","1324","0.1","A","43.9477","-118.9908","BLM","OR","Harney","41025","Harney County"
"-118.810186609","43.095694326","340137","348780","W-123323","FED","DOI-WFMI","BLM","USORBUD","Burns District","ORBUD","Burns District","","","A6R0","CRATER","","","","","","2004","2004/07/01 00:00:00+00","183","1519","Natural","Natural","","2004/07/24 00:00:00+00","206","1145","59","C","43.0957","-118.8102","BLM","OR","Harney","41025","Harney County"
"-118.658486514","43.792894258","340138","348781","W-122125","FED","DOI-WFMI","BLM","USORBUD","Burns District","ORBUD","Burns District","","","A6WF","2093","","","","","","2004","2004/07/02 00:00:00+00","184","1824","Natural","Natural","","2004/07/03 00:00:00+00","185","1007","0.3","B","43.7929","-118.6585","BLM","OR","Harney","41025","Harney County"
"-118.709386661","42.887094334","340139","348782","W-122945","FED","DOI-WFMI","BLM","USORBUD","Burns District","ORBUD","Burns District","","","A8M7","2120","","","","","","2004","2004/07/19 00:00:00+00","201","1535","Natural","Natural","","2004/07/20 00:00:00+00","202","1230","0.1","A","42.8871","-118.7094","BLM","OR","Harney","41025","Harney County"
"-118.702086666","42.869894335","340140","348783","W-122944","FED","DOI-WFMI","BLM","USORBUD","Burns District","ORBUD","Burns District","","","A8M6","2119","","","","","","2004","2004/07/19 00:00:00+00","201","1535","Natural","Natural","","2004/07/20 00:00:00+00","202","1332","0.1","A","42.8699","-118.7021","BLM","OR","Harney","41025","Harney County"
"-118.678286666","42.891794331","340141","348784","W-123029","FED","DOI-WFMI","BLM","USORBUD","Burns District","ORBUD","Burns District","","","A8M5","MOONHILL","","","","","","2004","2004/07/19 00:00:00+00","201","1535","Natural","Natural","","2004/07/20 00:00:00+00","202","1310","0.1","A","42.8918","-118.6783","BLM","OR","Harney","41025","Harney County"
"-120.07578634","43.409894419","340142","348785","W-122947","FED","DOI-WFMI","BLM","USORBUD","Burns District","ORBUD","Burns District","","","A8LU","TIREDHORSE","","","","","","2004","2004/07/19 00:00:00+00","201","1554","Natural","Natural","","2004/07/19 00:00:00+00","201","2327","0.1","A","43.4099","-120.0758","BLM","OR","Harney","41025","Harney County"
"-118.51938672","42.733794329","340143","348786","W-122981","FED","DOI-WFMI","BLM","USORBUD","Burns District","ORBUD","Burns District","","","A8MZ","2122","","","","","","2004","2004/07/19 00:00:00+00","201","1618","Natural","Natural","","2004/07/20 00:00:00+00","202","1900","0.1","A","42.7338","-118.5194","BLM","OR","Harney","41025","Harney County"
"-118.597386749","42.472694357","340144","348787","W-124117","FED","DOI-WFMI","BLM","USORBUD","Burns District","ORBUD","Burns District","","","A8M3","2123","","","","","","2004","2004/07/19 00:00:00+00","201","1622","Natural","Natural","","2004/07/19 00:00:00+00","201","1720","0.1","A","42.4727","-118.5974","PRIVATE","OR","Harney","41025","Harney County"
"-118.467386718","42.798494319","340145","348788","W-123602","FED","DOI-WFMI","BLM","USORBUD","Burns District","ORBUD","Burns District","","","A8MY","MANNCRK","","","","","","2004","2004/07/19 00:00:00+00","201","1742","Natural","Natural","","2004/07/20 00:00:00+00","202","1751","0.1","A","42.7985","-118.4674","BLM","OR","Harney","41025","Harney County"
"-118.769386675","42.741294351","340146","348789","W-123558","FED","DOI-WFMI","BLM","USORBUD","Burns District","ORBUD","Burns District","","","A8TP","FISHCRK","","","","","","2004","2004/07/21 00:00:00+00","203","1713","Natural","Natural","","2004/07/24 00:00:00+00","206","0930","11","C","42.7413","-118.7694","BLM","OR","Harney","41025","Harney County"
"-118.519086508","43.960194231","340147","348790","W-123024","FED","DOI-WFMI","BLM","USORBUD","Burns District","ORBUD","Burns District","","","A9BJ","SKUNK","","","","","","2004","2004/07/25 00:00:00+00","207","1600","Natural","Natural","","2004/07/26 00:00:00+00","208","1351","0.3","B","43.9602","-118.5191","PRIVATE","OR","Harney","41025","Harney County"
"-119.834986361","43.521494388","340148","348791","W-123324","FED","DOI-WFMI","BLM","USORBUD","Burns District","ORBUD","Burns District","","","A9KB","LUCKY","","","","","","2004","2004/07/28 00:00:00+00","210","1153","Human","Missing data/not specified/undetermined","","2004/07/28 00:00:00+00","210","1554","3","B","43.5215","-119.835","BLM","OR","Harney","41025","Harney County"
"-119.627686421","43.37429438","340149","348792","W-123328","FED","DOI-WFMI","BLM","USORBUD","Burns District","ORBUD","Burns District","","","A9SX","2195","","","","","","2004","2004/07/31 00:00:00+00","213","2049","Natural","Natural","","2004/08/01 00:00:00+00","214","0649","1","B","43.3743","-119.6277","BLM","OR","Harney","41025","Harney County"
"-118.993286518","43.441494316","340150","348793","W-123922","FED","DOI-WFMI","BLM","USORBUD","Burns District","ORBUD","Burns District","","","A9SY","2199","","","","","","2004","2004/07/31 00:00:00+00","213","2137","Human","Missing data/not specified/undetermined","","2004/08/01 00:00:00+00","214","0915","1","B","43.4415","-118.9933","BLM","OR","Harney","41025","Harney County"
"-118.422086615","43.454594262","340151","348794","W-123601","FED","DOI-WFMI","BLM","USORBUD","Burns District","ORBUD","Burns District","","","A9VE","2201","","","","","","2004","2004/08/01 00:00:00+00","214","1016","Natural","Natural","","2004/08/01 00:00:00+00","214","1400","0.1","A","43.4546","-118.4221","PRIVATE","OR","Harney","41025","Harney County"
"-118.425186617","43.437894264","340152","348795","W-124291","FED","DOI-WFMI","BLM","USORBUD","Burns District","ORBUD","Burns District","","","A9VF","BROWN","","","","","","2004","2004/08/01 00:00:00+00","214","1018","Natural","Natural","","2004/08/01 00:00:00+00","214","1834","0.3","B","43.4379","-118.4252","PRIVATE","OR","Harney","41025","Harney County"
"-118.959386476","43.710994292","340153","348796","W-123325","FED","DOI-WFMI","BLM","USORBUD","Burns District","ORBUD","Burns District","","","A9W2","POWERLINE","","","","","","2004","2004/08/01 00:00:00+00","214","2144","Human","Power generation/transmission/distribution","","2004/08/02 00:00:00+00","215","1033","0.1","A","43.711","-118.9594","BLM","OR","Harney","41025","Harney County"
"-119.826886352","43.577094383","340154","348797","W-124385","FED","DOI-WFMI","BLM","USORBUD","Burns District","ORBUD","Burns District","","","BC7P","POTATOHILL","","","","","","2004","2004/08/20 00:00:00+00","233","0702","Natural","Natural","","2004/08/20 00:00:00+00","233","1234","0.1","A","43.5771","-119.8269","BLM","OR","Harney","41025","Harney County"
"-118.669886474","44.002694242","340155","348798","W-505437","FED","DOI-WFMI","BLM","USORBUD","Burns District","ORBUD","Burns District","","","BV18","MOFFIT TAB","","","","","","2005","2005/06/23 00:00:00+00","174","1016","Human","Missing data/not specified/undetermined","","2005/06/24 00:00:00+00","175","1224","2.1","B","44.0027","-118.6699","BLM","OR","Harney","41025","Harney County"
"-118.439686519","43.973794223","340156","348799","W-505371","FED","DOI-WFMI","BLM","USORBUD","Burns District","ORBUD","Burns District","","","B1E0","DUNTEN","","","","","","2005","2005/07/21 00:00:00+00","202","1639","Natural","Natural","","2005/07/21 00:00:00+00","202","2000","0.3","B","43.9738","-118.4397","BLM","OR","Harney","41025","Harney County"
"-119.545786389","43.637894353","340157","348800","W-505464","FED","DOI-WFMI","BLM","USORBUD","Burns District","ORBUD","Burns District","","","B2AM","MILLER CAN","","","","","","2005","2005/07/28 00:00:00+00","209","0539","Natural","Natural","","2005/07/28 00:00:00+00","209","1816","2","B","43.6379","-119.5458","BLM","OR","Harney","41025","Harney County"
"-119.149386467","43.57709432","340158","348801","W-505843","FED","DOI-WFMI","BLM","USORBUD","Burns District","ORBUD","Burns District","","","B2AF","2104","","","","","","2005","2005/07/28 00:00:00+00","209","0640","Natural","Natural","","2005/07/28 00:00:00+00","209","0653","0.1","A","43.5771","-119.1494","BLM","OR","Harney","41025","Harney County"
"-118.441586522","43.957094224","340159","348802","W-505882","FED","DOI-WFMI","BLM","USORBUD","Burns District","ORBUD","Burns District","","","B19S","BASCO SPRG","","","","","","2005","2005/07/28 00:00:00+00","209","0711","Natural","Natural","","2005/07/28 00:00:00+00","209","1500","0.3","B","43.9571","-118.4416","BLM","OR","Harney","41025","Harney County"
"-119.592186419","43.424894373","340160","348803","W-506087","FED","DOI-WFMI","BLM","USORBUD","Burns District","ORBUD","Burns District","","","B2A4","2108","","","","","","2005","2005/07/28 00:00:00+00","209","1206","Natural","Natural","","2005/07/28 00:00:00+00","209","1740","0.1","A","43.4249","-119.5922","BLM","OR","Harney","41025","Harney County"
"-118.670186665","42.905394329","340161","348804","W-505887","FED","DOI-WFMI","BLM","USORBUD","Burns District","ORBUD","Burns District","","","B3F1","RUBYSPRING","","","","","","2005","2005/08/06 00:00:00+00","218","1850","Natural","Natural","","2005/08/07 00:00:00+00","219","0926","0.3","B","42.9054","-118.6702","BLM","OR","Harney","41025","Harney County"
"-118.792686617","43.066794327","340162","348805","W-506088","FED","DOI-WFMI","BLM","USORBUD","Burns District","ORBUD","Burns District","","","B3KF","CRATERFIRE","","","","","","2005","2005/08/06 00:00:00+00","218","1936","Natural","Natural","","2005/08/07 00:00:00+00","219","2032","0.1","A","43.0668","-118.7927","BLM","OR","Harney","41025","Harney County"
"-118.547986576","43.549294266","340163","348806","W-506096","FED","DOI-WFMI","BLM","USORBUD","Burns District","ORBUD","Burns District","","","B3GP","MDNGHTCROW","","","","","","2005","2005/08/06 00:00:00+00","218","2040","Natural","Natural","","2005/08/07 00:00:00+00","219","1217","0.1","A","43.5493","-118.548","BLM","OR","Harney","41025","Harney County"
"-118.82908672","42.404594384","340164","348807","W-513106","FED","DOI-WFMI","BLM","USORBUD","Burns District","ORBUD","Burns District","","","B3J4","BEEF TRAIL","2005_OR-BUD-2161_BEEF TRAIL","","OR4238411880120050807","BEEF TRAIL","","2005","2005/08/07 00:00:00+00","219","1619","Natural","Natural","","2005/08/10 00:00:00+00","222","1800","4692","F","42.4046","-118.8291","PRIVATE","OR","Harney","41025","Harney County"
"-119.691386368","43.615394368","340165","348808","W-506100","FED","DOI-WFMI","BLM","USORBUD","Burns District","ORBUD","Burns District","","","B3K4","BEST MAYO","","","","","","2005","2005/08/07 00:00:00+00","219","1917","Natural","Natural","","2005/08/08 00:00:00+00","220","0727","0.5","B","43.6154","-119.6914","BLM","OR","Harney","41025","Harney County"
"-119.196086417","43.811294307","340166","348809","W-511067","FED","DOI-WFMI","BLM","USORBUD","Burns District","ORBUD","Burns District","","","B3MU","HAMILTON","2005_OR-BUD-2178_EGYPT WELLS COMPLEX","2005_OR-BUD-2178_EGYPT WELLS COMPLEX","","","EGYPT WELLS COMPLEX","2005","2005/08/08 00:00:00+00","220","1151","Natural","Natural","","2005/08/09 00:00:00+00","221","2100","307","E","43.8113","-119.1961","BLM","OR","Harney","41025","Harney County"
"-119.541586378","43.702394347","340167","348810","W-510328","FED","DOI-WFMI","BLM","USORBUD","Burns District","ORBUD","Burns District","","","B3NG","EGYPT WELL","2005_OR-BUD-2178_EGYPT WELLS COMPLEX","2005_OR-BUD-2178_EGYPT WELLS COMPLEX","","","EGYPT WELLS COMPLEX","2005","2005/08/08 00:00:00+00","220","1318","Natural","Natural","","2005/08/18 00:00:00+00","230","1800","59","C","43.7024","-119.5416","BLM","OR","Harney","41025","Harney County"
"-118.036586765","42.971494266","340168","348811","W-506511","FED","DOI-WFMI","BLM","USORBUD","Burns District","ORBUD","Burns District","","","B3NP","STONEHOUSE","","","","","","2005","2005/08/08 00:00:00+00","220","1412","Natural","Natural","","2005/08/10 00:00:00+00","222","1700","0.5","B","42.9715","-118.0366","BLM","OR","Harney","41025","Harney County"
"-119.385486434","43.535194345","340169","348812","W-513951","FED","DOI-WFMI","BLM","USORBUD","Burns District","ORBUD","Burns District","","","B3QG","2185","","","","","","2005","2005/08/08 00:00:00+00","220","1823","Natural","Natural","","2005/08/09 00:00:00+00","221","1035","0.3","B","43.5352","-119.3855","BLM","OR","Harney","41025","Harney County"
"-119.182186415","43.838794303","340170","348813","W-506128","FED","DOI-WFMI","BLM","USORBUD","Burns District","ORBUD","Burns District","","","B4SS","SMITHCABIN","","","","","","2005","2005/08/11 00:00:00+00","223","1300","Natural","Natural","","2005/08/11 00:00:00+00","223","1300","0.3","B","43.8388","-119.1822","BLM","OR","Harney","41025","Harney County"
"-119.171086422","43.811794304","340171","348814","W-506132","FED","DOI-WFMI","BLM","USORBUD","Burns District","ORBUD","Burns District","","","B4ST","SILVIERIV2","","","","","","2005","2005/08/16 00:00:00+00","228","0930","Natural","Natural","","2005/08/16 00:00:00+00","228","0930","0.3","B","43.8118","-119.1711","BLM","OR","Harney","41025","Harney County"
"-119.034886524","43.365994326","340172","348815","W-512043","FED","DOI-WFMI","BLM","USORBUD","Burns District","ORBUD","Burns District","","","B4FR","WEAVERSPRG","","","","","","2005","2005/08/16 00:00:00+00","228","1517","Natural","Natural","","2005/08/16 00:00:00+00","228","1740","0.1","A","43.366","-119.0349","BLM","OR","Harney","41025","Harney County"
"-118.515686828","42.070694384","340173","348816","W-513956","FED","DOI-WFMI","BLM","USORBUD","Burns District","ORBUD","Burns District","","","B4SA","MORNING AF","","","","","","2005","2005/08/21 00:00:00+00","233","1500","Natural","Natural","","2005/08/22 00:00:00+00","234","0900","3","B","42.0707","-118.5157","PRIVATE","OR","Harney","41025","Harney County"
"-118.61678676","42.385694366","340174","348817","W-513957","FED","DOI-WFMI","BLM","USORBUD","Burns District","ORBUD","Burns District","","","B44X","2223","","","","","","2005","2005/08/21 00:00:00+00","233","1600","Natural","Natural","","2005/08/21 00:00:00+00","233","1835","30","C","42.3857","-118.6168","PRIVATE","OR","Harney","41025","Harney County"
"-118.662086682","42.812694336","340175","348818","W-514129","FED","DOI-WFMI","BLM","USORBUD","Burns District","ORBUD","Burns District","","","B4Q0","2225","","","","","","2005","2005/08/21 00:00:00+00","233","1637","Natural","Natural","","2005/08/26 00:00:00+00","238","1854","371","E","42.8127","-118.6621","PRIVATE","OR","Harney","41025","Harney County"
"-118.760786654","42.880194339","340176","348819","W-507885","FED","DOI-WFMI","BLM","USORBUD","Burns District","ORBUD","Burns District","","","B4Q5","BONE BREAK","2005_OR-BUD-2226_BONE BREAKER FIRE","","","","","2005","2005/08/21 00:00:00+00","233","1658","Natural","Natural","","2005/08/24 00:00:00+00","236","1901","303","E","42.8802","-118.7608","BLM","OR","Harney","41025","Harney County"
"-118.709086664","42.870694335","340177","348820","W-511608","FED","DOI-WFMI","BLM","USORBUD","Burns District","ORBUD","Burns District","","","B4Q2","BROKENHAND","","","","","","2005","2005/08/21 00:00:00+00","233","1737","Natural","Natural","","2005/08/22 00:00:00+00","234","1348","0.3","B","42.8707","-118.7091","BLM","OR","Harney","41025","Harney County"
"-118.699886805","42.015494404","340178","348821","W-506543","FED","DOI-WFMI","BLM","USORBUD","Burns District","ORBUD","Burns District","","","B5A7","2231","","","","","","2005","2005/08/21 00:00:00+00","233","1954","Natural","Natural","","2005/08/24 00:00:00+00","236","0800","5","B","42.0155","-118.6999","BLM","OR","Harney","41025","Harney County"
"-118.678486508","43.804894258","340179","348822","W-507470","FED","DOI-WFMI","BLM","USORBUD","Burns District","ORBUD","Burns District","","","B4TQ","DIETRICH","","","","","","2005","2005/08/21 00:00:00+00","233","2000","Natural","Natural","","2005/08/23 00:00:00+00","235","1105","2.5","B","43.8049","-118.6785","PRIVATE","OR","Harney","41025","Harney County"
"-118.699886805","42.015494404","340180","348823","W-513955","FED","DOI-WFMI","BLM","USORBUD","Burns District","ORBUD","Burns District","","","B44Y","DENIO ASSI","","","","","","2005","2005/08/22 00:00:00+00","234","1154","Natural","Natural","","2005/08/22 00:00:00+00","234","1500","5","B","42.0155","-118.6999","BLM","OR","Harney","41025","Harney County"
"-118.716286664","42.867094336","340181","348824","W-511146","FED","DOI-WFMI","BLM","USORBUD","Burns District","ORBUD","Burns District","","","B40X","2239","","","","","","2005","2005/08/22 00:00:00+00","234","1214","Natural","Natural","","2005/08/22 00:00:00+00","234","1344","0.1","A","42.8671","-118.7163","BLM","OR","Harney","41025","Harney County"
"-118.686586678","42.812694338","340182","348825","W-511159","FED","DOI-WFMI","BLM","USORBUD","Burns District","ORBUD","Burns District","","","B4S1","LIL BRIDGE","2005_OR-BUD-2240_LITTLE BRIDGE CREEK FIRE","","BLM-ORBUD-B4S1-20050822","LITTLE BRIDGE CREEK","","2005","2005/08/22 00:00:00+00","234","1223","Natural","Natural","","2005/08/25 00:00:00+00","237","1600","1007","F","42.8127","-118.6866","BLM","OR","Harney","41025","Harney County"
"-118.502686718","42.764594325","340183","348826","W-506553","FED","DOI-WFMI","BLM","USORBUD","Burns District","ORBUD","Burns District","","","B5A8","2248","","","","","","2005","2005/08/22 00:00:00+00","234","1700","Natural","Natural","","2005/08/24 00:00:00+00","236","0815","1","B","42.7646","-118.5027","PRIVATE","OR","Harney","41025","Harney County"
"-118.525486705","42.815194323","340184","348827","W-507512","FED","DOI-WFMI","BLM","USORBUD","Burns District","ORBUD","Burns District","","","B51C","PASTURE2","","","","","","2005","2005/08/23 00:00:00+00","235","1100","Natural","Natural","","2005/09/01 00:00:00+00","244","1500","1","B","42.8152","-118.5255","PRIVATE","OR","Harney","41025","Harney County"
"-118.51548671","42.797694324","340185","348828","W-507505","FED","DOI-WFMI","BLM","USORBUD","Burns District","ORBUD","Burns District","","","B50S","PASTURE5","","","","","","2005","2005/08/23 00:00:00+00","235","1100","Natural","Natural","","2005/09/01 00:00:00+00","244","1500","10","C","42.7977","-118.5155","PRIVATE","OR","Harney","41025","Harney County"
"-118.52488671","42.789294325","340186","348829","W-507496","FED","DOI-WFMI","BLM","USORBUD","Burns District","ORBUD","Burns District","","","B50B","PASTURE6","","","","","","2005","2005/08/23 00:00:00+00","235","1100","Natural","Natural","","2005/09/01 00:00:00+00","244","1500","75","C","42.7893","-118.5249","PRIVATE","OR","Harney","41025","Harney County"
"-118.525186706","42.810994323","340187","348830","W-507510","FED","DOI-WFMI","BLM","USORBUD","Burns District","ORBUD","Burns District","","","B51B","PASTURE3","","","","","","2005","2005/08/23 00:00:00+00","235","1100","Natural","Natural","","2005/09/01 00:00:00+00","244","1500","2","B","42.811","-118.5252","PRIVATE","OR","Harney","41025","Harney County"
"-118.510686711","42.796794323","340188","348831","W-507491","FED","DOI-WFMI","BLM","USORBUD","Burns District","ORBUD","Burns District","","","B5Z9","PASTURE7","","","","","","2005","2005/08/23 00:00:00+00","235","1100","Natural","Natural","","2005/09/01 00:00:00+00","244","1500","5","B","42.7968","-118.5107","PRIVATE","OR","Harney","41025","Harney County"
"-118.502986713","42.792894323","340189","348832","W-507513","FED","DOI-WFMI","BLM","USORBUD","Burns District","ORBUD","Burns District","","","B51D","PASTURE1","","","","","","2005","2005/08/23 00:00:00+00","235","1100","Natural","Natural","","2005/09/01 00:00:00+00","244","1500","236","D","42.7929","-118.503","PRIVATE","OR","Harney","41025","Harney County"
"-118.511886712","42.790994324","340190","348833","W-507477","FED","DOI-WFMI","BLM","USORBUD","Burns District","ORBUD","Burns District","","","B5Z8","PASTURE8","","","","","","2005","2005/08/23 00:00:00+00","235","1100","Natural","Natural","","2005/09/01 00:00:00+00","244","1500","3","B","42.791","-118.5119","PRIVATE","OR","Harney","41025","Harney County"
"-118.524086708","42.799594324","340191","348834","W-507507","FED","DOI-WFMI","BLM","USORBUD","Burns District","ORBUD","Burns District","","","B50W","PASTURE4","","","","","","2005","2005/08/23 00:00:00+00","235","1100","Natural","Natural","","2005/09/01 00:00:00+00","244","1500","40","C","42.7996","-118.5241","PRIVATE","OR","Harney","41025","Harney County"
"-118.685486681","42.792394339","340192","348835","W-513949","FED","DOI-WFMI","BLM","USORBUD","Burns District","ORBUD","Burns District","","","B4WR","FIR CREEK","2005_OR-BUD-2249_FIR CREEK","","OR4278311867620050823","FIR CREEK","","2005","2005/08/23 00:00:00+00","235","1247","Natural","Natural","","2005/09/11 00:00:00+00","254","1800","1343","F","42.7924","-118.6855","BLM","OR","Harney","41025","Harney County"
"-118.759386592","43.24629431","340193","348836","W-510326","FED","DOI-WFMI","BLM","USORBUD","Burns District","ORBUD","Burns District","","","B7EN","N VOLTAGE","","","","","","2005","2005/09/27 00:00:00+00","270","1400","Human","Arson/incendiarism","","2005/10/01 00:00:00+00","274","1330","262","D","43.2463","-118.7594","BLM","OR","Harney","41025","Harney County"
"-119.845486375","43.428494396","340194","348837","W-513952","FED","DOI-WFMI","BLM","USORBUD","Burns District","ORBUD","Burns District","","","B7KB","SHEEP MTN","2005_OR-BUD-2306_SHEEP MOUNTAIN","","OR4341911984820050929","SHEEP MOUNTAIN","","2005","2005/09/29 00:00:00+00","272","1838","Human","Debris and open burning","","2005/10/06 00:00:00+00","279","1538","1049","F","43.4285","-119.8455","STATE","OR","Harney","41025","Harney County"
"-118.640186698","42.73659434","340195","348838","W-512045","FED","DOI-WFMI","BLM","USORBUD","Burns District","ORBUD","Burns District","","","B8MD","CAMP HOST","","","","","","2005","2005/10/25 00:00:00+00","298","1458","Human","Recreation and ceremony","","2005/10/25 00:00:00+00","298","1700","0.1","A","42.7366","-118.6402","BLM","OR","Harney","41025","Harney County"
"-118.994386639","42.729894372","340196","348839","W-525628","FED","DOI-WFMI","BLM","USORBUD","Burns District","ORBUD","Burns District","","","CR10","BLACK TOP","","","","","","2006","2006/06/25 00:00:00+00","176","0939","Human","Equipment and vehicle use","","2006/06/26 00:00:00+00","177","1037","2","B","42.7299","-118.9944","BLM","OR","Harney","41025","Harney County"
"-118.802086783","42.042694411","340197","348840","W-525645","FED","DOI-WFMI","BLM","USORBUD","Burns District","ORBUD","Burns District","","","CR3V","RINCON FLAT","","","","","","2006","2006/06/25 00:00:00+00","176","1714","Natural","Natural","","2006/06/26 00:00:00+00","177","1600","233","D","42.0427","-118.8021","BLM","OR","Harney","41025","Harney County"
"-118.692686759","42.312094379","340198","348841","W-526003","FED","DOI-WFMI","BLM","USORBUD","Burns District","ORBUD","Burns District","","","CSF2","RED MOUNTAIN","2006_OR-BUD-2196_RED MOUNTAIN","","","","","2006","2006/06/27 00:00:00+00","178","1409","Natural","Natural","","2006/07/03 00:00:00+00","184","1600","496.2","E","42.3121","-118.6927","BLM","OR","Harney","41025","Harney County"
"-118.787986772","42.126594403","340199","348842","W-527210","FED","DOI-WFMI","BLM","USORBUD","Burns District","ORBUD","Burns District","","","CSF9","THOUSAND VIRGIN","2006_OR-BUD-2197_THOUSAND VIRGIN","","OR4212811876820060627","THOUSAND VIRGIN","","2006","2006/06/27 00:00:00+00","178","1538","Natural","Natural","","2006/07/03 00:00:00+00","184","1154","2043.3","F","42.1266","-118.788","BLM","OR","Harney","41025","Harney County"
"-119.167686611","42.716494389","340200","348843","W-527241","FED","DOI-WFMI","BLM","USORBUD","Burns District","ORBUD","Burns District","","","CS06","ROCK CREEK","2006_OR-BUD-2203_ROCK CREEK","","","","","2006","2006/06/28 00:00:00+00","179","1506","Natural","Natural","","2006/06/30 00:00:00+00","181","0900","860.2","E","42.7165","-119.1677","PRIVATE","OR","Harney","41025","Harney County"
"-118.417686845","42.067694375","340201","348844","W-527726","FED","DOI-WFMI","BLM","USORBUD","Burns District","ORBUD","Burns District","","","CTG2","COTTONWOOD FIRE","","","","","","2006","2006/06/30 00:00:00+00","181","1522","Natural","Natural","","2006/06/30 00:00:00+00","181","2130","235.1","D","42.0677","-118.4177","BLM","OR","Harney","41025","Harney County"
"-118.353786714","42.941494297","340202","348845","W-527766","FED","DOI-WFMI","BLM","USORBUD","Burns District","ORBUD","Burns District","","","CTJ7","SHANDLEY","","","","","","2006","2006/06/30 00:00:00+00","181","1639","Natural","Natural","","2006/07/01 00:00:00+00","182","1715","1.5","B","42.9415","-118.3538","BLM","OR","Harney","41025","Harney County"
"-119.269386443","43.60039433","340203","348846","W-527772","FED","DOI-WFMI","BLM","USORBUD","Burns District","ORBUD","Burns District","","","CT0X","2213","","","","","","2006","2006/06/30 00:00:00+00","181","2049","Natural","Natural","","2006/07/01 00:00:00+00","182","1400","0.1","A","43.6004","-119.2694","BLM","OR","Harney","41025","Harney County"
"-119.148786439","43.738994308","340204","348847","W-537555","FED","DOI-WFMI","BLM","USORBUD","Burns District","ORBUD","Burns District","","","CT4B","2218","","","","","","2006","2006/07/01 00:00:00+00","182","1439","Natural","Natural","","2006/07/01 00:00:00+00","182","1631","0.5","B","43.739","-119.1488","STATE","OR","Harney","41025","Harney County"
"-119.104386445","43.743794303","340205","348848","W-534424","FED","DOI-WFMI","BLM","USORBUD","Burns District","ORBUD","Burns District","","","CT4F","BLACKBIRD","","","","","","2006","2006/07/01 00:00:00+00","182","1538","Natural","Natural","","2006/07/01 00:00:00+00","182","1702","0.1","A","43.7438","-119.1044","STATE","OR","Harney","41025","Harney County"
"-119.247386506","43.258994354","340206","348849","W-528177","FED","DOI-WFMI","BLM","USORBUD","Burns District","ORBUD","Burns District","","","CT40","HUGHET SPRING FIRE","","","","","","2006","2006/07/01 00:00:00+00","182","1634","Natural","Natural","","2006/07/01 00:00:00+00","182","1800","0.1","A","43.259","-119.2474","BLM","OR","Harney","41025","Harney County"
"-118.537386745","42.559594345","340207","348850","W-528922","FED","DOI-WFMI","BLM","USORBUD","Burns District","ORBUD","Burns District","","","CT4Z","PIKE FIRE","","","","","","2006","2006/07/01 00:00:00+00","182","1707","Natural","Natural","","2006/07/02 00:00:00+00","183","1700","77.3","C","42.5596","-118.5374","BLM","OR","Harney","41025","Harney County"
"-118.359086554","43.860194224","340208","348851","W-528927","FED","DOI-WFMI","BLM","USORBUD","Burns District","ORBUD","Burns District","","","CT7E","DREWSEY TABLE","","","","","","2006","2006/07/01 00:00:00+00","182","2138","Natural","Natural","","2006/07/02 00:00:00+00","183","1345","6.3","B","43.8602","-118.3591","BLM","OR","Harney","41025","Harney County"
"-118.517386508","43.959894231","340209","348852","W-528933","FED","DOI-WFMI","BLM","USORBUD","Burns District","ORBUD","Burns District","","","CUF4","BLUE BUCKET FIRE","","","","","","2006","2006/07/02 00:00:00+00","183","1344","Natural","Natural","","2006/07/02 00:00:00+00","183","1855","0.4","B","43.9599","-118.5174","BLM","OR","Harney","41025","Harney County"
"-118.476586512","43.980394226","340210","348853","W-528936","FED","DOI-WFMI","BLM","USORBUD","Burns District","ORBUD","Burns District","","","CUF6","MOFFIT TABLE","","","","","","2006","2006/07/02 00:00:00+00","183","1420","Natural","Natural","","2006/07/02 00:00:00+00","183","2040","0.3","B","43.9804","-118.4766","BLM","OR","Harney","41025","Harney County"
"-118.766586676","42.740194351","340211","348854","W-531000","FED","DOI-WFMI","BLM","USORBUD","Burns District","ORBUD","Burns District","","","CVC6","FISH CREEK","","","","","","2006","2006/07/04 00:00:00+00","185","1647","Natural","Natural","","2006/07/06 00:00:00+00","187","1130","0.3","B","42.7402","-118.7666","BLM","OR","Harney","41025","Harney County"
"-119.452486408","43.621494345","340212","348855","W-537255","FED","DOI-WFMI","BLM","USORBUD","Burns District","ORBUD","Burns District","","","CXN5","2260","","","","","","2006","2006/07/09 00:00:00+00","190","1932","Natural","Natural","","2006/07/10 00:00:00+00","191","1448","3","B","43.6215","-119.4525","PRIVATE","OR","Harney","41025","Harney County"
"-119.472986408","43.600394349","340213","348856","W-528938","FED","DOI-WFMI","BLM","USORBUD","Burns District","ORBUD","Burns District","","","CXV1","GUMBOOT FIRE","","","","","","2006","2006/07/10 00:00:00+00","191","0757","Natural","Natural","","2006/07/10 00:00:00+00","191","1630","0.1","A","43.6004","-119.473","BLM","OR","Harney","41025","Harney County"
"-119.471286407","43.606294348","340214","348857","W-529021","FED","DOI-WFMI","BLM","USORBUD","Burns District","ORBUD","Burns District","","","CX2J","ZOGLMANN FIRE","","","","","","2006","2006/07/11 00:00:00+00","192","0830","Natural","Natural","","2006/07/11 00:00:00+00","192","1300","0.8","B","43.6063","-119.4713","BLM","OR","Harney","41025","Harney County"
"-119.448786413","43.597094347","340215","348858","W-529658","FED","DOI-WFMI","BLM","USORBUD","Burns District","ORBUD","Burns District","","","CX64","2271","","","","","","2006","2006/07/11 00:00:00+00","192","1447","Natural","Natural","","2006/07/11 00:00:00+00","192","2000","0.3","B","43.5971","-119.4488","BLM","OR","Harney","41025","Harney County"
"-119.437986503","43.086494385","340216","348859","W-532234","FED","DOI-WFMI","BLM","USORBUD","Burns District","ORBUD","Burns District","","","CY9F","2287","","","","","","2006","2006/07/17 00:00:00+00","198","1446","Human","Equipment and vehicle use","","2006/07/17 00:00:00+00","198","1600","0.1","A","43.0865","-119.438","BLM","OR","Harney","41025","Harney County"
"-118.904586624","42.90739435","340217","348860","W-529041","FED","DOI-WFMI","BLM","USORBUD","Burns District","ORBUD","Burns District","","","CZD9","HIDDEN FIRE","","","","","","2006","2006/07/17 00:00:00+00","198","1827","Human","Equipment and vehicle use","","2006/07/17 00:00:00+00","198","2100","0.3","B","42.9074","-118.9046","BLM","OR","Harney","41025","Harney County"
"-119.107186589","42.909894368","340218","348861","W-529049","FED","DOI-WFMI","BLM","USORBUD","Burns District","ORBUD","Burns District","","","C0RU","BARNEYS BUTTE","","","","","","2006","2006/07/22 00:00:00+00","203","1818","Natural","Natural","","2006/07/23 00:00:00+00","204","0703","1.2","B","42.9099","-119.1072","BLM","OR","Harney","41025","Harney County"
"-118.955986633","42.802094363","340219","348862","W-536617","FED","DOI-WFMI","BLM","USORBUD","Burns District","ORBUD","Burns District","","","C0RV","2308","","","","","","2006","2006/07/22 00:00:00+00","203","1819","Natural","Natural","","2006/07/22 00:00:00+00","203","2200","7","B","42.8021","-118.956","BLM","OR","Harney","41025","Harney County"
"-118.893286625","42.916494348","340220","348863","W-529145","FED","DOI-WFMI","BLM","USORBUD","Burns District","ORBUD","Burns District","","","C0RW","MILE POST 51","","","","","","2006","2006/07/22 00:00:00+00","203","1837","Natural","Natural","","2006/07/22 00:00:00+00","203","1907","0.1","A","42.9165","-118.8933","BLM","OR","Harney","41025","Harney County"
"-118.916586633","42.845694356","340221","348864","W-529874","FED","DOI-WFMI","BLM","USORBUD","Burns District","ORBUD","Burns District","","","C0RY","SAVOY LAKE","","","","","","2006","2006/07/22 00:00:00+00","203","1907","Natural","Natural","","2006/07/22 00:00:00+00","203","2025","0.1","A","42.8457","-118.9166","BLM","OR","Harney","41025","Harney County"
"-118.907086595","43.081794336","340222","348865","W-529857","FED","DOI-WFMI","BLM","USORBUD","Burns District","ORBUD","Burns District","","","C0RZ","SKEETER","","","","","","2006","2006/07/22 00:00:00+00","203","1913","Natural","Natural","","2006/07/22 00:00:00+00","203","2100","2.5","B","43.0818","-118.9071","BLM","OR","Harney","41025","Harney County"
"-118.789586617","43.067394327","340223","348866","W-537037","FED","DOI-WFMI","BLM","USORBUD","Burns District","ORBUD","Burns District","","","C0R0","DIAMOND CRATERS","2006_OR-BUD-2313_DIAMOND CRATERS","","OR4309311876120060722","DIAMOND CRATERS","","2006","2006/07/22 00:00:00+00","203","1926","Natural","Natural","","2006/07/24 00:00:00+00","205","2000","4545.1","F","43.0674","-118.7896","BLM","OR","Harney","41025","Harney County"
"-119.738786503","42.791294435","340224","348867","W-529056","FED","DOI-WFMI","BLM","USORBUD","Burns District","ORBUD","Burns District","","","C0R1","BLACK CAP FIRE","","","","","","2006","2006/07/22 00:00:00+00","203","2010","Natural","Natural","","2006/07/23 00:00:00+00","204","1238","0.1","A","42.7913","-119.7388","BLM","OR","Harney","41025","Harney County"
"-118.944586631","42.83039436","340225","348868","W-529143","FED","DOI-WFMI","BLM","USORBUD","Burns District","ORBUD","Burns District","","","C0TF","PETE HILL","","","","","","2006","2006/07/23 00:00:00+00","204","0909","Natural","Natural","","2006/07/23 00:00:00+00","204","0952","0.1","A","42.8304","-118.9446","BLM","OR","Harney","41025","Harney County"
"-118.699386704","42.642394353","340226","348869","W-534427","FED","DOI-WFMI","BLM","USORBUD","Burns District","ORBUD","Burns District","","","C0TS","2318","","","","","","2006","2006/07/23 00:00:00+00","204","0917","Natural","Natural","","2006/07/26 00:00:00+00","207","1030","162.3","D","42.6424","-118.6994","BLM","OR","Harney","41025","Harney County"
"-118.966586604","42.965394351","340227","348870","W-530295","FED","DOI-WFMI","BLM","USORBUD","Burns District","ORBUD","Burns District","","","C0UM","JACK MTN","2006_OR-BUD-2319_JACK MTN.","","OR4293911896220060723","JACK MTN","","2006","2006/07/23 00:00:00+00","204","1124","Natural","Natural","","2006/07/25 00:00:00+00","206","1600","1000.1","F","42.9654","-118.9666","BLM","OR","Harney","41025","Harney County"
"-118.42238671","42.893794307","340228","348871","W-534413","FED","DOI-WFMI","BLM","USORBUD","Burns District","ORBUD","Burns District","","","C0UN","STONE HOUSE REVISIT","","","","","","2006","2006/07/23 00:00:00+00","204","1150","Natural","Natural","","2006/07/28 00:00:00+00","209","1800","83.8","C","42.8938","-118.4224","BLM","OR","Harney","41025","Harney County"
"-118.26428675","42.819294299","340229","348872","W-529831","FED","DOI-WFMI","BLM","USORBUD","Burns District","ORBUD","Burns District","","","C0ZA","TABLE MTN FIRE","","","","","","2006","2006/07/23 00:00:00+00","204","1517","Natural","Natural","","2006/07/24 00:00:00+00","205","1332","8.3","B","42.8193","-118.2643","BLM","OR","Harney","41025","Harney County"
"-118.81628667","42.723494357","340230","348873","W-529059","FED","DOI-WFMI","BLM","USORBUD","Burns District","ORBUD","Burns District","","","C0Y8","BLITZEN FIRE","","","","","","2006","2006/07/23 00:00:00+00","204","1535","Natural","Natural","","2006/07/24 00:00:00+00","205","1040","0.2","A","42.7235","-118.8163","BLM","OR","Harney","41025","Harney County"
"-118.63628654","43.665994265","340231","348874","W-530000","FED","DOI-WFMI","BLM","USORBUD","Burns District","ORBUD","Burns District","","","C0YU","2325","","","","","","2006","2006/07/23 00:00:00+00","204","1652","Natural","Natural","","2006/07/23 00:00:00+00","204","2221","9.3","B","43.666","-118.6363","PRIVATE","OR","Harney","41025","Harney County"
"-118.856286747","42.207894402","340232","348875","W-531441","FED","DOI-WFMI","BLM","USORBUD","Burns District","ORBUD","Burns District","","","C0ZC","COYOTE FIRE","","","","","","2006","2006/07/23 00:00:00+00","204","1830","Natural","Natural","","2006/07/24 00:00:00+00","205","1755","44.3","C","42.2079","-118.8563","BLM","OR","Harney","41025","Harney County"
"-118.69578666","42.910394331","340233","348876","W-530297","FED","DOI-WFMI","BLM","USORBUD","Burns District","ORBUD","Burns District","","","C03C","RUBY SPRINGS","","","BLM-ORBUD-CO3C-20060724","RUBY SPRINGS","","2006","2006/07/24 00:00:00+00","205","1134","Natural","Natural","","2006/07/24 00:00:00+00","205","1820","0.1","A","42.9104","-118.6958","BLM","OR","Harney","41025","Harney County"
"-118.612686818","42.028194396","340234","348877","W-531434","FED","DOI-WFMI","BLM","USORBUD","Burns District","ORBUD","Burns District","","","C09H","COLONY RANCH","","","","","","2006","2006/07/24 00:00:00+00","205","1747","Natural","Natural","","2006/07/26 00:00:00+00","207","1330","107.6","D","42.0282","-118.6127","BLM","OR","Harney","41025","Harney County"
"-118.385986712","42.923494302","340235","348878","W-533666","FED","DOI-WFMI","BLM","USORBUD","Burns District","ORBUD","Burns District","","","C1G7","JUNIPER LAKE","","","","","","2006","2006/07/25 00:00:00+00","206","1051","Natural","Natural","","2006/08/01 00:00:00+00","213","1549","45.6","C","42.9235","-118.386","BLM","OR","Harney","41025","Harney County"
"-118.820486652","42.828794349","340236","348879","W-536924","FED","DOI-WFMI","BLM","USORBUD","Burns District","ORBUD","Burns District","","","C1H5","2348","","","","","","2006","2006/07/25 00:00:00+00","206","1120","Natural","Natural","","2006/07/25 00:00:00+00","206","1800","2.2","B","42.8288","-118.8205","BLM","OR","Harney","41025","Harney County"
"-118.865786465","43.865994271","340237","348880","W-537689","FED","DOI-WFMI","BLM","USORBUD","Burns District","ORBUD","Burns District","","","C1EY","BLACK ROCK","2006_OR-BUD-2349_BLACK ROCK","","","","","2006","2006/07/25 00:00:00+00","206","1321","Natural","Natural","","2006/08/02 00:00:00+00","214","1908","735.2","E","43.866","-118.8658","BLM","OR","Harney","41025","Harney County"
"-118.774386683","42.689894356","340238","348881","W-530997","FED","DOI-WFMI","BLM","USORBUD","Burns District","ORBUD","Burns District","","","C1VW","DESERT MEADOW FIRE","","","","","","2006","2006/07/27 00:00:00+00","208","1843","Natural","Natural","","2006/07/29 00:00:00+00","210","0920","1.1","B","42.6899","-118.7744","BLM","OR","Harney","41025","Harney County"
"-118.927686628","42.865194355","340239","348882","W-537208","FED","DOI-WFMI","BLM","USORBUD","Burns District","ORBUD","Burns District","","","C1XS","PEANUT LAKE","","","","","","2006","2006/07/28 00:00:00+00","209","1311","Natural","Natural","","2006/08/02 00:00:00+00","214","1600","119","D","42.8652","-118.9277","BLM","OR","Harney","41025","Harney County"
"-118.55128662","43.292094287","340240","348883","W-532159","FED","DOI-WFMI","BLM","USORBUD","Burns District","ORBUD","Burns District","","","C2T9","BYE BYE BIRDIE","","","","","","2006","2006/08/06 00:00:00+00","218","0543","Human","Power generation/transmission/distribution","","2006/08/07 00:00:00+00","219","1700","213","D","43.2921","-118.5513","PRIVATE","OR","Harney","41025","Harney County"
"-118.584286778","42.31099437","340241","348884","W-529743","FED","DOI-WFMI","BLM","USORBUD","Burns District","ORBUD","Burns District","","","C2W1","2381","","","","","","2006","2006/08/06 00:00:00+00","218","1942","Natural","Natural","","2006/08/07 00:00:00+00","219","1506","3","B","42.311","-118.5843","BLM","OR","Harney","41025","Harney County"
"-118.534286796","42.24989437","340242","348885","W-530296","FED","DOI-WFMI","BLM","USORBUD","Burns District","ORBUD","Burns District","","","C2WZ","BLACK POINT","","","","","","2006","2006/08/06 00:00:00+00","218","1951","Natural","Natural","","2006/08/08 00:00:00+00","220","1800","195.3","D","42.2499","-118.5343","BLM","OR","Harney","41025","Harney County"
"-118.615686747","42.46379436","340243","348886","W-537566","FED","DOI-WFMI","BLM","USORBUD","Burns District","ORBUD","Burns District","","","C3HW","NATURAL OUT 2383","","","","","","2006","2006/08/06 00:00:00+00","218","2011","Natural","Natural","","2006/08/06 00:00:00+00","218","2104","5","B","42.4638","-118.6157","BLM","OR","Harney","41025","Harney County"
"-118.537386757","42.487094351","340244","348887","W-537170","FED","DOI-WFMI","BLM","USORBUD","Burns District","ORBUD","Burns District","","","C2W0","SERRANO POINT","","","","","","2006","2006/08/06 00:00:00+00","218","2035","Natural","Natural","","2006/08/08 00:00:00+00","220","1100","116.9","D","42.4871","-118.5374","BLM","OR","Harney","41025","Harney County"
"-118.516786784","42.341794361","340245","348888","W-532147","FED","DOI-WFMI","BLM","USORBUD","Burns District","ORBUD","Burns District","","","C20B","BUCK BRUSH SPRING","","","","","","2006","2006/08/07 00:00:00+00","219","1014","Natural","Natural","","2006/08/09 00:00:00+00","221","1400","108.3","D","42.3418","-118.5168","BLM","OR","Harney","41025","Harney County"
"-118.567686739","42.567694347","340246","348889","W-534404","FED","DOI-WFMI","BLM","USORBUD","Burns District","ORBUD","Burns District","","","C2Y2","INDIAN CREEK","","","","","","2006","2006/08/07 00:00:00+00","219","1121","Natural","Natural","","2006/08/09 00:00:00+00","221","0930","2.4","B","42.5677","-118.5677","BLM","OR","Harney","41025","Harney County"
"-118.668186729","42.52379436","340247","348890","W-536477","FED","DOI-WFMI","BLM","USORBUD","Burns District","ORBUD","Burns District","","","C2ZP","NATURAL OUT 2388","","","","","","2006","2006/08/07 00:00:00+00","219","1324","Natural","Natural","","2006/08/07 00:00:00+00","219","1330","0.3","B","42.5238","-118.6682","BLM","OR","Harney","41025","Harney County"
"-119.344986394","43.801794321","340248","348891","W-536838","FED","DOI-WFMI","BLM","USORBUD","Burns District","ORBUD","Burns District","","","C22Z","2392","","","","","","2006","2006/08/07 00:00:00+00","219","1858","Natural","Natural","","2006/08/08 00:00:00+00","220","1230","0.3","B","43.8018","-119.345","PRIVATE","OR","Harney","41025","Harney County"
"-119.168586472","43.528794326","340249","348892","W-530354","FED","DOI-WFMI","BLM","USORBUD","Burns District","ORBUD","Burns District","","","C22X","HORSE CORRAL","","","","","","2006","2006/08/07 00:00:00+00","219","1914","Natural","Natural","","2006/08/07 00:00:00+00","219","2300","3.8","B","43.5288","-119.1686","BLM","OR","Harney","41025","Harney County"
"-119.289686421","43.699894324","340250","348893","W-537250","FED","DOI-WFMI","BLM","USORBUD","Burns District","ORBUD","Burns District","","","C22Y","2395","","","","","","2006","2006/08/07 00:00:00+00","219","1946","Natural","Natural","","2006/08/08 00:00:00+00","220","0700","0.1","A","43.6999","-119.2897","BLM","OR","Harney","41025","Harney County"
"-119.160786476","43.515694326","340251","348894","W-530475","FED","DOI-WFMI","BLM","USORBUD","Burns District","ORBUD","Burns District","","","C22W","2396","","","","","","2006","2006/08/07 00:00:00+00","219","2001","Natural","Natural","","2006/08/07 00:00:00+00","219","2347","5.1","B","43.5157","-119.1608","BLM","OR","Harney","41025","Harney County"
"-119.217686417","43.79599431","340252","348895","W-530648","FED","DOI-WFMI","BLM","USORBUD","Burns District","ORBUD","Burns District","","","C24B","2402","","","","","","2006","2006/08/08 00:00:00+00","220","0705","Natural","Natural","","2006/08/08 00:00:00+00","220","1500","0.1","A","43.796","-119.2177","BLM","OR","Harney","41025","Harney County"
"-119.753586411","43.313494396","340253","348896","W-530892","FED","DOI-WFMI","BLM","USORBUD","Burns District","ORBUD","Burns District","","","C25F","TWINS","","","","","","2006","2006/08/08 00:00:00+00","220","0719","Natural","Natural","","2006/08/08 00:00:00+00","220","1202","0.1","A","43.3135","-119.7536","BLM","OR","Harney","41025","Harney County"
"-118.495186523","43.898794234","340254","348897","W-532994","FED","DOI-WFMI","BLM","USORBUD","Burns District","ORBUD","Burns District","","","C25D","TWO SHED","","","","","","2006","2006/08/08 00:00:00+00","220","0750","Natural","Natural","","2006/08/09 00:00:00+00","221","2000","1.4","B","43.8988","-118.4952","PRIVATE","OR","Harney","41025","Harney County"
"-119.208286496","43.352694343","340255","348898","W-534400","FED","DOI-WFMI","BLM","USORBUD","Burns District","ORBUD","Burns District","","","C28F","FREEMAN BUTTE","2006_OR-BUD-2415_#2415","","","","","2006","2006/08/08 00:00:00+00","220","1344","Natural","Natural","","2006/08/10 00:00:00+00","222","1549","229.3","D","43.3527","-119.2083","PRIVATE","OR","Harney","41025","Harney County"
"-118.901586667","42.65429437","340256","348899","W-531445","FED","DOI-WFMI","BLM","USORBUD","Burns District","ORBUD","Burns District","","","C3HC","2422","","","","","","2006","2006/08/08 00:00:00+00","220","1712","Natural","Natural","","2006/08/08 00:00:00+00","220","1900","0.1","A","42.6543","-118.9016","BLM","OR","Harney","41025","Harney County"
"-118.933486656","42.68819437","340257","348900","W-531269","FED","DOI-WFMI","BLM","USORBUD","Burns District","ORBUD","Burns District","","","C3HD","TURTLEHEAD FIRE","","","","","","2006","2006/08/08 00:00:00+00","220","2201","Natural","Natural","","2006/08/09 00:00:00+00","221","0940","0.1","A","42.6882","-118.9335","BLM","OR","Harney","41025","Harney County"
"-119.310786412","43.731294323","340258","348901","W-537246","FED","DOI-WFMI","BLM","USORBUD","Burns District","ORBUD","Burns District","","","C3GY","2428","","","","","","2006","2006/08/09 00:00:00+00","221","1121","Natural","Natural","","2006/08/09 00:00:00+00","221","1931","1.3","B","43.7313","-119.3108","PRIVATE","OR","Harney","41025","Harney County"
"-118.98268653","43.38129432","340259","348902","W-536701","FED","DOI-WFMI","BLM","USORBUD","Burns District","ORBUD","Burns District","","","CK59","2345","","","","","","2006","2006/08/10 00:00:00+00","222","1413","Human","Debris and open burning","","2006/08/10 00:00:00+00","222","1430","0.3","B","43.3813","-118.9827","PRIVATE","OR","Harney","41025","Harney County"
"-119.136586477","43.531494322","340260","348903","W-537212","FED","DOI-WFMI","BLM","USORBUD","Burns District","ORBUD","Burns District","","","C3LU","2437","","","","","","2006","2006/08/10 00:00:00+00","222","1515","Natural","Natural","","2006/08/10 00:00:00+00","222","1755","0.7","B","43.5315","-119.1366","PRIVATE","OR","Harney","41025","Harney County"
"-118.909886452","43.895994273","340261","348904","W-531211","FED","DOI-WFMI","BLM","USORBUD","Burns District","ORBUD","Burns District","","","C3LV","R PURDY","","","","","","2006","2006/08/10 00:00:00+00","222","1537","Natural","Natural","","2006/08/10 00:00:00+00","222","2100","0.3","B","43.896","-118.9099","PRIVATE","OR","Harney","41025","Harney County"
"-119.557486317","44.027394325","340262","348905","W-533651","FED","DOI-WFMI","BLM","USORBUD","Burns District","ORBUD","Burns District","","","C3QE","2450","","","","","","2006","2006/08/11 00:00:00+00","223","1442","Natural","Natural","","2006/08/11 00:00:00+00","223","1954","0.3","B","44.0274","-119.5575","PRIVATE","OR","Harney","41025","Harney County"
"-118.659386561","43.521794279","340263","348906","W-532192","FED","DOI-WFMI","BLM","USORBUD","Burns District","ORBUD","Burns District","","","C3UL","2452","","","","","","2006","2006/08/12 00:00:00+00","224","1505","Human","Power generation/transmission/distribution","","2006/08/12 00:00:00+00","224","2000","15.3","C","43.5218","-118.6594","PRIVATE","OR","Harney","41025","Harney County"
"-119.449986388","43.735394336","340264","348907","W-530294","FED","DOI-WFMI","BLM","USORBUD","Burns District","ORBUD","Burns District","","","C37X","EMIGRANT BUTTE","","","","","","2006","2006/08/15 00:00:00+00","227","1332","Natural","Natural","","2006/08/15 00:00:00+00","227","1820","0.3","B","43.7354","-119.45","BLM","OR","Harney","41025","Harney County"
"-118.2795867","43.102894277","340265","348908","W-532184","FED","DOI-WFMI","BLM","USORBUD","Burns District","ORBUD","Burns District","","","C37Z","2460","","","","","","2006","2006/08/15 00:00:00+00","227","1535","Natural","Natural","","2006/08/16 00:00:00+00","228","1600","1","B","43.1029","-118.2796","STATE","OR","Harney","41025","Harney County"
"-118.490186809","42.214094369","340266","348909","W-532206","FED","DOI-WFMI","BLM","USORBUD","Burns District","ORBUD","Burns District","","","C38T","TROUT CREEK","2006_OR-BUD-2461_TROUT CREEK","","OR4222911849320060815","TROUT CREEK","","2006","2006/08/15 00:00:00+00","227","1824","Natural","Natural","","2006/08/18 00:00:00+00","230","1200","1206.8","F","42.2141","-118.4902","BLM","OR","Harney","41025","Harney County"
"-118.902186444","43.945194269","340267","348910","W-537113","FED","DOI-WFMI","BLM","USORBUD","Burns District","ORBUD","Burns District","","","C4CX","3 PINES","","","","","","2006","2006/08/16 00:00:00+00","228","1554","Natural","Natural","","2006/08/16 00:00:00+00","228","1800","0.1","A","43.9452","-118.9022","PRIVATE","OR","Harney","41025","Harney County"
"-119.006586625","42.798794368","340268","348911","W-536470","FED","DOI-WFMI","BLM","USORBUD","Burns District","ORBUD","Burns District","","","C4K4","NATURAL OUT 2474","","","","","","2006","2006/08/16 00:00:00+00","228","1847","Natural","Natural","","2006/08/17 00:00:00+00","229","1219","0.3","B","42.7988","-119.0066","BLM","OR","Harney","41025","Harney County"
"-118.558786617","43.303494287","340269","348912","W-532236","FED","DOI-WFMI","BLM","USORBUD","Burns District","ORBUD","Burns District","","","C4C2","2475","","","","","","2006","2006/08/16 00:00:00+00","228","1900","Natural","Natural","","2006/08/17 00:00:00+00","229","1400","7.2","B","43.3035","-118.5588","PRIVATE","OR","Harney","41025","Harney County"
"-118.322086714","42.975194292","340270","348913","W-532037","FED","DOI-WFMI","BLM","USORBUD","Burns District","ORBUD","Burns District","","","C4E6","15 CENT LAKE","","","","","","2006","2006/08/17 00:00:00+00","229","1332","Natural","Natural","","2006/08/27 00:00:00+00","239","1156","4.4","B","42.9752","-118.3221","BLM","OR","Harney","41025","Harney County"
"-118.326886715","42.964594293","340271","348914","W-532233","FED","DOI-WFMI","BLM","USORBUD","Burns District","ORBUD","Burns District","","","C4E7","15 CENT  II","","","","","","2006","2006/08/17 00:00:00+00","229","1412","Natural","Natural","","2006/08/19 00:00:00+00","231","1330","0.1","A","42.9646","-118.3269","BLM","OR","Harney","41025","Harney County"
"-118.98988652","43.432394316","340272","348915","W-535567","FED","DOI-WFMI","BLM","USORBUD","Burns District","ORBUD","Burns District","","","CK59","BACK YARD","","","","","","2006","2006/08/21 00:00:00+00","233","1259","Human","Equipment and vehicle use","","2006/08/21 00:00:00+00","233","1330","2","B","43.4324","-118.9899","PRIVATE","OR","Harney","41025","Harney County"
