"ï»¿X","Y","OBJECTID","FOD_ID","FPA_ID","SOURCE_SYSTEM_TYPE","SOURCE_SYSTEM","NWCG_REPORTING_AGENCY","NWCG_REPORTING_UNIT_ID","NWCG_REPORTING_UNIT_NAME","SOURCE_REPORTING_UNIT","SOURCE_REPORTING_UNIT_NAME","LOCAL_FIRE_REPORT_ID","LOCAL_INCIDENT_ID","FIRE_CODE","FIRE_NAME","ICS_209_PLUS_INCIDENT_JOIN_ID","ICS_209_PLUS_COMPLEX_JOIN_ID","MTBS_ID","MTBS_FIRE_NAME","COMPLEX_NAME","FIRE_YEAR","DISCOVERY_DATE","DISCOVERY_DOY","DISCOVERY_TIME","NWCG_CAUSE_CLASSIFICATION","NWCG_GENERAL_CAUSE","NWCG_CAUSE_AGE_CATEGORY","CONT_DATE","CONT_DOY","CONT_TIME","FIRE_SIZE","FIRE_SIZE_CLASS","LATITUDE","LONGITUDE","OWNER_DESCR","STATE","COUNTY","FIPS_CODE","FIPS_NAME"
"-102.48599002","43.341692914","180001","182170","W-312187","FED","DOI-WFMI","BIA","USSDPRA","Pine Ridge Agency","SDPRA","Pine Ridge Agency","195","","","WK.CREEK 2","","","","","","1995","1995/09/15 00:00:00+00","258","1530","Human","Arson/incendiarism","","1995/09/15 00:00:00+00","258","2000","874","E","43.3417","-102.486","BIA","SD","","",""
"-102.244890082","43.329192897","180002","182171","W-312189","FED","DOI-WFMI","BIA","USSDPRA","Pine Ridge Agency","SDPRA","Pine Ridge Agency","197","","","EVERGREEN","","","","","","1995","1995/09/17 00:00:00+00","260","0930","Human","Debris and open burning","","1995/09/17 00:00:00+00","260","1020","1.5","B","43.3292","-102.2449","BIA","SD","","",""
"-102.697690011","43.040292969","180003","182172","W-312193","FED","DOI-WFMI","BIA","USSDPRA","Pine Ridge Agency","SDPRA","Pine Ridge Agency","201","","","JEEP","","","","","","1995","1995/09/20 00:00:00+00","263","2030","Human","Equipment and vehicle use","","1995/09/20 00:00:00+00","263","2055","0.1","A","43.0403","-102.6977","BIA","SD","","",""
"-102.54769005","43.030492959","180004","182173","W-312194","FED","DOI-WFMI","BIA","USSDPRA","Pine Ridge Agency","SDPRA","Pine Ridge Agency","202","","","JUNGLE","","","","","","1995","1995/09/23 00:00:00+00","266","1430","Human","Misuse of fire by a minor","Minor","1995/09/23 00:00:00+00","266","1450","0.1","A","43.0305","-102.5477","BIA","SD","","",""
"-102.538790052","43.028292959","180005","182174","W-312195","FED","DOI-WFMI","BIA","USSDPRA","Pine Ridge Agency","SDPRA","Pine Ridge Agency","203","","","MEANS","","","","","","1995","1995/09/23 00:00:00+00","266","1500","Human","Debris and open burning","","1995/09/23 00:00:00+00","266","1520","0.5","B","43.0283","-102.5388","BIA","SD","","",""
"-102.559290047","43.03049296","180006","182175","W-312196","FED","DOI-WFMI","BIA","USSDPRA","Pine Ridge Agency","SDPRA","Pine Ridge Agency","204","","","MOSS TWO","","","","","","1995","1995/09/24 00:00:00+00","267","1535","Human","Debris and open burning","","1995/09/24 00:00:00+00","267","1555","0.1","A","43.0305","-102.5593","BIA","SD","","",""
"-102.812989976","43.088892972","180007","182176","W-312198","FED","DOI-WFMI","BIA","USSDPRA","Pine Ridge Agency","SDPRA","Pine Ridge Agency","206","","","SLIM BUTTE","","","","","","1995","1995/09/25 00:00:00+00","268","1430","Human","Arson/incendiarism","","1995/09/25 00:00:00+00","268","1640","5","B","43.0889","-102.813","BIA","SD","","",""
"-102.564090046","43.028592961","180008","182177","W-312197","FED","DOI-WFMI","BIA","USSDPRA","Pine Ridge Agency","SDPRA","Pine Ridge Agency","205","","","BURNT HOSE","","","","","","1995","1995/09/25 00:00:00+00","268","1615","Human","Misuse of fire by a minor","Minor","1995/09/25 00:00:00+00","268","1630","0.5","B","43.0286","-102.5641","BIA","SD","","",""
"-102.779289967","43.206392954","180009","182178","W-312201","FED","DOI-WFMI","BIA","USSDPRA","Pine Ridge Agency","SDPRA","Pine Ridge Agency","209","","","OGLALADUMP","","","","","","1995","1995/09/27 00:00:00+00","270","0700","Human","Debris and open burning","","1995/09/27 00:00:00+00","270","0755","0.1","A","43.2064","-102.7793","BIA","SD","","",""
"-102.545190051","43.02279296","180010","182179","W-312200","FED","DOI-WFMI","BIA","USSDPRA","Pine Ridge Agency","SDPRA","Pine Ridge Agency","208","","","LABEAU","","","","","","1995","1995/09/27 00:00:00+00","270","2100","Human","Other causes","","1995/09/27 00:00:00+00","270","2145","0.1","A","43.0228","-102.5452","BIA","SD","","",""
"-102.857689976","43.011592985","180011","182180","W-312202","FED","DOI-WFMI","BIA","USSDPRA","Pine Ridge Agency","SDPRA","Pine Ridge Agency","210","","","BUTTES","","","","","","1995","1995/09/28 00:00:00+00","271","1330","Human","Debris and open burning","","1995/09/28 00:00:00+00","271","1430","1","B","43.0116","-102.8577","BIA","SD","","",""
"-102.363190079","43.14499293","180012","182181","W-312205","FED","DOI-WFMI","BIA","USSDPRA","Pine Ridge Agency","SDPRA","Pine Ridge Agency","213","","","SHADE","","","","","","1995","1995/10/02 00:00:00+00","275","2200","Human","Debris and open burning","","1995/10/02 00:00:00+00","275","2230","0.1","A","43.145","-102.3632","BIA","SD","","",""
"-102.564290046","43.027792961","180013","182182","W-312206","FED","DOI-WFMI","BIA","USSDPRA","Pine Ridge Agency","SDPRA","Pine Ridge Agency","214","","","DUMPSTER","","","","","","1995","1995/10/07 00:00:00+00","280","1300","Human","Debris and open burning","","1995/10/07 00:00:00+00","280","1315","0.1","A","43.0278","-102.5643","BIA","SD","","",""
"-102.549090051","43.02079296","180014","182183","W-312207","FED","DOI-WFMI","BIA","USSDPRA","Pine Ridge Agency","SDPRA","Pine Ridge Agency","215","","","GOINGS 2","","","","","","1995","1995/10/07 00:00:00+00","280","1830","Human","Misuse of fire by a minor","Minor","1995/10/07 00:00:00+00","280","1850","0.1","A","43.0208","-102.5491","BIA","SD","","",""
"-102.779289967","43.206392954","180015","182184","W-312208","FED","DOI-WFMI","BIA","USSDPRA","Pine Ridge Agency","SDPRA","Pine Ridge Agency","216","","","OG.DUMP 2","","","","","","1995","1995/10/10 00:00:00+00","283","1830","Human","Debris and open burning","","1995/10/10 00:00:00+00","283","1920","0.1","A","43.2064","-102.7793","BIA","SD","","",""
"-101.880990183","43.255592878","180016","182185","W-312209","FED","DOI-WFMI","BIA","USSDPRA","Pine Ridge Agency","SDPRA","Pine Ridge Agency","217","","","ALLEN","","","","","","1995","1995/10/12 00:00:00+00","285","1145","Human","Debris and open burning","","1995/10/12 00:00:00+00","285","1700","400","E","43.2556","-101.881","BIA","SD","","",""
"-102.00039019","42.999992921","180017","182186","W-312211","FED","DOI-WFMI","BIA","USSDPRA","Pine Ridge Agency","SDPRA","Pine Ridge Agency","219","","","THUNDER","","","","","","1995","1995/10/14 00:00:00+00","287","1630","Human","Debris and open burning","","1995/10/14 00:00:00+00","287","1700","0.5","B","43","-102.0004","BIA","SD","","",""
"-102.636790015","43.116892955","180018","182187","W-312212","FED","DOI-WFMI","BIA","USSDPRA","Pine Ridge Agency","SDPRA","Pine Ridge Agency","220","","","MANNY","","","","","","1995","1995/10/15 00:00:00+00","288","1130","Human","Debris and open burning","","1995/10/15 00:00:00+00","288","1155","1","B","43.1169","-102.6368","BIA","SD","","",""
"-102.54629005","43.029192959","180019","182188","W-312213","FED","DOI-WFMI","BIA","USSDPRA","Pine Ridge Agency","SDPRA","Pine Ridge Agency","221","","","CHEVY","","","","","","1995","1995/10/15 00:00:00+00","288","1815","Human","Equipment and vehicle use","","1995/10/15 00:00:00+00","288","1840","0.1","A","43.0292","-102.5463","BIA","SD","","",""
"-102.35769008","43.145792929","180020","182189","W-312215","FED","DOI-WFMI","BIA","USSDPRA","Pine Ridge Agency","SDPRA","Pine Ridge Agency","223","","","HUNTHORSE3","","","","","","1995","1995/10/16 00:00:00+00","289","2230","Human","Debris and open burning","","1995/10/16 00:00:00+00","289","2320","1","B","43.1458","-102.3577","BIA","SD","","",""
"-102.876289885","43.609192909","180021","182190","W-312216","FED","DOI-WFMI","BIA","USSDPRA","Pine Ridge Agency","SDPRA","Pine Ridge Agency","224","","","BUD","","","","","","1995","1995/10/18 00:00:00+00","291","1500","Human","Smoking","","1995/10/18 00:00:00+00","291","1700","1","B","43.6092","-102.8763","BIA","SD","","",""
"-102.540390056","43.001392962","180022","182191","W-312217","FED","DOI-WFMI","BIA","USSDPRA","Pine Ridge Agency","SDPRA","Pine Ridge Agency","225","","","BAGOLA","","","","","","1995","1995/10/19 00:00:00+00","292","1300","Human","Debris and open burning","","1995/10/19 00:00:00+00","292","1340","0.1","A","43.0014","-102.5404","BIA","SD","","",""
"-102.801789978","43.09579297","180023","182192","W-312218","FED","DOI-WFMI","BIA","USSDPRA","Pine Ridge Agency","SDPRA","Pine Ridge Agency","226","","","JANIS CR.","","","","","","1995","1995/10/19 00:00:00+00","292","1615","Human","Arson/incendiarism","","1995/10/19 00:00:00+00","292","1700","5","B","43.0958","-102.8018","BIA","SD","","",""
"-102.879589895","43.533292919","180024","182193","W-312220","FED","DOI-WFMI","BIA","USSDPRA","Pine Ridge Agency","SDPRA","Pine Ridge Agency","228","","","AUTO GATE","","","","","","1995","1995/10/21 00:00:00+00","294","1720","Human","Arson/incendiarism","","1995/10/21 00:00:00+00","294","1830","0.1","A","43.5333","-102.8796","BIA","SD","","",""
"-102.551290049","43.02669296","180025","182194","W-312221","FED","DOI-WFMI","BIA","USSDPRA","Pine Ridge Agency","SDPRA","Pine Ridge Agency","229","","","HARD HEART","","","","","","1995","1995/10/22 00:00:00+00","295","0500","Human","Other causes","","1995/10/22 00:00:00+00","295","0630","0.1","A","43.0267","-102.5513","BIA","SD","","",""
"-102.332390074","43.233592916","180026","182195","W-312222","FED","DOI-WFMI","BIA","USSDPRA","Pine Ridge Agency","SDPRA","Pine Ridge Agency","230","","","RENDON","","","","","","1995","1995/10/23 00:00:00+00","296","0205","Human","Other causes","","1995/10/23 00:00:00+00","296","0405","0.1","A","43.2336","-102.3324","BIA","SD","","",""
"-102.149290108","43.314992891","180027","182196","W-312224","FED","DOI-WFMI","BIA","USSDPRA","Pine Ridge Agency","SDPRA","Pine Ridge Agency","232","","","EVER DUMP2","","","","","","1995","1995/10/29 00:00:00+00","302","1220","Human","Debris and open burning","","1995/10/29 00:00:00+00","302","1330","1","B","43.315","-102.1493","BIA","SD","","",""
"-102.551790049","43.030492959","180028","182197","W-312225","FED","DOI-WFMI","BIA","USSDPRA","Pine Ridge Agency","SDPRA","Pine Ridge Agency","233","","","VALENDRY","","","","","","1995","1995/10/30 00:00:00+00","303","1730","Human","Other causes","","1995/10/30 00:00:00+00","303","1750","0.1","A","43.0305","-102.5518","BIA","SD","","",""
"-102.564290046","43.024992961","180029","182198","W-312227","FED","DOI-WFMI","BIA","USSDPRA","Pine Ridge Agency","SDPRA","Pine Ridge Agency","235","","","BIG NELLIE","","","","","","1995","1995/11/03 00:00:00+00","307","1030","Human","Other causes","","1995/11/03 00:00:00+00","307","1115","0.1","A","43.025","-102.5643","BIA","SD","","",""
"-102.462890036","43.270792921","180030","182199","W-312228","FED","DOI-WFMI","BIA","USSDPRA","Pine Ridge Agency","SDPRA","Pine Ridge Agency","236","","","FAST EAGLE","","","","","","1995","1995/11/07 00:00:00+00","311","2350","Human","Other causes","","1995/11/08 00:00:00+00","312","0130","0.1","A","43.2708","-102.4629","BIA","SD","","",""
"-102.812389969","43.138592965","180031","182200","W-312229","FED","DOI-WFMI","BIA","USSDPRA","Pine Ridge Agency","SDPRA","Pine Ridge Agency","237","","","SLIMBUTTE2","","","","","","1995","1995/11/14 00:00:00+00","318","1430","Human","Debris and open burning","","1995/11/14 00:00:00+00","318","1530","10","C","43.1386","-102.8124","BIA","SD","","",""
"-102.54629005","43.027792959","180032","182201","W-312230","FED","DOI-WFMI","BIA","USSDPRA","Pine Ridge Agency","SDPRA","Pine Ridge Agency","238","","","EAST R.106","","","","","","1995","1995/11/17 00:00:00+00","321","2200","Human","Other causes","","1995/11/17 00:00:00+00","321","2250","0.1","A","43.0278","-102.5463","BIA","SD","","",""
"-102.67599","43.153592953","180033","182202","W-312231","FED","DOI-WFMI","BIA","USSDPRA","Pine Ridge Agency","SDPRA","Pine Ridge Agency","239","","","MORMON 2","","","","","","1995","1995/11/18 00:00:00+00","322","1430","Human","Debris and open burning","","1995/11/18 00:00:00+00","322","1520","3","B","43.1536","-102.676","BIA","SD","","",""
"-102.560190045","43.040292959","180034","182203","W-312232","FED","DOI-WFMI","BIA","USSDPRA","Pine Ridge Agency","SDPRA","Pine Ridge Agency","240","","","FURMAN 2","","","","","","1995","1995/11/18 00:00:00+00","322","1430","Human","Misuse of fire by a minor","Minor","1995/11/18 00:00:00+00","322","1500","1.5","B","43.0403","-102.5602","BIA","SD","","",""
"-102.589290039","43.036092962","180035","182204","W-312234","FED","DOI-WFMI","BIA","USSDPRA","Pine Ridge Agency","SDPRA","Pine Ridge Agency","242","","","JANIS","","","","","","1995","1995/11/21 00:00:00+00","325","1300","Human","Other causes","","1995/11/21 00:00:00+00","325","1330","0.1","A","43.0361","-102.5893","BIA","SD","","",""
"-102.547690048","43.044392957","180036","182205","W-312235","FED","DOI-WFMI","BIA","USSDPRA","Pine Ridge Agency","SDPRA","Pine Ridge Agency","243","","","CAR","","","","","","1995","1995/11/22 00:00:00+00","326","1900","Human","Equipment and vehicle use","","1995/11/22 00:00:00+00","326","1930","0.1","A","43.0444","-102.5477","BIA","SD","","",""
"-102.611590025","43.090292956","180037","182206","W-312236","FED","DOI-WFMI","BIA","USSDPRA","Pine Ridge Agency","SDPRA","Pine Ridge Agency","244","","","CALICO BGD","","","","","","1995","1995/11/23 00:00:00+00","327","1415","Human","Debris and open burning","","1995/11/23 00:00:00+00","327","1510","10","C","43.0903","-102.6116","BIA","SD","","",""
"-102.426790083","43.005492953","180038","182207","W-312237","FED","DOI-WFMI","BIA","USSDPRA","Pine Ridge Agency","SDPRA","Pine Ridge Agency","245","","","STATE LINE","","","","","","1995","1995/11/25 00:00:00+00","329","1400","Human","Debris and open burning","","1995/11/25 00:00:00+00","329","1500","30","C","43.0055","-102.4268","BIA","SD","","",""
"-102.757389976","43.187492955","180039","182208","W-312238","FED","DOI-WFMI","BIA","USSDPRA","Pine Ridge Agency","SDPRA","Pine Ridge Agency","246","","","BRIDGE","","","","","","1995","1995/11/25 00:00:00+00","329","1530","Human","Equipment and vehicle use","","1995/11/25 00:00:00+00","329","1615","1","B","43.1875","-102.7574","BIA","SD","","",""
"-102.555990049","43.021692961","180040","182209","W-312240","FED","DOI-WFMI","BIA","USSDPRA","Pine Ridge Agency","SDPRA","Pine Ridge Agency","248","","","POND","","","","","","1995","1995/11/29 00:00:00+00","333","1635","Human","Equipment and vehicle use","","1995/11/29 00:00:00+00","333","1650","0.1","A","43.0217","-102.556","BIA","SD","","",""
"-102.54959005","43.02549296","180041","182210","W-312242","FED","DOI-WFMI","BIA","USSDPRA","Pine Ridge Agency","SDPRA","Pine Ridge Agency","250","","","COUGAR","","","","","","1995","1995/12/02 00:00:00+00","336","0600","Human","Equipment and vehicle use","","1995/12/02 00:00:00+00","336","0700","0.1","A","43.0255","-102.5496","BIA","SD","","",""
"-102.498490062","43.029192956","180042","182211","W-312243","FED","DOI-WFMI","BIA","USSDPRA","Pine Ridge Agency","SDPRA","Pine Ridge Agency","251","","","CATCHES 2","","","","","","1995","1995/12/03 00:00:00+00","337","1445","Human","Misuse of fire by a minor","Minor","1995/12/03 00:00:00+00","337","1500","0.1","A","43.0292","-102.4985","BIA","SD","","",""
"-102.732389982","43.184192953","180043","182212","W-312244","FED","DOI-WFMI","BIA","USSDPRA","Pine Ridge Agency","SDPRA","Pine Ridge Agency","252","","","G-BEAR","","","","","","1995","1995/12/04 00:00:00+00","338","1600","Human","Misuse of fire by a minor","Minor","1995/12/04 00:00:00+00","338","1650","2","B","43.1842","-102.7324","BIA","SD","","",""
"-102.337890071","43.241692915","180044","182213","W-312245","FED","DOI-WFMI","BIA","USSDPRA","Pine Ridge Agency","SDPRA","Pine Ridge Agency","253","","","10-49","","","","","","1995","1995/12/04 00:00:00+00","338","1630","Human","Smoking","","1995/12/04 00:00:00+00","338","1730","0.2","A","43.2417","-102.3379","BIA","SD","","",""
"-102.554590048","43.031892959","180045","182214","W-312246","FED","DOI-WFMI","BIA","USSDPRA","Pine Ridge Agency","SDPRA","Pine Ridge Agency","254","","","BACKSIDE","","","","","","1995","1995/12/04 00:00:00+00","338","1650","Human","Misuse of fire by a minor","Minor","1995/12/04 00:00:00+00","338","1710","0.1","A","43.0319","-102.5546","BIA","SD","","",""
"-102.586290041","43.024192963","180046","182215","W-312247","FED","DOI-WFMI","BIA","USSDPRA","Pine Ridge Agency","SDPRA","Pine Ridge Agency","255","","","LONNIE","","","","","","1995","1995/12/05 00:00:00+00","339","1500","Human","Other causes","","1995/12/05 00:00:00+00","339","1530","0.1","A","43.0242","-102.5863","BIA","SD","","",""
"-102.467090065","43.061092949","180047","182216","W-312248","FED","DOI-WFMI","BIA","USSDPRA","Pine Ridge Agency","SDPRA","Pine Ridge Agency","256","","","WOLF CREEK","","","","","","1995","1995/12/09 00:00:00+00","343","1500","Human","Other causes","","1995/12/09 00:00:00+00","343","1530","0.1","A","43.0611","-102.4671","BIA","SD","","",""
"-102.646290012","43.121092955","180048","182217","W-312249","FED","DOI-WFMI","BIA","USSDPRA","Pine Ridge Agency","SDPRA","Pine Ridge Agency","257","","","JIMMY JOHN","","","","","","1995","1995/12/13 00:00:00+00","347","1420","Human","Debris and open burning","","1995/12/13 00:00:00+00","347","1500","5","B","43.1211","-102.6463","BIA","SD","","",""
"-102.64909001","43.131892954","180049","182218","W-312250","FED","DOI-WFMI","BIA","USSDPRA","Pine Ridge Agency","SDPRA","Pine Ridge Agency","258","","","TWO BULLS2","","","","","","1995","1995/12/21 00:00:00+00","355","0700","Human","Other causes","","1995/12/21 00:00:00+00","355","0815","0.1","A","43.1319","-102.6491","BIA","SD","","",""
"-102.559590047","43.02999296","180050","182219","W-312251","FED","DOI-WFMI","BIA","USSDPRA","Pine Ridge Agency","SDPRA","Pine Ridge Agency","259","","","DARLENE","","","","","","1995","1995/12/26 00:00:00+00","360","1715","Human","Equipment and vehicle use","","1995/12/26 00:00:00+00","360","1755","0.1","A","43.03","-102.5596","BIA","SD","","",""
"-102.371290077","43.14579293","180051","182220","W-312252","FED","DOI-WFMI","BIA","USSDPRA","Pine Ridge Agency","SDPRA","Pine Ridge Agency","260","","","WK HOUSING","","","","","","1995","1995/12/30 00:00:00+00","364","1345","Human","Misuse of fire by a minor","Minor","1995/12/30 00:00:00+00","364","1445","2","B","43.1458","-102.3713","BIA","SD","","",""
"-102.556790048","43.02999296","180052","182221","W-312253","FED","DOI-WFMI","BIA","USSDPRA","Pine Ridge Agency","SDPRA","Pine Ridge Agency","1","","","RICHARDS","","","","","","1996","1996/01/15 00:00:00+00","15","1205","Human","Misuse of fire by a minor","Minor","1996/01/15 00:00:00+00","15","1230","0.1","A","43.03","-102.5568","BIA","SD","","",""
"-102.568490049","42.999992965","180053","182222","W-312254","FED","DOI-WFMI","BIA","USSDPRA","Pine Ridge Agency","SDPRA","Pine Ridge Agency","2","","","SOUTH DAM","","","","","","1996","1996/01/15 00:00:00+00","15","1500","Human","Equipment and vehicle use","","1996/01/15 00:00:00+00","15","1545","0.1","A","43","-102.5685","BIA","SD","","",""
"-102.553190049","43.02919296","180054","182223","W-312255","FED","DOI-WFMI","BIA","USSDPRA","Pine Ridge Agency","SDPRA","Pine Ridge Agency","3","","","GALIGO","","","","","","1996","1996/01/15 00:00:00+00","15","1750","Human","Other causes","","1996/01/15 00:00:00+00","15","1830","0.1","A","43.0292","-102.5532","BIA","SD","","",""
"-102.54819005","43.028892959","180055","182224","W-312257","FED","DOI-WFMI","BIA","USSDPRA","Pine Ridge Agency","SDPRA","Pine Ridge Agency","5","","","GOINGS","","","","","","1996","1996/01/22 00:00:00+00","22","1430","Human","Other causes","","1996/01/22 00:00:00+00","22","1450","0.1","A","43.0289","-102.5482","BIA","SD","","",""
"-102.543490051","43.029192959","180056","182225","W-312258","FED","DOI-WFMI","BIA","USSDPRA","Pine Ridge Agency","SDPRA","Pine Ridge Agency","6","","","QUIVER","","","","","","1996","1996/01/23 00:00:00+00","23","0200","Human","Other causes","","1996/01/23 00:00:00+00","23","0230","0.1","A","43.0292","-102.5435","BIA","SD","","",""
"-102.64909001","43.131892954","180057","182226","W-312259","FED","DOI-WFMI","BIA","USSDPRA","Pine Ridge Agency","SDPRA","Pine Ridge Agency","7","","","WEASELBEAR","","","","","","1996","1996/02/03 00:00:00+00","34","1330","Human","Equipment and vehicle use","","1996/02/03 00:00:00+00","34","1405","0.1","A","43.1319","-102.6491","BIA","SD","","",""
"-102.33959007","43.251692914","180058","182227","W-312260","FED","DOI-WFMI","BIA","USSDPRA","Pine Ridge Agency","SDPRA","Pine Ridge Agency","8","","","GUY BIRD","","","","","","1996","1996/02/05 00:00:00+00","36","1525","Human","Other causes","","1996/02/05 00:00:00+00","36","1630","0.5","B","43.2517","-102.3396","BIA","SD","","",""
"-102.55129005","43.020492961","180059","182228","W-312261","FED","DOI-WFMI","BIA","USSDPRA","Pine Ridge Agency","SDPRA","Pine Ridge Agency","9","","","FENCE","","","","","","1996","1996/02/12 00:00:00+00","43","1330","Human","Debris and open burning","","1996/02/12 00:00:00+00","43","1345","0.1","A","43.0205","-102.5513","BIA","SD","","",""
"-102.557090049","43.020492961","180060","182229","W-312262","FED","DOI-WFMI","BIA","USSDPRA","Pine Ridge Agency","SDPRA","Pine Ridge Agency","10","","","NATE","","","","","","1996","1996/02/12 00:00:00+00","43","1625","Human","Misuse of fire by a minor","Minor","1996/02/12 00:00:00+00","43","1645","0.1","A","43.0205","-102.5571","BIA","SD","","",""
"-102.33959007","43.251692914","180061","182230","W-312263","FED","DOI-WFMI","BIA","USSDPRA","Pine Ridge Agency","SDPRA","Pine Ridge Agency","11","","","IROC","","","","","","1996","1996/02/12 00:00:00+00","43","1945","Human","Equipment and vehicle use","","1996/02/12 00:00:00+00","43","2030","0.1","A","43.2517","-102.3396","BIA","SD","","",""
"-102.328190102","43.04669294","180062","182231","W-312264","FED","DOI-WFMI","BIA","USSDPRA","Pine Ridge Agency","SDPRA","Pine Ridge Agency","12","","","DENBY","","","","","","1996","1996/02/14 00:00:00+00","45","1730","Human","Equipment and vehicle use","","1996/02/14 00:00:00+00","45","2130","2","B","43.0467","-102.3282","BIA","SD","","",""
"-102.639590014","43.125292954","180063","182232","W-312265","FED","DOI-WFMI","BIA","USSDPRA","Pine Ridge Agency","SDPRA","Pine Ridge Agency","13","","","TWO BULLS","","","","","","1996","1996/02/16 00:00:00+00","47","1100","Human","Debris and open burning","","1996/02/16 00:00:00+00","47","1300","30","C","43.1253","-102.6396","BIA","SD","","",""
"-102.561590047","43.026392961","180064","182233","W-312267","FED","DOI-WFMI","BIA","USSDPRA","Pine Ridge Agency","SDPRA","Pine Ridge Agency","15","","","YOUTH","","","","","","1996","1996/02/17 00:00:00+00","48","2100","Human","Equipment and vehicle use","","1996/02/17 00:00:00+00","48","2120","0.1","A","43.0264","-102.5616","BIA","SD","","",""
"-102.312390077","43.247792913","180065","182234","W-312268","FED","DOI-WFMI","BIA","USSDPRA","Pine Ridge Agency","SDPRA","Pine Ridge Agency","16","","","BYERLY","","","","","","1996","1996/02/18 00:00:00+00","49","1400","Human","Debris and open burning","","1996/02/18 00:00:00+00","49","1445","1","B","43.2478","-102.3124","BIA","SD","","",""
"-102.000390156","43.23609289","180066","182235","W-312269","FED","DOI-WFMI","BIA","USSDPRA","Pine Ridge Agency","SDPRA","Pine Ridge Agency","17","","","MARTIN","","","","","","1996","1996/02/18 00:00:00+00","49","1645","Human","Misuse of fire by a minor","Minor","1996/02/18 00:00:00+00","49","1730","1","B","43.2361","-102.0004","BIA","SD","","",""
"-102.676790001","43.146892954","180067","182236","W-312270","FED","DOI-WFMI","BIA","USSDPRA","Pine Ridge Agency","SDPRA","Pine Ridge Agency","18","","","MAGPIE","","","","","","1996","1996/02/19 00:00:00+00","50","1500","Human","Misuse of fire by a minor","Minor","1996/02/19 00:00:00+00","50","1540","0.5","B","43.1469","-102.6768","BIA","SD","","",""
"-102.785689965","43.210292954","180068","182237","W-312272","FED","DOI-WFMI","BIA","USSDPRA","Pine Ridge Agency","SDPRA","Pine Ridge Agency","20","","","LONEMAN N.","","","","","","1996","1996/02/20 00:00:00+00","51","1100","Human","Smoking","","1996/02/20 00:00:00+00","51","1300","5","B","43.2103","-102.7857","BIA","SD","","",""
"-102.583190042","43.026392962","180069","182238","W-312274","FED","DOI-WFMI","BIA","USSDPRA","Pine Ridge Agency","SDPRA","Pine Ridge Agency","22","","","RED CLOUD","","","","","","1996","1996/02/20 00:00:00+00","51","1755","Human","Debris and open burning","","1996/02/20 00:00:00+00","51","1815","0.2","A","43.0264","-102.5832","BIA","SD","","",""
"-102.560190047","43.026392961","180070","182239","W-312275","FED","DOI-WFMI","BIA","USSDPRA","Pine Ridge Agency","SDPRA","Pine Ridge Agency","23","","","SEED","","","","","","1996","1996/02/21 00:00:00+00","52","0745","Human","Equipment and vehicle use","","1996/02/21 00:00:00+00","52","0830","0.1","A","43.0264","-102.5602","BIA","SD","","",""
"-102.525390054","43.039992956","180071","182240","W-312276","FED","DOI-WFMI","BIA","USSDPRA","Pine Ridge Agency","SDPRA","Pine Ridge Agency","24","","","TEE","","","","","","1996","1996/02/21 00:00:00+00","52","2030","Human","Smoking","","1996/02/21 00:00:00+00","52","2100","1","B","43.04","-102.5254","BIA","SD","","",""
"-102.372890024","43.506892883","180072","182241","W-312277","FED","DOI-WFMI","BIA","USSDPRA","Pine Ridge Agency","SDPRA","Pine Ridge Agency","25","","","W.K. UPPER","","","","","","1996","1996/02/21 00:00:00+00","52","2235","Human","Misuse of fire by a minor","Minor","1996/02/21 00:00:00+00","52","2350","8","B","43.5069","-102.3729","BIA","SD","","",""
"-102.551790049","43.02779296","180073","182242","W-312273","FED","DOI-WFMI","BIA","USSDPRA","Pine Ridge Agency","SDPRA","Pine Ridge Agency","21","","","QUIV KIDS","","","","","","1996","1996/02/22 00:00:00+00","53","1520","Human","Misuse of fire by a minor","Minor","1996/02/22 00:00:00+00","53","1530","0.5","B","43.0278","-102.5518","BIA","SD","","",""
"-102.796289942","43.349992937","180074","182243","W-312280","FED","DOI-WFMI","BIA","USSDPRA","Pine Ridge Agency","SDPRA","Pine Ridge Agency","28","","","WHITERIVER","","","","","","1996","1996/02/23 00:00:00+00","54","1600","Human","Equipment and vehicle use","","1996/02/23 00:00:00+00","54","1640","0.1","A","43.35","-102.7963","BIA","SD","","",""
"-102.404590076","43.09299294","180075","182244","W-312281","FED","DOI-WFMI","BIA","USSDPRA","Pine Ridge Agency","SDPRA","Pine Ridge Agency","29","","","MOON","","","","","","1996","1996/02/24 00:00:00+00","55","1200","Human","Misuse of fire by a minor","Minor","1996/02/24 00:00:00+00","55","1240","0.5","B","43.093","-102.4046","BIA","SD","","",""
"-102.556790047","43.033292959","180076","182245","W-312282","FED","DOI-WFMI","BIA","USSDPRA","Pine Ridge Agency","SDPRA","Pine Ridge Agency","30","","","N. RIDGE","","","","","","1996","1996/02/24 00:00:00+00","55","2130","Human","Misuse of fire by a minor","Minor","1996/02/24 00:00:00+00","55","2200","1.5","B","43.0333","-102.5568","BIA","SD","","",""
"-102.535990054","43.020792959","180077","182246","W-312283","FED","DOI-WFMI","BIA","USSDPRA","Pine Ridge Agency","SDPRA","Pine Ridge Agency","31","","","DUMPSTER","","","","","","1996","1996/02/25 00:00:00+00","56","1700","Human","Debris and open burning","","1996/02/25 00:00:00+00","56","1725","0.1","A","43.0208","-102.536","BIA","SD","","",""
"-102.687989999","43.145792955","180078","182247","W-312284","FED","DOI-WFMI","BIA","USSDPRA","Pine Ridge Agency","SDPRA","Pine Ridge Agency","32","","","ACIDSPILL","","","","","","1996","1996/03/03 00:00:00+00","63","0915","Human","Equipment and vehicle use","","1996/03/03 00:00:00+00","63","0950","0.1","A","43.1458","-102.688","BIA","SD","","",""
"-102.608790027","43.081892957","180079","182248","W-312285","FED","DOI-WFMI","BIA","USSDPRA","Pine Ridge Agency","SDPRA","Pine Ridge Agency","33","","","BLACKJACK","","","","","","1996","1996/03/03 00:00:00+00","63","1630","Human","Misuse of fire by a minor","Minor","1996/03/03 00:00:00+00","63","1900","10","C","43.0819","-102.6088","BIA","SD","","",""
"-102.559890047","43.026392961","180080","182249","W-312319","FED","DOI-WFMI","BIA","USSDPRA","Pine Ridge Agency","SDPRA","Pine Ridge Agency","67","","","DUMPSTER","","","","","","1996","1996/03/05 00:00:00+00","65","2330","Human","Debris and open burning","","1996/03/05 00:00:00+00","65","2355","0.1","A","43.0264","-102.5599","BIA","SD","","",""
"-102.73928998","43.186092953","180081","182250","W-312320","FED","DOI-WFMI","BIA","USSDPRA","Pine Ridge Agency","SDPRA","Pine Ridge Agency","68","","","CHOPPY","","","","","","1996","1996/03/06 00:00:00+00","66","1325","Human","Debris and open burning","","1996/03/06 00:00:00+00","66","1405","5","B","43.1861","-102.7393","BIA","SD","","",""
"-102.543490051","43.029192959","180082","182251","W-312286","FED","DOI-WFMI","BIA","USSDPRA","Pine Ridge Agency","SDPRA","Pine Ridge Agency","34","","","QUIVER","","","","","","1996","1996/03/07 00:00:00+00","67","2125","Human","Other causes","","1996/03/07 00:00:00+00","67","2145","0.1","A","43.0292","-102.5435","BIA","SD","","",""
"-102.551790049","43.02859296","180083","182252","W-312322","FED","DOI-WFMI","BIA","USSDPRA","Pine Ridge Agency","SDPRA","Pine Ridge Agency","70","","","EAST-72","","","","","","1996","1996/03/08 00:00:00+00","68","0940","Human","Misuse of fire by a minor","Minor","1996/03/08 00:00:00+00","68","0955","0.1","A","43.0286","-102.5518","BIA","SD","","",""
"-102.735689983","43.175792955","180084","182253","W-312323","FED","DOI-WFMI","BIA","USSDPRA","Pine Ridge Agency","SDPRA","Pine Ridge Agency","71","","","SO.STORE","","","","","","1996","1996/03/08 00:00:00+00","68","1245","Human","Misuse of fire by a minor","Minor","1996/03/08 00:00:00+00","68","1330","1","B","43.1758","-102.7357","BIA","SD","","",""
"-102.541290052","43.027492959","180085","182254","W-312288","FED","DOI-WFMI","BIA","USSDPRA","Pine Ridge Agency","SDPRA","Pine Ridge Agency","36","","","JAIL HOUSE","","","","","","1996","1996/03/11 00:00:00+00","71","1955","Human","Other causes","","1996/03/11 00:00:00+00","71","2010","0.1","A","43.0275","-102.5413","BIA","SD","","",""
"-102.000390169","43.144392902","180086","182255","W-312289","FED","DOI-WFMI","BIA","USSDPRA","Pine Ridge Agency","SDPRA","Pine Ridge Agency","37","","","ROLLAND","","","","","","1996","1996/03/12 00:00:00+00","72","1300","Human","Debris and open burning","","1996/03/12 00:00:00+00","72","1535","25","C","43.1444","-102.0004","BIA","SD","","",""
"-102.812389969","43.138592965","180087","182256","W-312290","FED","DOI-WFMI","BIA","USSDPRA","Pine Ridge Agency","SDPRA","Pine Ridge Agency","38","","","SLIMBUTTTE","","","","","","1996","1996/03/12 00:00:00+00","72","1430","Human","Misuse of fire by a minor","Minor","1996/03/12 00:00:00+00","72","1520","5","B","43.1386","-102.8124","BIA","SD","","",""
"-102.730989964","43.311092937","180088","182257","W-312291","FED","DOI-WFMI","BIA","USSDPRA","Pine Ridge Agency","SDPRA","Pine Ridge Agency","39","","","CROSSING","","","","","","1996","1996/03/14 00:00:00+00","74","1330","Human","Recreation and ceremony","","1996/03/14 00:00:00+00","74","1430","0.5","B","43.3111","-102.731","BIA","SD","","",""
"-102.615190026","43.080292958","180089","182258","W-312293","FED","DOI-WFMI","BIA","USSDPRA","Pine Ridge Agency","SDPRA","Pine Ridge Agency","41","","","BLACKJACK2","","","","","","1996","1996/03/17 00:00:00+00","77","1405","Human","Misuse of fire by a minor","Minor","1996/03/17 00:00:00+00","77","1530","6","B","43.0803","-102.6152","BIA","SD","","",""
"-102.383490039","43.3843929","180090","182259","W-312294","FED","DOI-WFMI","BIA","USSDPRA","Pine Ridge Agency","SDPRA","Pine Ridge Agency","42","","","PROVOST","","","","","","1996","1996/03/18 00:00:00+00","78","2255","Human","Other causes","","1996/03/19 00:00:00+00","79","0200","0.5","B","43.3844","-102.3835","BIA","SD","","",""
"-102.454590032","43.312492915","180091","182260","W-312295","FED","DOI-WFMI","BIA","USSDPRA","Pine Ridge Agency","SDPRA","Pine Ridge Agency","43","","","PLUME'","","","","","","1996","1996/03/20 00:00:00+00","80","1430","Human","Smoking","","1996/03/20 00:00:00+00","80","1530","2","B","43.3125","-102.4546","BIA","SD","","",""
"-102.583790032","43.092792954","180092","182261","W-312296","FED","DOI-WFMI","BIA","USSDPRA","Pine Ridge Agency","SDPRA","Pine Ridge Agency","44","","","CALICO","","","","","","1996","1996/03/20 00:00:00+00","80","1800","Human","Misuse of fire by a minor","Minor","1996/03/20 00:00:00+00","80","1825","0.1","A","43.0928","-102.5838","BIA","SD","","",""
"-102.479590066","43.033292954","180093","182262","W-312297","FED","DOI-WFMI","BIA","USSDPRA","Pine Ridge Agency","SDPRA","Pine Ridge Agency","45","","","CHIEF","","","","","","1996","1996/03/20 00:00:00+00","80","2050","Human","Debris and open burning","","1996/03/20 00:00:00+00","80","2130","5","B","43.0333","-102.4796","BIA","SD","","",""
"-102.050390171","43.045792919","180094","182263","W-312298","FED","DOI-WFMI","BIA","USSDPRA","Pine Ridge Agency","SDPRA","Pine Ridge Agency","46","","","BOOB FIRE","","","","","","1996","1996/03/20 00:00:00+00","80","2300","Human","Arson/incendiarism","","1996/03/21 00:00:00+00","81","0115","15","C","43.0458","-102.0504","BIA","SD","","",""
"-102.632690016","43.118292954","180095","182264","W-312299","FED","DOI-WFMI","BIA","USSDPRA","Pine Ridge Agency","SDPRA","Pine Ridge Agency","47","","","WILSON","","","","","","1996","1996/03/21 00:00:00+00","81","1030","Human","Misuse of fire by a minor","Minor","1996/03/21 00:00:00+00","81","1125","0.2","A","43.1183","-102.6327","BIA","SD","","",""
"-102.564290032","43.127792948","180096","182265","W-312300","FED","DOI-WFMI","BIA","USSDPRA","Pine Ridge Agency","SDPRA","Pine Ridge Agency","48","","","NORTHRIDGE","","","","","","1996","1996/03/21 00:00:00+00","81","1955","Human","Misuse of fire by a minor","Minor","1996/03/21 00:00:00+00","81","2030","1","B","43.1278","-102.5643","BIA","SD","","",""
"-102.626790017","43.124992953","180097","182266","W-312302","FED","DOI-WFMI","BIA","USSDPRA","Pine Ridge Agency","SDPRA","Pine Ridge Agency","50","","","NUMBERFOUR","","","","","","1996","1996/03/22 00:00:00+00","82","2245","Human","Equipment and vehicle use","","1996/03/23 00:00:00+00","83","1600","372","E","43.125","-102.6268","BIA","SD","","",""
"-102.000390162","43.197192895","180098","182267","W-312301","FED","DOI-WFMI","BIA","USSDPRA","Pine Ridge Agency","SDPRA","Pine Ridge Agency","49","","","HONORFARM","","","","","","1996","1996/03/23 00:00:00+00","83","0200","Human","Equipment and vehicle use","","1996/03/23 00:00:00+00","83","0255","1","B","43.1972","-102.0004","BIA","SD","","",""
"-102.557690045","43.042992958","180099","182268","W-312303","FED","DOI-WFMI","BIA","USSDPRA","Pine Ridge Agency","SDPRA","Pine Ridge Agency","51","","","C-CREEK","","","","","","1996","1996/03/23 00:00:00+00","83","1300","Human","Debris and open burning","","1996/03/23 00:00:00+00","83","1400","10","C","43.043","-102.5577","BIA","SD","","",""
"-102.54769005","43.029192959","180100","182269","W-312304","FED","DOI-WFMI","BIA","USSDPRA","Pine Ridge Agency","SDPRA","Pine Ridge Agency","52","","","J-JUNGLE","","","","","","1996","1996/03/23 00:00:00+00","83","2100","Human","Debris and open burning","","1996/03/23 00:00:00+00","83","2115","1","B","43.0292","-102.5477","BIA","SD","","",""
"-102.344890083","43.148592928","180101","182270","W-312305","FED","DOI-WFMI","BIA","USSDPRA","Pine Ridge Agency","SDPRA","Pine Ridge Agency","53","","","ROWLAND","","","","","","1996","1996/03/31 00:00:00+00","91","1730","Human","Debris and open burning","","1996/03/31 00:00:00+00","91","1830","1","B","43.1486","-102.3449","BIA","SD","","",""
"-102.383990091","43.023292948","180102","182271","W-312307","FED","DOI-WFMI","BIA","USSDPRA","Pine Ridge Agency","SDPRA","Pine Ridge Agency","55","","","CEMETARY","","","","","","1996","1996/04/01 00:00:00+00","92","2030","Human","Debris and open burning","","1996/04/01 00:00:00+00","92","2050","0.1","A","43.0233","-102.384","BIA","SD","","",""
"-102.378790022","43.509692883","180103","182272","W-312308","FED","DOI-WFMI","BIA","USSDPRA","Pine Ridge Agency","SDPRA","Pine Ridge Agency","56","","","WK","","","","","","1996","1996/04/02 00:00:00+00","93","1300","Human","Debris and open burning","","1996/04/02 00:00:00+00","93","1335","0.1","A","43.5097","-102.3788","BIA","SD","","",""
"-102.403190033","43.391692901","180104","182273","W-312306","FED","DOI-WFMI","BIA","USSDPRA","Pine Ridge Agency","SDPRA","Pine Ridge Agency","54","","","APRILFOOL","","","","","","1996","1996/04/02 00:00:00+00","93","1530","Human","Misuse of fire by a minor","Minor","1996/04/02 00:00:00+00","93","2000","176","D","43.3917","-102.4032","BIA","SD","","",""
"-102.555990048","43.03049296","180105","182274","W-312309","FED","DOI-WFMI","BIA","USSDPRA","Pine Ridge Agency","SDPRA","Pine Ridge Agency","57","","","CONROY","","","","","","1996","1996/04/02 00:00:00+00","93","1700","Human","Debris and open burning","","1996/04/02 00:00:00+00","93","1730","0.3","B","43.0305","-102.556","BIA","SD","","",""
"-102.371290077","43.14579293","180106","182275","W-312310","FED","DOI-WFMI","BIA","USSDPRA","Pine Ridge Agency","SDPRA","Pine Ridge Agency","58","","","HUNTSHORSE","","","","","","1996","1996/04/02 00:00:00+00","93","2315","Human","Arson/incendiarism","","1996/04/03 00:00:00+00","94","0015","5","B","43.1458","-102.3713","BIA","SD","","",""
"-102.371290077","43.144392931","180107","182276","W-312311","FED","DOI-WFMI","BIA","USSDPRA","Pine Ridge Agency","SDPRA","Pine Ridge Agency","59","","","HUNTSHRSII","","","","","","1996","1996/04/03 00:00:00+00","94","0300","Human","Arson/incendiarism","","1996/04/03 00:00:00+00","94","0400","10","C","43.1444","-102.3713","BIA","SD","","",""
"-102.354590079","43.158292928","180108","182277","W-312314","FED","DOI-WFMI","BIA","USSDPRA","Pine Ridge Agency","SDPRA","Pine Ridge Agency","62","","","BATESLAND","","","","","","1996","1996/04/04 00:00:00+00","95","1730","Human","Misuse of fire by a minor","Minor","1996/04/04 00:00:00+00","95","1755","0.1","A","43.1583","-102.3546","BIA","SD","","",""
"-102.372390072","43.177192926","180109","182278","W-312315","FED","DOI-WFMI","BIA","USSDPRA","Pine Ridge Agency","SDPRA","Pine Ridge Agency","63","","","WKTWO","","","","","","1996","1996/04/04 00:00:00+00","95","2000","Human","Misuse of fire by a minor","Minor","1996/04/04 00:00:00+00","95","2045","0.1","A","43.1772","-102.3724","BIA","SD","","",""
"-102.586590033","43.079192956","180110","182279","W-312316","FED","DOI-WFMI","BIA","USSDPRA","Pine Ridge Agency","SDPRA","Pine Ridge Agency","64","","","MISSIONCH","","","","","","1996","1996/04/05 00:00:00+00","96","0530","Human","Other causes","","1996/04/05 00:00:00+00","96","1300","0.1","A","43.0792","-102.5866","BIA","SD","","",""
"-102.742089979","43.187492953","180111","182280","W-312317","FED","DOI-WFMI","BIA","USSDPRA","Pine Ridge Agency","SDPRA","Pine Ridge Agency","65","","","OGLALA","","","","","","1996","1996/04/05 00:00:00+00","96","1100","Human","Misuse of fire by a minor","Minor","1996/04/05 00:00:00+00","96","1125","0.1","A","43.1875","-102.7421","BIA","SD","","",""
"-102.47319004","43.224992928","180112","182281","W-312318","FED","DOI-WFMI","BIA","USSDPRA","Pine Ridge Agency","SDPRA","Pine Ridge Agency","66","","","CUNY","","","","","","1996","1996/04/05 00:00:00+00","96","1330","Human","Debris and open burning","","1996/04/05 00:00:00+00","96","1700","0.4","B","43.225","-102.4732","BIA","SD","","",""
"-102.114290071","43.624992848","180113","182282","W-312324","FED","DOI-WFMI","BIA","USSDPRA","Pine Ridge Agency","SDPRA","Pine Ridge Agency","72","","","REDSHIRT","","","","","","1996","1996/04/08 00:00:00+00","99","1430","Human","Debris and open burning","","1996/04/08 00:00:00+00","99","1630","600","E","43.625","-102.1143","BIA","SD","","",""
"-102.343790083","43.151692928","180114","182283","W-312325","FED","DOI-WFMI","BIA","USSDPRA","Pine Ridge Agency","SDPRA","Pine Ridge Agency","73","","","BUSTBRAKE","","","","","","1996","1996/04/09 00:00:00+00","100","1800","Human","Debris and open burning","","1996/04/09 00:00:00+00","100","1930","10","C","43.1517","-102.3438","BIA","SD","","",""
"-102.625390018","43.120792953","180115","182284","W-312326","FED","DOI-WFMI","BIA","USSDPRA","Pine Ridge Agency","SDPRA","Pine Ridge Agency","74","","","COTTIER","","","","","","1996","1996/04/10 00:00:00+00","101","0350","Human","Debris and open burning","","1996/04/10 00:00:00+00","101","0435","15","C","43.1208","-102.6254","BIA","SD","","",""
"-102.000390134","43.38749287","180116","182285","W-312327","FED","DOI-WFMI","BIA","USSDPRA","Pine Ridge Agency","SDPRA","Pine Ridge Agency","75","","","MESTETHS","","","","","","1996","1996/04/10 00:00:00+00","101","1430","Human","Smoking","","1996/04/10 00:00:00+00","101","2000","580","E","43.3875","-102.0004","BIA","SD","","",""
"-102.548190046","43.054192956","180117","182286","W-312328","FED","DOI-WFMI","BIA","USSDPRA","Pine Ridge Agency","SDPRA","Pine Ridge Agency","76","","","LAGOON","","","","","","1996","1996/04/10 00:00:00+00","101","1600","Human","Debris and open burning","","1996/04/10 00:00:00+00","101","1800","0.5","B","43.0542","-102.5482","BIA","SD","","",""
"-102.372690077","43.142492931","180118","182287","W-312329","FED","DOI-WFMI","BIA","USSDPRA","Pine Ridge Agency","SDPRA","Pine Ridge Agency","77","","","SO-WK","","","","","","1996","1996/04/11 00:00:00+00","102","0530","Human","Firearms and explosives use","","1996/04/11 00:00:00+00","102","0630","5","B","43.1425","-102.3727","BIA","SD","","",""
"-102.543490051","43.028592959","180119","182288","W-312330","FED","DOI-WFMI","BIA","USSDPRA","Pine Ridge Agency","SDPRA","Pine Ridge Agency","78","","","EAGLEBULL","","","","","","1996","1996/04/13 00:00:00+00","104","0400","Human","Other causes","","1996/04/13 00:00:00+00","104","0500","0.1","A","43.0286","-102.5435","BIA","SD","","",""
"-102.376790052","43.309692909","180120","182289","W-312332","FED","DOI-WFMI","BIA","USSDPRA","Pine Ridge Agency","SDPRA","Pine Ridge Agency","80","","","S.SPIDER","","","","","","1996","1996/04/17 00:00:00+00","108","0445","Human","Other causes","","1996/04/17 00:00:00+00","108","0600","0.1","A","43.3097","-102.3768","BIA","SD","","",""
"-102.62819002","43.101392956","180121","182290","W-312333","FED","DOI-WFMI","BIA","USSDPRA","Pine Ridge Agency","SDPRA","Pine Ridge Agency","81","","","CALICOII","","","","","","1996","1996/04/17 00:00:00+00","108","1400","Human","Debris and open burning","","1996/04/17 00:00:00+00","108","1600","21","C","43.1014","-102.6282","BIA","SD","","",""
"-102.555190049","43.020492961","180122","182291","W-312335","FED","DOI-WFMI","BIA","USSDPRA","Pine Ridge Agency","SDPRA","Pine Ridge Agency","83","","","676","","","","","","1996","1996/04/17 00:00:00+00","108","1630","Human","Debris and open burning","","1996/04/17 00:00:00+00","108","1655","0.1","A","43.0205","-102.5552","BIA","SD","","",""
"-102.555990049","43.020792961","180123","182292","W-312337","FED","DOI-WFMI","BIA","USSDPRA","Pine Ridge Agency","SDPRA","Pine Ridge Agency","85","","","MOCCASINPK","","","","","","1996","1996/04/17 00:00:00+00","108","2030","Human","Misuse of fire by a minor","Minor","1996/04/17 00:00:00+00","108","2050","1","B","43.0208","-102.556","BIA","SD","","",""
"-102.814389954","43.241592952","180124","182293","W-312338","FED","DOI-WFMI","BIA","USSDPRA","Pine Ridge Agency","SDPRA","Pine Ridge Agency","86","","","2-NORTH","","","","","","1996","1996/04/18 00:00:00+00","109","1715","Human","Debris and open burning","","1996/04/18 00:00:00+00","109","1830","10","C","43.2416","-102.8144","BIA","SD","","",""
"-102.54629005","43.031892959","180125","182294","W-312342","FED","DOI-WFMI","BIA","USSDPRA","Pine Ridge Agency","SDPRA","Pine Ridge Agency","90","","","ROCKY","","","","","","1996","1996/04/22 00:00:00+00","113","1200","Human","Debris and open burning","","1996/04/22 00:00:00+00","113","1220","1","B","43.0319","-102.5463","BIA","SD","","",""
"-102.334890071","43.249192914","180126","182295","W-312344","FED","DOI-WFMI","BIA","USSDPRA","Pine Ridge Agency","SDPRA","Pine Ridge Agency","92","","","WHITEFACE","","","","","","1996","1996/04/24 00:00:00+00","115","1630","Human","Misuse of fire by a minor","Minor","1996/04/24 00:00:00+00","115","1700","11","C","43.2492","-102.3349","BIA","SD","","",""
"-102.594889958","43.580492891","180127","182296","W-312345","FED","DOI-WFMI","BIA","USSDPRA","Pine Ridge Agency","SDPRA","Pine Ridge Agency","93","","","BUCKLECRK","","","","","","1996","1996/04/25 00:00:00+00","116","1100","Human","Power generation/transmission/distribution","","1996/04/25 00:00:00+00","116","1405","2.5","B","43.5805","-102.5949","BIA","SD","","",""
"-102.389290037","43.3916929","180128","182297","W-312346","FED","DOI-WFMI","BIA","USSDPRA","Pine Ridge Agency","SDPRA","Pine Ridge Agency","94","","","SHARPSIII","","","","","","1996","1996/04/26 00:00:00+00","117","1330","Human","Debris and open burning","","1996/04/26 00:00:00+00","117","1420","0.1","A","43.3917","-102.3893","BIA","SD","","",""
"-102.730989983","43.181392953","180129","182298","W-312347","FED","DOI-WFMI","BIA","USSDPRA","Pine Ridge Agency","SDPRA","Pine Ridge Agency","95","","","YOUNGMAN","","","","","","1996","1996/04/26 00:00:00+00","117","1730","Human","Debris and open burning","","1996/04/26 00:00:00+00","117","1820","0.1","A","43.1814","-102.731","BIA","SD","","",""
"-102.489290037","43.21719293","180130","182299","W-312348","FED","DOI-WFMI","BIA","USSDPRA","Pine Ridge Agency","SDPRA","Pine Ridge Agency","96","","","LOGHOUSE","","","","","","1996","1996/04/26 00:00:00+00","117","2330","Human","Other causes","","1996/04/27 00:00:00+00","118","0130","0.1","A","43.2172","-102.4893","BIA","SD","","",""
"-102.389290037","43.3916929","180131","182300","W-312351","FED","DOI-WFMI","BIA","USSDPRA","Pine Ridge Agency","SDPRA","Pine Ridge Agency","99","","","SHARPSFOUR","","","","","","1996","1996/04/29 00:00:00+00","120","1215","Human","Debris and open burning","","1996/04/29 00:00:00+00","120","1310","1","B","43.3917","-102.3893","BIA","SD","","",""
"-102.322090075","43.241692914","180132","182301","W-312352","FED","DOI-WFMI","BIA","USSDPRA","Pine Ridge Agency","SDPRA","Pine Ridge Agency","100","","","YOUNGBEAR","","","","","","1996","1996/04/29 00:00:00+00","120","1320","Human","Debris and open burning","","1996/04/29 00:00:00+00","120","1645","140","D","43.2417","-102.3221","BIA","SD","","",""
"-102.601790007","43.237492936","180133","182302","W-312353","FED","DOI-WFMI","BIA","USSDPRA","Pine Ridge Agency","SDPRA","Pine Ridge Agency","101","","","WHITEHORSE","","","","","","1996","1996/04/29 00:00:00+00","120","1630","Human","Misuse of fire by a minor","Minor","1996/04/29 00:00:00+00","120","1715","1","B","43.2375","-102.6018","BIA","SD","","",""
"-102.601790028","43.089692955","180134","182303","W-312355","FED","DOI-WFMI","BIA","USSDPRA","Pine Ridge Agency","SDPRA","Pine Ridge Agency","103","","","#4","","","","","","1996","1996/05/03 00:00:00+00","124","1621","Human","Debris and open burning","","1996/05/03 00:00:00+00","124","1730","0.1","A","43.0897","-102.6018","BIA","SD","","",""
"-102.768489971","43.201392954","180135","182304","W-312356","FED","DOI-WFMI","BIA","USSDPRA","Pine Ridge Agency","SDPRA","Pine Ridge Agency","104","","","TWOLANCE","","","","","","1996","1996/05/06 00:00:00+00","127","1600","Human","Other causes","","1996/05/06 00:00:00+00","127","1640","0.1","A","43.2014","-102.7685","BIA","SD","","",""
"-102.553190047","43.037492959","180136","182305","W-312358","FED","DOI-WFMI","BIA","USSDPRA","Pine Ridge Agency","SDPRA","Pine Ridge Agency","106","","","MOCCASSIN","","","","","","1996","1996/05/07 00:00:00+00","128","1340","Human","Misuse of fire by a minor","Minor","1996/05/07 00:00:00+00","128","1410","1","B","43.0375","-102.5532","BIA","SD","","",""
"-102.380190057","43.265492915","180137","182306","W-312359","FED","DOI-WFMI","BIA","USSDPRA","Pine Ridge Agency","SDPRA","Pine Ridge Agency","107","","","LESSERT","","","","","","1996","1996/05/07 00:00:00+00","128","1855","Natural","Natural","","1996/05/07 00:00:00+00","128","1930","1","B","43.2655","-102.3802","BIA","SD","","",""
"-102.553190052","43.005492963","180138","182307","W-312360","FED","DOI-WFMI","BIA","USSDPRA","Pine Ridge Agency","SDPRA","Pine Ridge Agency","108","","","SPILLWAY","","","","","","1996","1996/05/15 00:00:00+00","136","1735","Human","Misuse of fire by a minor","Minor","1996/05/15 00:00:00+00","136","1750","0.1","A","43.0055","-102.5532","BIA","SD","","",""
"-102.554590052","43.005492963","180139","182308","W-312362","FED","DOI-WFMI","BIA","USSDPRA","Pine Ridge Agency","SDPRA","Pine Ridge Agency","110","","","PRDUMP","","","","","","1996","1996/05/16 00:00:00+00","137","1600","Human","Debris and open burning","","1996/05/16 00:00:00+00","137","1700","0.1","A","43.0055","-102.5546","BIA","SD","","",""
"-102.674090003","43.136092955","180140","182309","W-312363","FED","DOI-WFMI","BIA","USSDPRA","Pine Ridge Agency","SDPRA","Pine Ridge Agency","111","","","STUMP","","","","","","1996","1996/05/17 00:00:00+00","138","1530","Human","Misuse of fire by a minor","Minor","1996/05/17 00:00:00+00","138","1555","1","B","43.1361","-102.6741","BIA","SD","","",""
"-102.549590049","43.030492959","180141","182310","W-312364","FED","DOI-WFMI","BIA","USSDPRA","Pine Ridge Agency","SDPRA","Pine Ridge Agency","112","","","RUGRAT","","","","","","1996","1996/05/18 00:00:00+00","139","0400","Human","Misuse of fire by a minor","Minor","1996/05/18 00:00:00+00","139","0430","0.1","A","43.0305","-102.5496","BIA","SD","","",""
"-102.148190108","43.314992891","180142","182311","W-312366","FED","DOI-WFMI","BIA","USSDPRA","Pine Ridge Agency","SDPRA","Pine Ridge Agency","114","","","EVRGRNDUMP","","","","","","1996","1996/05/21 00:00:00+00","142","1600","Human","Debris and open burning","","1996/05/21 00:00:00+00","142","1700","2","B","43.315","-102.1482","BIA","SD","","",""
"-102.480390039","43.220492929","180143","182312","W-312367","FED","DOI-WFMI","BIA","USSDPRA","Pine Ridge Agency","SDPRA","Pine Ridge Agency","115","","","BLACKBEAR","","","","","","1996","1996/05/21 00:00:00+00","142","1915","Human","Other causes","","1996/05/21 00:00:00+00","142","2300","0.1","A","43.2205","-102.4804","BIA","SD","","",""
"-102.568189972","43.534192895","180144","182313","W-312368","FED","DOI-WFMI","BIA","USSDPRA","Pine Ridge Agency","SDPRA","Pine Ridge Agency","116","","","POKERJOE","","","","","","1996","1996/05/21 00:00:00+00","142","2030","Human","Debris and open burning","","1996/05/21 00:00:00+00","142","2045","0.1","A","43.5342","-102.5682","BIA","SD","","",""
"-102.564090046","43.03049296","180145","182314","W-312370","FED","DOI-WFMI","BIA","USSDPRA","Pine Ridge Agency","SDPRA","Pine Ridge Agency","118","","","MDONNA","","","","","","1996","1996/05/27 00:00:00+00","148","0800","Human","Power generation/transmission/distribution","","1996/05/27 00:00:00+00","148","0830","0.1","A","43.0305","-102.5641","BIA","SD","","",""
"-102.554590048","43.02919296","180146","182315","W-312373","FED","DOI-WFMI","BIA","USSDPRA","Pine Ridge Agency","SDPRA","Pine Ridge Agency","121","","","HERMAN","","","","","","1996","1996/05/29 00:00:00+00","150","1915","Human","Other causes","","1996/05/29 00:00:00+00","150","1950","0.1","A","43.0292","-102.5546","BIA","SD","","",""
"-102.333790074","43.233292916","180147","182316","W-312374","FED","DOI-WFMI","BIA","USSDPRA","Pine Ridge Agency","SDPRA","Pine Ridge Agency","122","","","PORCUPINE","","","","","","1996","1996/05/30 00:00:00+00","151","1500","Human","Other causes","","1996/05/30 00:00:00+00","151","1600","0.5","B","43.2333","-102.3338","BIA","SD","","",""
"-102.758789973","43.199992953","180148","182317","W-312375","FED","DOI-WFMI","BIA","USSDPRA","Pine Ridge Agency","SDPRA","Pine Ridge Agency","123","","","DUPLEX","","","","","","1996","1996/06/01 00:00:00+00","153","0330","Human","Other causes","","1996/06/01 00:00:00+00","153","0830","0.1","A","43.2","-102.7588","BIA","SD","","",""
"-102.566590046","43.026692961","180149","182318","W-312400","FED","DOI-WFMI","BIA","USSDPRA","Pine Ridge Agency","SDPRA","Pine Ridge Agency","148","","","POKERJOES","","","","","","1996","1996/06/01 00:00:00+00","153","1500","Human","Smoking","","1996/06/01 00:00:00+00","153","1515","0.5","B","43.0267","-102.5666","BIA","SD","","",""
"-102.552890049","43.02329296","180150","182319","W-312412","FED","DOI-WFMI","BIA","USSDPRA","Pine Ridge Agency","SDPRA","Pine Ridge Agency","160","","","FREDBROWN","","","","","","1996","1996/06/01 00:00:00+00","153","2245","Human","Smoking","","1996/06/01 00:00:00+00","153","2255","0.1","A","43.0233","-102.5529","BIA","SD","","",""
"-102.387890086","43.056092944","180151","182320","W-312377","FED","DOI-WFMI","BIA","USSDPRA","Pine Ridge Agency","SDPRA","Pine Ridge Agency","125","","","MONTECARLO","","","","","","1996","1996/06/02 00:00:00+00","154","2030","Human","Equipment and vehicle use","","1996/06/02 00:00:00+00","154","2150","0.1","A","43.0561","-102.3879","BIA","SD","","",""
"-102.194890099","43.297792897","180152","182321","W-312379","FED","DOI-WFMI","BIA","USSDPRA","Pine Ridge Agency","SDPRA","Pine Ridge Agency","127","","","KYLE","","","","","","1996","1996/06/06 00:00:00+00","158","1330","Natural","Natural","","1996/06/06 00:00:00+00","158","1500","2","B","43.2978","-102.1949","BIA","SD","","",""
"-102.699089991","43.177792951","180153","182322","W-312381","FED","DOI-WFMI","BIA","USSDPRA","Pine Ridge Agency","SDPRA","Pine Ridge Agency","129","","","BRAVEHEART","","","","","","1996","1996/06/11 00:00:00+00","163","0200","Human","Other causes","","1996/06/11 00:00:00+00","163","0330","0.1","A","43.1778","-102.6991","BIA","SD","","",""
"-102.553190048","43.03049296","180154","182323","W-312382","FED","DOI-WFMI","BIA","USSDPRA","Pine Ridge Agency","SDPRA","Pine Ridge Agency","130","","","HIX","","","","","","1996","1996/06/11 00:00:00+00","163","1600","Human","Debris and open burning","","1996/06/11 00:00:00+00","163","1612","0.1","A","43.0305","-102.5532","BIA","SD","","",""
"-102.536590051","43.038892957","180155","182324","W-312384","FED","DOI-WFMI","BIA","USSDPRA","Pine Ridge Agency","SDPRA","Pine Ridge Agency","132","","","E-R","","","","","","1996","1996/06/14 00:00:00+00","166","1635","Human","Equipment and vehicle use","","1996/06/14 00:00:00+00","166","1645","0.1","A","43.0389","-102.5366","BIA","SD","","",""
"-102.562890045","43.038892959","180156","182325","W-312386","FED","DOI-WFMI","BIA","USSDPRA","Pine Ridge Agency","SDPRA","Pine Ridge Agency","134","","","EASTRIDGE","","","","","","1996","1996/06/21 00:00:00+00","173","1500","Human","Debris and open burning","","1996/06/21 00:00:00+00","173","1515","0.1","A","43.0389","-102.5629","BIA","SD","","",""
"-102.572690043","43.03469296","180157","182326","W-312387","FED","DOI-WFMI","BIA","USSDPRA","Pine Ridge Agency","SDPRA","Pine Ridge Agency","135","","","RODEO-G","","","","","","1996","1996/06/21 00:00:00+00","173","1700","Human","Fireworks","Minor","1996/06/21 00:00:00+00","173","1720","0.2","A","43.0347","-102.5727","BIA","SD","","",""
"-102.562890045","43.037492959","180158","182327","W-312389","FED","DOI-WFMI","BIA","USSDPRA","Pine Ridge Agency","SDPRA","Pine Ridge Agency","137","","","SPSLOPE","","","","","","1996","1996/06/21 00:00:00+00","173","2125","Human","Fireworks","Minor","1996/06/21 00:00:00+00","173","2145","0.5","B","43.0375","-102.5629","BIA","SD","","",""
"-102.44209007","43.070792946","180159","182328","W-312388","FED","DOI-WFMI","BIA","USSDPRA","Pine Ridge Agency","SDPRA","Pine Ridge Agency","136","","","BREWER","","","","","","1996","1996/06/22 00:00:00+00","174","2000","Human","Debris and open burning","","1996/06/22 00:00:00+00","174","2020","0.1","A","43.0708","-102.4421","BIA","SD","","",""
"-102.563790047","43.024692961","180160","182329","W-312390","FED","DOI-WFMI","BIA","USSDPRA","Pine Ridge Agency","SDPRA","Pine Ridge Agency","138","","","ROADSIDE","","","","","","1996","1996/06/26 00:00:00+00","178","1330","Human","Debris and open burning","","1996/06/26 00:00:00+00","178","1350","0.1","A","43.0247","-102.5638","BIA","SD","","",""
"-102.486490065","43.031092954","180161","182330","W-312391","FED","DOI-WFMI","BIA","USSDPRA","Pine Ridge Agency","SDPRA","Pine Ridge Agency","139","","","SBOB","","","","","","1996","1996/06/26 00:00:00+00","178","1405","Human","Equipment and vehicle use","","1996/06/26 00:00:00+00","178","1425","0.1","A","43.0311","-102.4865","BIA","SD","","",""
"-102.553190047","43.038892958","180162","182331","W-312392","FED","DOI-WFMI","BIA","USSDPRA","Pine Ridge Agency","SDPRA","Pine Ridge Agency","140","","","RODEOII","","","","","","1996","1996/06/26 00:00:00+00","178","1600","Human","Fireworks","Minor","1996/06/26 00:00:00+00","178","1615","0.1","A","43.0389","-102.5532","BIA","SD","","",""
"-102.553190048","43.036092959","180163","182332","W-312393","FED","DOI-WFMI","BIA","USSDPRA","Pine Ridge Agency","SDPRA","Pine Ridge Agency","141","","","CROWS","","","","","","1996","1996/06/26 00:00:00+00","178","1830","Human","Fireworks","Minor","1996/06/26 00:00:00+00","178","1850","0.1","A","43.0361","-102.5532","BIA","SD","","",""
"-102.551790048","43.037492959","180164","182333","W-312394","FED","DOI-WFMI","BIA","USSDPRA","Pine Ridge Agency","SDPRA","Pine Ridge Agency","142","","","DOWTY","","","","","","1996","1996/06/26 00:00:00+00","178","2035","Human","Fireworks","Minor","1996/06/26 00:00:00+00","178","2050","0.1","A","43.0375","-102.5518","BIA","SD","","",""
"-102.557390045","43.047192958","180165","182334","W-312397","FED","DOI-WFMI","BIA","USSDPRA","Pine Ridge Agency","SDPRA","Pine Ridge Agency","145","","","EASTRIDGE","","","","","","1996","1996/06/30 00:00:00+00","182","1500","Human","Fireworks","Minor","1996/06/30 00:00:00+00","182","1520","0.2","A","43.0472","-102.5574","BIA","SD","","",""
"-102.54629005","43.029192959","180166","182335","W-312396","FED","DOI-WFMI","BIA","USSDPRA","Pine Ridge Agency","SDPRA","Pine Ridge Agency","144","","","FOLSUM","","","","","","1996","1996/06/30 00:00:00+00","182","1530","Human","Debris and open burning","","1996/06/30 00:00:00+00","182","1540","0.1","A","43.0292","-102.5463","BIA","SD","","",""
"-102.564290043","43.045792958","180167","182336","W-312398","FED","DOI-WFMI","BIA","USSDPRA","Pine Ridge Agency","SDPRA","Pine Ridge Agency","146","","","HANDSRES","","","","","","1996","1996/06/30 00:00:00+00","182","2200","Human","Debris and open burning","","1996/06/30 00:00:00+00","182","2220","0.1","A","43.0458","-102.5643","BIA","SD","","",""
"-102.551790048","43.036092959","180168","182337","W-312399","FED","DOI-WFMI","BIA","USSDPRA","Pine Ridge Agency","SDPRA","Pine Ridge Agency","147","","","TRAILERPAR","","","","","","1996","1996/07/01 00:00:00+00","183","1500","Human","Fireworks","Minor","1996/07/01 00:00:00+00","183","1540","1","B","43.0361","-102.5518","BIA","SD","","",""
"-102.737389983","43.167992956","180169","182338","W-312401","FED","DOI-WFMI","BIA","USSDPRA","Pine Ridge Agency","SDPRA","Pine Ridge Agency","149","","","CUBBYS","","","","","","1996","1996/07/01 00:00:00+00","183","2100","Human","Fireworks","Minor","1996/07/01 00:00:00+00","183","2135","0.1","A","43.168","-102.7374","BIA","SD","","",""
"-102.550390049","43.033292959","180170","182339","W-312402","FED","DOI-WFMI","BIA","USSDPRA","Pine Ridge Agency","SDPRA","Pine Ridge Agency","150","","","SHELTERCR","","","","","","1996","1996/07/02 00:00:00+00","184","0030","Human","Fireworks","Minor","1996/07/02 00:00:00+00","184","0100","0.1","A","43.0333","-102.5504","BIA","SD","","",""
"-102.550390049","43.033292959","180171","182340","W-312403","FED","DOI-WFMI","BIA","USSDPRA","Pine Ridge Agency","SDPRA","Pine Ridge Agency","151","","","TRAILERPII","","","","","","1996","1996/07/02 00:00:00+00","184","1440","Human","Fireworks","Minor","1996/07/02 00:00:00+00","184","1455","0.1","A","43.0333","-102.5504","BIA","SD","","",""
"-102.549090049","43.031892959","180172","182341","W-312404","FED","DOI-WFMI","BIA","USSDPRA","Pine Ridge Agency","SDPRA","Pine Ridge Agency","152","","","IGLOO","","","","","","1996","1996/07/02 00:00:00+00","184","1600","Human","Debris and open burning","","1996/07/02 00:00:00+00","184","1630","0.1","A","43.0319","-102.5491","BIA","SD","","",""
"-102.804589981","43.072192973","180173","182342","W-312405","FED","DOI-WFMI","BIA","USSDPRA","Pine Ridge Agency","SDPRA","Pine Ridge Agency","153","","","SLIMBUTTES","","","","","","1996","1996/07/02 00:00:00+00","184","1815","Human","Debris and open burning","","1996/07/02 00:00:00+00","184","2015","15","C","43.0722","-102.8046","BIA","SD","","",""
"-102.472890038","43.240292926","180174","182343","W-312406","FED","DOI-WFMI","BIA","USSDPRA","Pine Ridge Agency","SDPRA","Pine Ridge Agency","154","","","CATHCHRCH","","","","","","1996","1996/07/02 00:00:00+00","184","1905","Human","Fireworks","Minor","1996/07/02 00:00:00+00","184","1930","0.5","B","43.2403","-102.4729","BIA","SD","","",""
"-102.542090051","43.029692959","180175","182344","W-312407","FED","DOI-WFMI","BIA","USSDPRA","Pine Ridge Agency","SDPRA","Pine Ridge Agency","155","","","EASTRIDGE","","","","","","1996","1996/07/02 00:00:00+00","184","1930","Human","Arson/incendiarism","Minor","1996/07/02 00:00:00+00","184","1950","0.1","A","43.0297","-102.5421","BIA","SD","","",""
"-102.546290051","43.02079296","180176","182345","W-312409","FED","DOI-WFMI","BIA","USSDPRA","Pine Ridge Agency","SDPRA","Pine Ridge Agency","157","","","DEADDOG","","","","","","1996","1996/07/02 00:00:00+00","184","2100","Human","Fireworks","Minor","1996/07/02 00:00:00+00","184","2120","0.5","B","43.0208","-102.5463","BIA","SD","","",""
"-102.54099005","43.036892958","180177","182346","W-312410","FED","DOI-WFMI","BIA","USSDPRA","Pine Ridge Agency","SDPRA","Pine Ridge Agency","158","","","SUNDNCGRDS","","","","","","1996","1996/07/03 00:00:00+00","185","0001","Human","Fireworks","Minor","1996/07/03 00:00:00+00","185","0100","1","B","43.0369","-102.541","BIA","SD","","",""
"-102.562890047","43.022792961","180178","182347","W-312411","FED","DOI-WFMI","BIA","USSDPRA","Pine Ridge Agency","SDPRA","Pine Ridge Agency","159","","","4THCOMPLEX","","","","","4TH COMPLEX","1996","1996/07/03 00:00:00+00","185","0600","Human","Fireworks","Minor","1996/07/05 00:00:00+00","187","1800","125","D","43.0228","-102.5629","BIA","SD","","",""
"-102.793489965","43.195792956","180179","182348","W-312413","FED","DOI-WFMI","BIA","USSDPRA","Pine Ridge Agency","SDPRA","Pine Ridge Agency","161","","","BADHEART","","","","","","1996","1996/07/10 00:00:00+00","192","1000","Human","Misuse of fire by a minor","Minor","1996/07/10 00:00:00+00","192","1100","1.5","B","43.1958","-102.7935","BIA","SD","","",""
"-102.550390049","43.033292959","180180","182349","W-312414","FED","DOI-WFMI","BIA","USSDPRA","Pine Ridge Agency","SDPRA","Pine Ridge Agency","162","","","SHERMAN","","","","","","1996","1996/07/10 00:00:00+00","192","1535","Human","Misuse of fire by a minor","Minor","1996/07/10 00:00:00+00","192","1600","0.1","A","43.0333","-102.5504","BIA","SD","","",""
"-102.545690051","43.02529296","180181","182350","W-312416","FED","DOI-WFMI","BIA","USSDPRA","Pine Ridge Agency","SDPRA","Pine Ridge Agency","164","","","ENERGYOFF","","","","","","1996","1996/07/11 00:00:00+00","193","0145","Human","Misuse of fire by a minor","Minor","1996/07/11 00:00:00+00","193","0150","0.1","A","43.0253","-102.5457","BIA","SD","","",""
"-102.487090037","43.222192929","180182","182351","W-312415","FED","DOI-WFMI","BIA","USSDPRA","Pine Ridge Agency","SDPRA","Pine Ridge Agency","163","","","MANDERSON","","","","","","1996","1996/07/11 00:00:00+00","193","1900","Human","Debris and open burning","","1996/07/11 00:00:00+00","193","1930","0.1","A","43.2222","-102.4871","BIA","SD","","",""
"-102.575390034","43.095792953","180183","182352","W-312418","FED","DOI-WFMI","BIA","USSDPRA","Pine Ridge Agency","SDPRA","Pine Ridge Agency","166","","","MISSION","","","","","","1996","1996/07/11 00:00:00+00","193","2000","Human","Debris and open burning","","1996/07/11 00:00:00+00","193","2040","0.1","A","43.0958","-102.5754","BIA","SD","","",""
"-102.553190048","43.034692959","180184","182353","W-312419","FED","DOI-WFMI","BIA","USSDPRA","Pine Ridge Agency","SDPRA","Pine Ridge Agency","167","","","JANISPRK","","","","","","1996","1996/07/11 00:00:00+00","193","2130","Human","Misuse of fire by a minor","Minor","1996/07/11 00:00:00+00","193","2150","0.1","A","43.0347","-102.5532","BIA","SD","","",""
"-102.373990078","43.136092932","180185","182354","W-312421","FED","DOI-WFMI","BIA","USSDPRA","Pine Ridge Agency","SDPRA","Pine Ridge Agency","169","","","WKHILL","","","","","","1996","1996/07/12 00:00:00+00","194","0900","Human","Arson/incendiarism","","1996/07/12 00:00:00+00","194","1000","0.5","B","43.1361","-102.374","BIA","SD","","",""
"-102.833189979","43.030292981","180186","182355","W-312420","FED","DOI-WFMI","BIA","USSDPRA","Pine Ridge Agency","SDPRA","Pine Ridge Agency","168","","","BROWNEYES","","","","","","1996","1996/07/12 00:00:00+00","194","1100","Human","Debris and open burning","","1996/07/12 00:00:00+00","194","1215","2","B","43.0303","-102.8332","BIA","SD","","",""
"-102.642690014","43.119392955","180187","182356","W-312423","FED","DOI-WFMI","BIA","USSDPRA","Pine Ridge Agency","SDPRA","Pine Ridge Agency","171","","","HOLLYW","","","","","","1996","1996/07/13 00:00:00+00","195","0540","Human","Misuse of fire by a minor","Minor","1996/07/13 00:00:00+00","195","0645","2","B","43.1194","-102.6427","BIA","SD","","",""
"-102.862989974","43.014092985","180188","182357","W-312422","FED","DOI-WFMI","BIA","USSDPRA","Pine Ridge Agency","SDPRA","Pine Ridge Agency","170","","","SLMBTTE 3","","","","","","1996","1996/07/13 00:00:00+00","195","1430","Human","Debris and open burning","","1996/07/13 00:00:00+00","195","1600","735","E","43.0141","-102.863","BIA","SD","","",""
"-102.558190048","43.021392961","180189","182358","W-312424","FED","DOI-WFMI","BIA","USSDPRA","Pine Ridge Agency","SDPRA","Pine Ridge Agency","172","","","RODEO3","","","","","","1996","1996/07/13 00:00:00+00","195","1800","Human","Misuse of fire by a minor","Minor","1996/07/13 00:00:00+00","195","1900","2.5","B","43.0214","-102.5582","BIA","SD","","",""
"-102.543490051","43.026392959","180190","182359","W-312427","FED","DOI-WFMI","BIA","USSDPRA","Pine Ridge Agency","SDPRA","Pine Ridge Agency","175","","","BADKID II","","","","","","1996","1996/07/14 00:00:00+00","196","1800","Human","Misuse of fire by a minor","Minor","1996/07/14 00:00:00+00","196","1820","0.1","A","43.0264","-102.5435","BIA","SD","","",""
"-102.536590054","43.01999296","180191","182360","W-312426","FED","DOI-WFMI","BIA","USSDPRA","Pine Ridge Agency","SDPRA","Pine Ridge Agency","174","","","BADKID I","","","","","","1996","1996/07/14 00:00:00+00","196","1830","Human","Misuse of fire by a minor","Minor","1996/07/14 00:00:00+00","196","1850","0.1","A","43.02","-102.5366","BIA","SD","","",""
"-102.562890046","43.02919296","180192","182361","W-312425","FED","DOI-WFMI","BIA","USSDPRA","Pine Ridge Agency","SDPRA","Pine Ridge Agency","173","","","PCC","","","","","","1996","1996/07/14 00:00:00+00","196","2350","Human","Misuse of fire by a minor","Minor","1996/07/15 00:00:00+00","197","0015","0.1","A","43.0292","-102.5629","BIA","SD","","",""
"-102.439890077","43.022792952","180193","182362","W-312428","FED","DOI-WFMI","BIA","USSDPRA","Pine Ridge Agency","SDPRA","Pine Ridge Agency","176","","","WOLFCREEK","","","","","","1996","1996/07/15 00:00:00+00","197","1100","Human","Debris and open burning","","1996/07/15 00:00:00+00","197","1135","0.1","A","43.0228","-102.4399","BIA","SD","","",""
"-102.980989866","43.561092924","180194","182363","W-312395","FED","DOI-WFMI","BIA","USSDPRA","Pine Ridge Agency","SDPRA","Pine Ridge Agency","143","","","CUNYTABLE","","","","","","1996","1996/07/15 00:00:00+00","197","1500","Natural","Natural","","1996/07/15 00:00:00+00","197","1630","80","C","43.5611","-102.981","BIA","SD","","",""
"-102.647690011","43.130792954","180195","182364","W-312429","FED","DOI-WFMI","BIA","USSDPRA","Pine Ridge Agency","SDPRA","Pine Ridge Agency","177","","","WEASLEBR","","","","","","1996","1996/07/15 00:00:00+00","197","1600","Human","Debris and open burning","","1996/07/15 00:00:00+00","197","1710","1","B","43.1308","-102.6477","BIA","SD","","",""
"-102.544890052","43.02219296","180196","182365","W-312431","FED","DOI-WFMI","BIA","USSDPRA","Pine Ridge Agency","SDPRA","Pine Ridge Agency","179","","","CASH","","","","","","1996","1996/07/15 00:00:00+00","197","2200","Human","Debris and open burning","","1996/07/15 00:00:00+00","197","2240","0.5","B","43.0222","-102.5449","BIA","SD","","",""
"-102.332390074","43.230492916","180197","182366","W-312432","FED","DOI-WFMI","BIA","USSDPRA","Pine Ridge Agency","SDPRA","Pine Ridge Agency","180","","","BLEVINS","","","","","","1996","1996/07/16 00:00:00+00","198","1800","Human","Misuse of fire by a minor","Minor","1996/07/16 00:00:00+00","198","1845","2","B","43.2305","-102.3324","BIA","SD","","",""
"-102.566790044","43.039992959","180198","182367","W-312433","FED","DOI-WFMI","BIA","USSDPRA","Pine Ridge Agency","SDPRA","Pine Ridge Agency","181","","","HERNANDEZ","","","","","","1996","1996/07/16 00:00:00+00","198","2000","Human","Misuse of fire by a minor","Minor","1996/07/16 00:00:00+00","198","2012","1","B","43.04","-102.5668","BIA","SD","","",""
"-102.550390053","42.999992963","180199","182368","W-312430","FED","DOI-WFMI","BIA","USSDPRA","Pine Ridge Agency","SDPRA","Pine Ridge Agency","178","","","SANDHILL","","","","","","1996","1996/07/17 00:00:00+00","199","0130","Natural","Natural","","1996/07/17 00:00:00+00","199","0215","0.1","A","43","-102.5504","BIA","SD","","",""
"-102.551790049","43.02919296","180200","182369","W-312435","FED","DOI-WFMI","BIA","USSDPRA","Pine Ridge Agency","SDPRA","Pine Ridge Agency","183","","","TAKENALIVE","","","","","","1996","1996/07/17 00:00:00+00","199","1300","Human","Misuse of fire by a minor","Minor","1996/07/17 00:00:00+00","199","1315","1","B","43.0292","-102.5518","BIA","SD","","",""
"-102.562890049","43.011092963","180201","182370","W-312434","FED","DOI-WFMI","BIA","USSDPRA","Pine Ridge Agency","SDPRA","Pine Ridge Agency","182","","","MOCPRK3","","","","","","1996","1996/07/17 00:00:00+00","199","1300","Human","Misuse of fire by a minor","Minor","1996/07/17 00:00:00+00","199","1410","5","B","43.0111","-102.5629","BIA","SD","","",""
"-102.551790048","43.036092959","180202","182371","W-312436","FED","DOI-WFMI","BIA","USSDPRA","Pine Ridge Agency","SDPRA","Pine Ridge Agency","184","","","GIPP","","","","","","1996","1996/07/17 00:00:00+00","199","1400","Human","Debris and open burning","","1996/07/17 00:00:00+00","199","1415","1","B","43.0361","-102.5518","BIA","SD","","",""
"-102.665689951","43.511092906","180203","182372","W-312437","FED","DOI-WFMI","BIA","USSDPRA","Pine Ridge Agency","SDPRA","Pine Ridge Agency","185","","","CUNYII","","","","","","1996","1996/07/17 00:00:00+00","199","1500","Human","Equipment and vehicle use","","1996/07/17 00:00:00+00","199","1930","5","B","43.5111","-102.6657","BIA","SD","","",""
"-102.519290057","43.026092958","180204","182373","W-312438","FED","DOI-WFMI","BIA","USSDPRA","Pine Ridge Agency","SDPRA","Pine Ridge Agency","186","","","REDDYS","","","","","","1996","1996/07/17 00:00:00+00","199","1600","Human","Debris and open burning","","1996/07/17 00:00:00+00","199","1650","0.1","A","43.0261","-102.5193","BIA","SD","","",""
"-102.523190015","43.31219292","180205","182374","W-312439","FED","DOI-WFMI","BIA","USSDPRA","Pine Ridge Agency","SDPRA","Pine Ridge Agency","187","","","BAILEYFIRE","","","","","","1996","1996/07/17 00:00:00+00","199","1613","Human","Debris and open burning","","1996/07/17 00:00:00+00","199","1635","0.5","B","43.3122","-102.5232","BIA","SD","","",""
"-102.564290048","43.013892963","180206","182375","W-312440","FED","DOI-WFMI","BIA","USSDPRA","Pine Ridge Agency","SDPRA","Pine Ridge Agency","188","","","GATES","","","","","","1996","1996/07/17 00:00:00+00","199","2320","Human","Firearms and explosives use","","1996/07/17 00:00:00+00","199","2340","2","B","43.0139","-102.5643","BIA","SD","","",""
"-102.552890049","43.02329296","180207","182376","W-312441","FED","DOI-WFMI","BIA","USSDPRA","Pine Ridge Agency","SDPRA","Pine Ridge Agency","189","","","GOING","","","","","","1996","1996/07/18 00:00:00+00","200","1300","Human","Debris and open burning","","1996/07/18 00:00:00+00","200","1325","0.1","A","43.0233","-102.5529","BIA","SD","","",""
"-102.555690052","43.001692964","180208","182377","W-312442","FED","DOI-WFMI","BIA","USSDPRA","Pine Ridge Agency","SDPRA","Pine Ridge Agency","190","","","JUMPINGEAG","","","","","","1996","1996/07/18 00:00:00+00","200","1430","Human","Debris and open burning","","1996/07/18 00:00:00+00","200","1455","0.1","A","43.0017","-102.5557","BIA","SD","","",""
"-102.552690049","43.02829296","180209","182378","W-312443","FED","DOI-WFMI","BIA","USSDPRA","Pine Ridge Agency","SDPRA","Pine Ridge Agency","191","","","GABBYS","","","","","","1996","1996/07/18 00:00:00+00","200","1630","Human","Misuse of fire by a minor","Minor","1996/07/18 00:00:00+00","200","1720","0.1","A","43.0283","-102.5527","BIA","SD","","",""
"-102.810189984","43.038892978","180210","182379","W-312444","FED","DOI-WFMI","BIA","USSDPRA","Pine Ridge Agency","SDPRA","Pine Ridge Agency","192","","","TWOBULLS","","","","","","1996","1996/07/18 00:00:00+00","200","1700","Human","Debris and open burning","","1996/07/18 00:00:00+00","200","1720","1","B","43.0389","-102.8102","BIA","SD","","",""
"-102.626790015","43.138892951","180211","182380","W-312417","FED","DOI-WFMI","BIA","USSDPRA","Pine Ridge Agency","SDPRA","Pine Ridge Agency","165","","","LAKOTAS","","","","","","1996","1996/07/19 00:00:00+00","201","1130","Human","Debris and open burning","","1996/07/19 00:00:00+00","201","1215","0.1","A","43.1389","-102.6268","BIA","SD","","",""
"-102.357390077","43.169392926","180212","182381","W-312447","FED","DOI-WFMI","BIA","USSDPRA","Pine Ridge Agency","SDPRA","Pine Ridge Agency","195","","","MARTINEZ","","","","","","1996","1996/07/19 00:00:00+00","201","1520","Human","Debris and open burning","","1996/07/19 00:00:00+00","201","1630","8","B","43.1694","-102.3574","BIA","SD","","",""
"-102.478190022","43.341092913","180213","182382","W-312446","FED","DOI-WFMI","BIA","USSDPRA","Pine Ridge Agency","SDPRA","Pine Ridge Agency","194","","","MANDERDUMP","","","","","","1996","1996/07/19 00:00:00+00","201","2359","Human","Debris and open burning","","1996/07/20 00:00:00+00","202","0130","3","B","43.3411","-102.4782","BIA","SD","","",""
"-102.545990051","43.02639296","180214","182383","W-312448","FED","DOI-WFMI","BIA","USSDPRA","Pine Ridge Agency","SDPRA","Pine Ridge Agency","196","","","DEON","","","","","","1996","1996/07/20 00:00:00+00","202","1230","Human","Firearms and explosives use","","1996/07/20 00:00:00+00","202","1250","0.1","A","43.0264","-102.546","BIA","SD","","",""
"-102.549890051","43.020492961","180215","182384","W-312449","FED","DOI-WFMI","BIA","USSDPRA","Pine Ridge Agency","SDPRA","Pine Ridge Agency","197","","","BREWERII","","","","","","1996","1996/07/21 00:00:00+00","203","1530","Human","Debris and open burning","","1996/07/21 00:00:00+00","203","1545","0.1","A","43.0205","-102.5499","BIA","SD","","",""
"-102.555690046","43.041392958","180216","182385","W-312455","FED","DOI-WFMI","BIA","USSDPRA","Pine Ridge Agency","SDPRA","Pine Ridge Agency","203","","","IRELAND","","","","","","1996","1996/07/22 00:00:00+00","204","0030","Human","Debris and open burning","","1996/07/22 00:00:00+00","204","0045","1.5","B","43.0414","-102.5557","BIA","SD","","",""
"-102.563790046","43.03169296","180217","182386","W-312450","FED","DOI-WFMI","BIA","USSDPRA","Pine Ridge Agency","SDPRA","Pine Ridge Agency","198","","","TRAILER","","","","","","1996","1996/07/22 00:00:00+00","204","0500","Human","Other causes","","1996/07/22 00:00:00+00","204","0545","0.1","A","43.0317","-102.5638","BIA","SD","","",""
"-102.461590038","43.261092922","180218","182387","W-312452","FED","DOI-WFMI","BIA","USSDPRA","Pine Ridge Agency","SDPRA","Pine Ridge Agency","200","","","JUMPING","","","","","","1996","1996/07/22 00:00:00+00","204","1130","Human","Smoking","","1996/07/22 00:00:00+00","204","1140","0.1","A","43.2611","-102.4616","BIA","SD","","",""
"-102.536590054","43.01939296","180219","182388","W-312451","FED","DOI-WFMI","BIA","USSDPRA","Pine Ridge Agency","SDPRA","Pine Ridge Agency","199","","","HEADSTART","","","","","","1996","1996/07/22 00:00:00+00","204","1330","Human","Other causes","","1996/07/22 00:00:00+00","204","1355","0.1","A","43.0194","-102.5366","BIA","SD","","",""
"-102.42539004","43.312192913","180220","182389","W-312454","FED","DOI-WFMI","BIA","USSDPRA","Pine Ridge Agency","SDPRA","Pine Ridge Agency","202","","","TOMAHAWK","","","","","","1996","1996/07/22 00:00:00+00","204","1400","Human","Debris and open burning","","1996/07/22 00:00:00+00","204","1440","1","B","43.3122","-102.4254","BIA","SD","","",""
"-102.543490052","43.02499296","180221","182390","W-312453","FED","DOI-WFMI","BIA","USSDPRA","Pine Ridge Agency","SDPRA","Pine Ridge Agency","201","","","CRAZYHORSE","","","","","","1996","1996/07/22 00:00:00+00","204","1800","Human","Misuse of fire by a minor","Minor","1996/07/22 00:00:00+00","204","1820","0.1","A","43.025","-102.5435","BIA","SD","","",""
"-102.549890049","43.02859296","180222","182391","W-312460","FED","DOI-WFMI","BIA","USSDPRA","Pine Ridge Agency","SDPRA","Pine Ridge Agency","208","","","HOWARD","","","","","","1996","1996/07/23 00:00:00+00","205","1220","Human","Debris and open burning","","1996/07/23 00:00:00+00","205","1230","0.2","A","43.0286","-102.5499","BIA","SD","","",""
"-102.589290033","43.074992956","180223","182392","W-312457","FED","DOI-WFMI","BIA","USSDPRA","Pine Ridge Agency","SDPRA","Pine Ridge Agency","205","","","MISSIONII","","","","","","1996","1996/07/23 00:00:00+00","205","1300","Human","Debris and open burning","","1996/07/23 00:00:00+00","205","1430","15","C","43.075","-102.5893","BIA","SD","","",""
"-102.555690049","43.023592961","180224","182393","W-312456","FED","DOI-WFMI","BIA","USSDPRA","Pine Ridge Agency","SDPRA","Pine Ridge Agency","204","","","GOINGSII","","","","","","1996","1996/07/23 00:00:00+00","205","1300","Human","Debris and open burning","","1996/07/23 00:00:00+00","205","1315","0.1","A","43.0236","-102.5557","BIA","SD","","",""
"-102.730989994","43.103892964","180225","182394","W-312458","FED","DOI-WFMI","BIA","USSDPRA","Pine Ridge Agency","SDPRA","Pine Ridge Agency","206","","","BUFFALO","","","","","","1996","1996/07/23 00:00:00+00","205","1400","Natural","Natural","","1996/07/23 00:00:00+00","205","2359","30","C","43.1039","-102.731","BIA","SD","","",""
"-102.743489982","43.167492956","180226","182395","W-312459","FED","DOI-WFMI","BIA","USSDPRA","Pine Ridge Agency","SDPRA","Pine Ridge Agency","207","","","LOUDHAWK","","","","","","1996","1996/07/23 00:00:00+00","205","1700","Human","Misuse of fire by a minor","Minor","1996/07/23 00:00:00+00","205","1740","8","B","43.1675","-102.7435","BIA","SD","","",""
"-102.724589985","43.178592953","180227","182396","W-312461","FED","DOI-WFMI","BIA","USSDPRA","Pine Ridge Agency","SDPRA","Pine Ridge Agency","209","","","IGLOOOG2","","","","","","1996","1996/07/24 00:00:00+00","206","1600","Human","Debris and open burning","","1996/07/24 00:00:00+00","206","1630","0.1","A","43.1786","-102.7246","BIA","SD","","",""
"-102.544890051","43.026392959","180228","182397","W-312462","FED","DOI-WFMI","BIA","USSDPRA","Pine Ridge Agency","SDPRA","Pine Ridge Agency","210","","","WITTS2","","","","","","1996","1996/07/24 00:00:00+00","206","1830","Human","Misuse of fire by a minor","Minor","1996/07/24 00:00:00+00","206","1845","0.1","A","43.0264","-102.5449","BIA","SD","","",""
"-102.498490062","43.029192956","180229","182398","W-312463","FED","DOI-WFMI","BIA","USSDPRA","Pine Ridge Agency","SDPRA","Pine Ridge Agency","211","","","CATCHES","","","","","","1996","1996/07/24 00:00:00+00","206","2100","Human","Arson/incendiarism","","1996/07/24 00:00:00+00","206","2140","0.1","A","43.0292","-102.4985","BIA","SD","","",""
"-102.538490037","43.132192945","180230","182399","W-312465","FED","DOI-WFMI","BIA","USSDPRA","Pine Ridge Agency","SDPRA","Pine Ridge Agency","213","","","ELKFACE","","","","","","1996","1996/07/24 00:00:00+00","206","2220","Human","Debris and open burning","","1996/07/24 00:00:00+00","206","2230","0.2","A","43.1322","-102.5385","BIA","SD","","",""
"-102.561590044","43.042992959","180231","182400","W-312466","FED","DOI-WFMI","BIA","USSDPRA","Pine Ridge Agency","SDPRA","Pine Ridge Agency","214","","","D-JANIS","","","","","","1996","1996/07/25 00:00:00+00","207","2110","Human","Debris and open burning","","1996/07/25 00:00:00+00","207","2120","0.3","B","43.043","-102.5616","BIA","SD","","",""
"-102.571790044","43.032192961","180232","182401","W-312464","FED","DOI-WFMI","BIA","USSDPRA","Pine Ridge Agency","SDPRA","Pine Ridge Agency","212","","","GATESII","","","","","","1996","1996/07/25 00:00:00+00","207","2305","Human","Misuse of fire by a minor","Minor","1996/07/25 00:00:00+00","207","2320","0.5","B","43.0322","-102.5718","BIA","SD","","",""
"-102.54629005","43.030492959","180233","182402","W-312467","FED","DOI-WFMI","BIA","USSDPRA","Pine Ridge Agency","SDPRA","Pine Ridge Agency","215","","","MATHEWS","","","","","","1996","1996/07/26 00:00:00+00","208","1358","Human","Misuse of fire by a minor","Minor","1996/07/26 00:00:00+00","208","1414","0.1","A","43.0305","-102.5463","BIA","SD","","",""
"-102.405190055","43.239392921","180234","182403","W-312468","FED","DOI-WFMI","BIA","USSDPRA","Pine Ridge Agency","SDPRA","Pine Ridge Agency","216","","","SDAKOTA","","","","","","1996","1996/07/26 00:00:00+00","208","1600","Human","Misuse of fire by a minor","Minor","1996/07/26 00:00:00+00","208","1610","1.1","B","43.2394","-102.4052","BIA","SD","","",""
"-102.542089995","43.416692908","180235","182404","W-312470","FED","DOI-WFMI","BIA","USSDPRA","Pine Ridge Agency","SDPRA","Pine Ridge Agency","218","","","TEMPLES","","","","","","1996","1996/07/26 00:00:00+00","208","1630","Natural","Natural","","1996/07/26 00:00:00+00","208","1750","0.1","A","43.4167","-102.5421","BIA","SD","","",""
"-102.589290027","43.115492951","180236","182405","W-312469","FED","DOI-WFMI","BIA","USSDPRA","Pine Ridge Agency","SDPRA","Pine Ridge Agency","217","","","HOLLY","","","","","","1996","1996/07/26 00:00:00+00","208","1630","Human","Debris and open burning","","1996/07/26 00:00:00+00","208","1705","1","B","43.1155","-102.5893","BIA","SD","","",""
"-102.54769005","43.02499296","180237","182406","W-312472","FED","DOI-WFMI","BIA","USSDPRA","Pine Ridge Agency","SDPRA","Pine Ridge Agency","220","","","HOLYCROSS","","","","","","1996","1996/07/26 00:00:00+00","208","1715","Human","Misuse of fire by a minor","Minor","1996/07/26 00:00:00+00","208","1740","0.2","A","43.025","-102.5477","BIA","SD","","",""
"-102.560190047","43.02829296","180238","182407","W-312474","FED","DOI-WFMI","BIA","USSDPRA","Pine Ridge Agency","SDPRA","Pine Ridge Agency","222","","","COMPOUND","","","","","","1996","1996/07/27 00:00:00+00","209","1430","Human","Misuse of fire by a minor","Minor","1996/07/27 00:00:00+00","209","1450","0.1","A","43.0283","-102.5602","BIA","SD","","",""
"-102.55239005","43.021692961","180239","182408","W-312475","FED","DOI-WFMI","BIA","USSDPRA","Pine Ridge Agency","SDPRA","Pine Ridge Agency","223","","","GREG","","","","","","1996","1996/07/27 00:00:00+00","209","1500","Human","Debris and open burning","","1996/07/27 00:00:00+00","209","1520","0.1","A","43.0217","-102.5524","BIA","SD","","",""
"-102.554890048","43.032192959","180240","182409","W-312476","FED","DOI-WFMI","BIA","USSDPRA","Pine Ridge Agency","SDPRA","Pine Ridge Agency","224","","","TWISS","","","","","","1996","1996/07/27 00:00:00+00","209","1530","Human","Debris and open burning","","1996/07/27 00:00:00+00","209","1550","0.1","A","43.0322","-102.5549","BIA","SD","","",""
"-102.389290039","43.377792901","180241","182410","W-312477","FED","DOI-WFMI","BIA","USSDPRA","Pine Ridge Agency","SDPRA","Pine Ridge Agency","225","","","SHARPS5","","","","","","1996","1996/07/29 00:00:00+00","211","1330","Human","Misuse of fire by a minor","Minor","1996/07/29 00:00:00+00","211","1615","130","D","43.3778","-102.3893","BIA","SD","","",""
"-102.335190082","43.175492924","180242","182411","W-312478","FED","DOI-WFMI","BIA","USSDPRA","Pine Ridge Agency","SDPRA","Pine Ridge Agency","226","","","GOODSHOT","","","","","","1996","1996/07/29 00:00:00+00","211","1631","Human","Debris and open burning","","1996/07/29 00:00:00+00","211","1730","3","B","43.1755","-102.3352","BIA","SD","","",""
"-102.80408998","43.073892973","180243","182412","W-312479","FED","DOI-WFMI","BIA","USSDPRA","Pine Ridge Agency","SDPRA","Pine Ridge Agency","227","","","SLMBTTES5","","","","","","1996","1996/07/30 00:00:00+00","212","0830","Human","Debris and open burning","","1996/07/30 00:00:00+00","212","0930","5","B","43.0739","-102.8041","BIA","SD","","",""
"-102.364890054","43.312992908","180244","182413","W-312480","FED","DOI-WFMI","BIA","USSDPRA","Pine Ridge Agency","SDPRA","Pine Ridge Agency","228","","","EVERGREEN","","","","","","1996","1996/08/01 00:00:00+00","214","1430","Human","Misuse of fire by a minor","Minor","1996/08/01 00:00:00+00","214","1600","2","B","43.313","-102.3649","BIA","SD","","",""
"-102.54959005","43.02829296","180245","182414","W-312481","FED","DOI-WFMI","BIA","USSDPRA","Pine Ridge Agency","SDPRA","Pine Ridge Agency","229","","","GALLIGO2","","","","","","1996","1996/08/01 00:00:00+00","214","1702","Human","Misuse of fire by a minor","Minor","1996/08/01 00:00:00+00","214","1730","0.1","A","43.0283","-102.5496","BIA","SD","","",""
"-102.00039019","42.999992921","180246","182415","W-312489","FED","DOI-WFMI","BIA","USSDPRA","Pine Ridge Agency","SDPRA","Pine Ridge Agency","237","","","DAWN","","","","","","1996","1996/08/01 00:00:00+00","214","2100","Human","Smoking","","1996/08/01 00:00:00+00","214","2300","0.1","A","43","-102.0004","BIA","SD","","",""
"-102.480190039","43.223292929","180247","182416","W-312482","FED","DOI-WFMI","BIA","USSDPRA","Pine Ridge Agency","SDPRA","Pine Ridge Agency","230","","","SRMANDER","","","","","","1996","1996/08/02 00:00:00+00","215","1646","Human","Misuse of fire by a minor","Minor","1996/08/02 00:00:00+00","215","1744","2","B","43.2233","-102.4802","BIA","SD","","",""
"-102.662989962","43.439392915","180248","182417","W-312483","FED","DOI-WFMI","BIA","USSDPRA","Pine Ridge Agency","SDPRA","Pine Ridge Agency","231","","","SRGALLEGO","","","","","","1996","1996/08/02 00:00:00+00","215","1815","Natural","Natural","","1996/08/02 00:00:00+00","215","2359","275","D","43.4394","-102.663","BIA","SD","","",""
"-102.449090014","43.445792897","180249","182418","W-312484","FED","DOI-WFMI","BIA","USSDPRA","Pine Ridge Agency","SDPRA","Pine Ridge Agency","232","","","SRMANDER2","","","","","","1996","1996/08/02 00:00:00+00","215","2000","Natural","Natural","","1996/08/02 00:00:00+00","215","2230","2","B","43.4458","-102.4491","BIA","SD","","",""
"-102.555190046","43.042492958","180250","182419","W-312485","FED","DOI-WFMI","BIA","USSDPRA","Pine Ridge Agency","SDPRA","Pine Ridge Agency","233","","","BABESBLZ","","","","","","1996","1996/08/02 00:00:00+00","215","2300","Human","Misuse of fire by a minor","Minor","1996/08/02 00:00:00+00","215","2320","1","B","43.0425","-102.5552","BIA","SD","","",""
"-102.029890106","43.533892853","180251","182420","W-312486","FED","DOI-WFMI","BIA","USSDPRA","Pine Ridge Agency","SDPRA","Pine Ridge Agency","234","","","SPUDCREEK","","","","","","1996","1996/08/03 00:00:00+00","216","1810","Natural","Natural","","1996/08/03 00:00:00+00","216","1940","1","B","43.5339","-102.0299","BIA","SD","","",""
"-102.480990038","43.229192928","180252","182421","W-312488","FED","DOI-WFMI","BIA","USSDPRA","Pine Ridge Agency","SDPRA","Pine Ridge Agency","236","","","KIDDY","","","","","","1996","1996/08/04 00:00:00+00","217","1625","Human","Misuse of fire by a minor","Minor","1996/08/04 00:00:00+00","217","1730","1.5","B","43.2292","-102.481","BIA","SD","","",""
"-102.754589977","43.184692955","180253","182422","W-312490","FED","DOI-WFMI","BIA","USSDPRA","Pine Ridge Agency","SDPRA","Pine Ridge Agency","238","","","OGLALAII","","","","","","1996","1996/08/06 00:00:00+00","219","1315","Human","Misuse of fire by a minor","Minor","1996/08/06 00:00:00+00","219","1350","1.5","B","43.1847","-102.7546","BIA","SD","","",""
"-102.889389873","43.665292903","180254","182423","W-312491","FED","DOI-WFMI","BIA","USSDPRA","Pine Ridge Agency","SDPRA","Pine Ridge Agency","239","","","RSVILLAGE","","","","","","1996","1996/08/06 00:00:00+00","219","1600","Human","Recreation and ceremony","","1996/08/06 00:00:00+00","219","2030","800","E","43.6653","-102.8894","BIA","SD","","",""
"-102.565690043","43.047192958","180255","182424","W-312493","FED","DOI-WFMI","BIA","USSDPRA","Pine Ridge Agency","SDPRA","Pine Ridge Agency","241","","","NOTUCUNY","","","","","","1996","1996/08/06 00:00:00+00","219","1920","Human","Misuse of fire by a minor","Minor","1996/08/06 00:00:00+00","219","1940","0.1","A","43.0472","-102.5657","BIA","SD","","",""
"-102.551790048","43.036092959","180256","182425","W-312492","FED","DOI-WFMI","BIA","USSDPRA","Pine Ridge Agency","SDPRA","Pine Ridge Agency","240","","","DEEDEE","","","","","","1996","1996/08/06 00:00:00+00","219","2000","Human","Misuse of fire by a minor","Minor","1996/08/06 00:00:00+00","219","2030","0.2","A","43.0361","-102.5518","BIA","SD","","",""
"-102.557890047","43.03109296","180257","182426","W-312494","FED","DOI-WFMI","BIA","USSDPRA","Pine Ridge Agency","SDPRA","Pine Ridge Agency","242","","","PLAYGROUND","","","","","","1996","1996/08/07 00:00:00+00","220","1430","Human","Fireworks","Minor","1996/08/07 00:00:00+00","220","1510","0.1","A","43.0311","-102.5579","BIA","SD","","",""
"-102.542690051","43.029192959","180258","182427","W-312495","FED","DOI-WFMI","BIA","USSDPRA","Pine Ridge Agency","SDPRA","Pine Ridge Agency","243","","","ROADSIDE","","","","","","1996","1996/08/07 00:00:00+00","220","1515","Human","Debris and open burning","","1996/08/07 00:00:00+00","220","1530","0.5","B","43.0292","-102.5427","BIA","SD","","",""
"-102.237890075","43.387492888","180259","182428","W-312496","FED","DOI-WFMI","BIA","USSDPRA","Pine Ridge Agency","SDPRA","Pine Ridge Agency","244","","","HERMANII","","","","","","1996","1996/08/07 00:00:00+00","220","1530","Human","Equipment and vehicle use","","1996/08/07 00:00:00+00","220","1700","4","B","43.3875","-102.2379","BIA","SD","","",""
"-102.540190052","43.024992959","180260","182429","W-312497","FED","DOI-WFMI","BIA","USSDPRA","Pine Ridge Agency","SDPRA","Pine Ridge Agency","245","","","NTHERWITT","","","","","","1996","1996/08/07 00:00:00+00","220","1545","Human","Debris and open burning","","1996/08/07 00:00:00+00","220","1600","0.1","A","43.025","-102.5402","BIA","SD","","",""
"-102.551790049","43.02919296","180261","182430","W-312498","FED","DOI-WFMI","BIA","USSDPRA","Pine Ridge Agency","SDPRA","Pine Ridge Agency","246","","","HEADSTONE","","","","","","1996","1996/08/07 00:00:00+00","220","1645","Human","Misuse of fire by a minor","Minor","1996/08/07 00:00:00+00","220","1700","0.1","A","43.0292","-102.5518","BIA","SD","","",""
"-102.536590054","43.022192959","180262","182431","W-312499","FED","DOI-WFMI","BIA","USSDPRA","Pine Ridge Agency","SDPRA","Pine Ridge Agency","247","","","FENCE","","","","","","1996","1996/08/07 00:00:00+00","220","1830","Human","Debris and open burning","","1996/08/07 00:00:00+00","220","1850","0.1","A","43.0222","-102.5366","BIA","SD","","",""
"-102.376790052","43.312492909","180263","182432","W-312500","FED","DOI-WFMI","BIA","USSDPRA","Pine Ridge Agency","SDPRA","Pine Ridge Agency","248","","","POURIER","","","","","","1996","1996/08/07 00:00:00+00","220","2115","Human","Fireworks","Minor","1996/08/07 00:00:00+00","220","2150","0.3","B","43.3125","-102.3768","BIA","SD","","",""
"-102.307890081","43.229392915","180264","182433","W-312501","FED","DOI-WFMI","BIA","USSDPRA","Pine Ridge Agency","SDPRA","Pine Ridge Agency","249","","","PORKHILL","","","","","","1996","1996/08/08 00:00:00+00","221","1530","Human","Arson/incendiarism","","1996/08/08 00:00:00+00","221","2359","47","C","43.2294","-102.3079","BIA","SD","","",""
"-102.372390076","43.15279293","180265","182434","W-312502","FED","DOI-WFMI","BIA","USSDPRA","Pine Ridge Agency","SDPRA","Pine Ridge Agency","250","","","CAN","","","","","","1996","1996/08/08 00:00:00+00","221","2315","Human","Debris and open burning","","1996/08/08 00:00:00+00","221","2359","0.5","B","43.1528","-102.3724","BIA","SD","","",""
"-102.575390029","43.124992949","180266","182435","W-312503","FED","DOI-WFMI","BIA","USSDPRA","Pine Ridge Agency","SDPRA","Pine Ridge Agency","251","","","PIZZAHUT","","","","","","1996","1996/08/09 00:00:00+00","222","1330","Human","Misuse of fire by a minor","Minor","1996/08/09 00:00:00+00","222","1335","0.1","A","43.125","-102.5754","BIA","SD","","",""
"-102.257390073","43.369392892","180267","182436","W-312504","FED","DOI-WFMI","BIA","USSDPRA","Pine Ridge Agency","SDPRA","Pine Ridge Agency","252","","","MARTINEZ","","","","","","1996","1996/08/09 00:00:00+00","222","1540","Human","Debris and open burning","","1996/08/09 00:00:00+00","222","1900","15","C","43.3694","-102.2574","BIA","SD","","",""
"-102.547690051","43.02299296","180268","182437","W-312505","FED","DOI-WFMI","BIA","USSDPRA","Pine Ridge Agency","SDPRA","Pine Ridge Agency","253","","","BEANS","","","","","","1996","1996/08/10 00:00:00+00","223","1430","Human","Debris and open burning","","1996/08/10 00:00:00+00","223","1503","0.1","A","43.023","-102.5477","BIA","SD","","",""
"-102.559290047","43.02859296","180269","182438","W-312506","FED","DOI-WFMI","BIA","USSDPRA","Pine Ridge Agency","SDPRA","Pine Ridge Agency","254","","","TRAILERIII","","","","","","1996","1996/08/12 00:00:00+00","225","1330","Human","Debris and open burning","","1996/08/12 00:00:00+00","225","1345","0.1","A","43.0286","-102.5593","BIA","SD","","",""
"-102.558190048","43.021692961","180270","182439","W-312507","FED","DOI-WFMI","BIA","USSDPRA","Pine Ridge Agency","SDPRA","Pine Ridge Agency","255","","","RODEO4","","","","","","1996","1996/08/13 00:00:00+00","226","1251","Human","Misuse of fire by a minor","Minor","1996/08/13 00:00:00+00","226","1300","0.1","A","43.0217","-102.5582","BIA","SD","","",""
"-102.604590027","43.088892956","180271","182440","W-312508","FED","DOI-WFMI","BIA","USSDPRA","Pine Ridge Agency","SDPRA","Pine Ridge Agency","256","","","COUCH","","","","","","1996","1996/08/13 00:00:00+00","226","1730","Human","Misuse of fire by a minor","Minor","1996/08/13 00:00:00+00","226","1750","0.1","A","43.0889","-102.6046","BIA","SD","","",""
"-102.896289879","43.612492911","180272","182441","W-312510","FED","DOI-WFMI","BIA","USSDPRA","Pine Ridge Agency","SDPRA","Pine Ridge Agency","258","","","STWOBULLS","","","","","","1996","1996/08/14 00:00:00+00","227","1330","Human","Misuse of fire by a minor","Minor","1996/08/14 00:00:00+00","227","1400","2","B","43.6125","-102.8963","BIA","SD","","",""
"-102.000390168","43.155592901","180273","182442","W-312511","FED","DOI-WFMI","BIA","USSDPRA","Pine Ridge Agency","SDPRA","Pine Ridge Agency","259","","","CRASH TEST","","","","","","1996","1996/08/14 00:00:00+00","227","1330","Human","Debris and open burning","","1996/08/14 00:00:00+00","227","1600","100","D","43.1556","-102.0004","BIA","SD","","",""
"-102.522690056","43.027792958","180274","182443","W-312512","FED","DOI-WFMI","BIA","USSDPRA","Pine Ridge Agency","SDPRA","Pine Ridge Agency","260","","","AIRPORT","","","","","","1996","1996/08/14 00:00:00+00","227","1900","Human","Misuse of fire by a minor","Minor","1996/08/14 00:00:00+00","227","1915","0.5","B","43.0278","-102.5227","BIA","SD","","",""
"-102.790189981","43.09299297","180275","182444","W-312514","FED","DOI-WFMI","BIA","USSDPRA","Pine Ridge Agency","SDPRA","Pine Ridge Agency","262","","","GUN","","","","","","1996","1996/08/15 00:00:00+00","228","1615","Human","Equipment and vehicle use","","1996/08/15 00:00:00+00","228","1735","0.1","A","43.093","-102.7902","BIA","SD","","",""
"-102.367090048","43.352792903","180276","182445","W-312516","FED","DOI-WFMI","BIA","USSDPRA","Pine Ridge Agency","SDPRA","Pine Ridge Agency","264","","","PUCKETT","","","","","","1996","1996/08/15 00:00:00+00","228","1630","Natural","Natural","","1996/08/15 00:00:00+00","228","1830","0.1","A","43.3528","-102.3671","BIA","SD","","",""
"-102.372690077","43.145792931","180277","182446","W-312517","FED","DOI-WFMI","BIA","USSDPRA","Pine Ridge Agency","SDPRA","Pine Ridge Agency","265","","","MOOSE","","","","","","1996","1996/08/18 00:00:00+00","231","0550","Human","Debris and open burning","","1996/08/18 00:00:00+00","231","0630","0.1","A","43.1458","-102.3727","BIA","SD","","",""
"-102.54539005","43.030492959","180278","182447","W-312518","FED","DOI-WFMI","BIA","USSDPRA","Pine Ridge Agency","SDPRA","Pine Ridge Agency","266","","","DIXON","","","","","","1996","1996/08/18 00:00:00+00","231","1100","Human","Misuse of fire by a minor","Minor","1996/08/18 00:00:00+00","231","1115","0.1","A","43.0305","-102.5454","BIA","SD","","",""
"-102.459090009","43.462492896","180279","182448","W-312520","FED","DOI-WFMI","BIA","USSDPRA","Pine Ridge Agency","SDPRA","Pine Ridge Agency","268","","","JHART","","","","","","1996","1996/08/18 00:00:00+00","231","1510","Human","Smoking","","1996/08/18 00:00:00+00","231","1800","285","D","43.4625","-102.4591","BIA","SD","","",""
"-102.241290101","43.204392913","180280","182449","W-312519","FED","DOI-WFMI","BIA","USSDPRA","Pine Ridge Agency","SDPRA","Pine Ridge Agency","267","","","FOURBALES","","","","","","1996","1996/08/18 00:00:00+00","231","1630","Human","Missing data/not specified/undetermined","","1996/08/18 00:00:00+00","231","1700","0.5","B","43.2044","-102.2413","BIA","SD","","",""
"-102.064890111","43.434992869","180281","182450","W-312521","FED","DOI-WFMI","BIA","USSDPRA","Pine Ridge Agency","SDPRA","Pine Ridge Agency","269","","","DUDECOMPLX","","","","","DUDE COMPLEX","1996","1996/08/19 00:00:00+00","232","1610","Human","Equipment and vehicle use","","1996/08/19 00:00:00+00","232","2000","100","D","43.435","-102.0649","BIA","SD","","",""
"-102.599890036","43.036892962","180282","182451","W-312522","FED","DOI-WFMI","BIA","USSDPRA","Pine Ridge Agency","SDPRA","Pine Ridge Agency","270","","","BERNIE","","","","","","1996","1996/08/20 00:00:00+00","233","1615","Human","Debris and open burning","","1996/08/20 00:00:00+00","233","1630","0.1","A","43.0369","-102.5999","BIA","SD","","",""
"-102.862989907","43.481892925","180283","182452","W-312523","FED","DOI-WFMI","BIA","USSDPRA","Pine Ridge Agency","SDPRA","Pine Ridge Agency","271","","","NO SHOW","","","","","","1996","1996/08/21 00:00:00+00","234","0030","Human","Arson/incendiarism","","1996/08/21 00:00:00+00","234","0345","86","C","43.4819","-102.863","BIA","SD","","",""
"-102.54769005","43.029192959","180284","182453","W-312525","FED","DOI-WFMI","BIA","USSDPRA","Pine Ridge Agency","SDPRA","Pine Ridge Agency","273","","","ROJO","","","","","","1996","1996/08/21 00:00:00+00","234","1530","Human","Misuse of fire by a minor","Minor","1996/08/21 00:00:00+00","234","1545","0.3","B","43.0292","-102.5477","BIA","SD","","",""
