"ï»¿X","Y","OBJECTID","FOD_ID","FPA_ID","SOURCE_SYSTEM_TYPE","SOURCE_SYSTEM","NWCG_REPORTING_AGENCY","NWCG_REPORTING_UNIT_ID","NWCG_REPORTING_UNIT_NAME","SOURCE_REPORTING_UNIT","SOURCE_REPORTING_UNIT_NAME","LOCAL_FIRE_REPORT_ID","LOCAL_INCIDENT_ID","FIRE_CODE","FIRE_NAME","ICS_209_PLUS_INCIDENT_JOIN_ID","ICS_209_PLUS_COMPLEX_JOIN_ID","MTBS_ID","MTBS_FIRE_NAME","COMPLEX_NAME","FIRE_YEAR","DISCOVERY_DATE","DISCOVERY_DOY","DISCOVERY_TIME","NWCG_CAUSE_CLASSIFICATION","NWCG_GENERAL_CAUSE","NWCG_CAUSE_AGE_CATEGORY","CONT_DATE","CONT_DOY","CONT_TIME","FIRE_SIZE","FIRE_SIZE_CLASS","LATITUDE","LONGITUDE","OWNER_DESCR","STATE","COUNTY","FIPS_CODE","FIPS_NAME"
"-95.672923782","37.007632928","2065001","400321560","SFO-2018KSKSS20181619","NONFED","ST-NASF","ST/C&L","USKSKSS","Kansas Forest Service","KSKSS","Kansas State Forestry (PBC Area)","","20181619","","1820054","","","","","","2018","2018/03/06 00:00:00+00","65","1243","Human","Other causes","","2018/03/06 00:00:00+00","65","1633","7","B","37.00763949","-95.67293132","MISSING/NOT SPECIFIED","KS","Montgomery","20125","Montgomery County"
"-80.755531801","34.92414918","2065002","400321562","SFO-2018NCNCSNCST-090-FY2018-0212","NONFED","ST-NASF","ST/C&L","USNCNCS","North Carolina Forest Service","NCNCS","North Carolina State Division of Forest Resouces","","NCST-090-FY2018-0212","","WAXHAW MARVIN RD","","","","","","2018","2018/03/08 00:00:00+00","67","1435","Human","Other causes","","2018/03/08 00:00:00+00","67","1509","0.15","A","34.924156","-80.755535","MISSING/NOT SPECIFIED","NC","Union","37179","Union County"
"-94.053993207","32.35799423","2065003","400321563","SFO-2018TXTXS6189","NONFED","ST-NASF","ST/C&L","USTXTXS","Texas A & M Forest Service","TXTXS","Texas Forest Service","","6189","","180210","","","","","","2018","2018/03/09 00:00:00+00","68","1203","Human","Other causes","","2018/03/09 00:00:00+00","68","1406","3","B","32.358","-94.054","MISSING/NOT SPECIFIED","TX","Panola","48365","Panola County"
"-80.033191013","34.99241614","2065004","400321564","SFO-2018NCNCSNCST-004-FY2018-0096","NONFED","ST-NASF","ST/C&L","USNCNCS","North Carolina Forest Service","NCNCS","North Carolina State Division of Forest Resouces","","NCST-004-FY2018-0096","","WINFREY CABIN","","","","","","2018","2018/03/09 00:00:00+00","68","1543","Human","Other causes","","2018/03/09 00:00:00+00","68","1630","1.73","B","34.992423","-80.033194","MISSING/NOT SPECIFIED","NC","Anson","37007","Anson County"
"-79.447690203","34.699149183","2065005","400321565","SFO-2018NCNCSNCST-083-FY2018-0089","NONFED","ST-NASF","ST/C&L","USNCNCS","North Carolina Forest Service","NCNCS","North Carolina State Division of Forest Resouces","","NCST-083-FY2018-0089","","PEA BRIDGE ROAD 2","","","","","","2018","2018/03/10 00:00:00+00","69","1209","Human","Other causes","","2018/03/10 00:00:00+00","69","1235","0.09","A","34.699156","-79.447693","MISSING/NOT SPECIFIED","NC","Scotland","37165","Scotland County"
"-87.28259484","35.894343239","2065006","400321566","SFO-2018TNTNS18-H0045","NONFED","ST-NASF","ST/C&L","USTNTNS","Tennessee Division of Forestry","TNTNS","Tennessee Division of Forestry","","18-H0045","","S. TATUM CR. RD","","","","","","2018","2018/03/10 00:00:00+00","69","1725","Human","Other causes","","2018/03/10 00:00:00+00","69","1930","1","B","35.89435","-87.2826","PRIVATE","TN","HICKMAN","47081","Hickman County"
"-87.99304464","35.875660274","2065007","400321567","SFO-2018TNTNS18-W0034","NONFED","ST-NASF","ST/C&L","USTNTNS","Tennessee Division of Forestry","TNTNS","Tennessee Division of Forestry","","18-W0034","","ZELMER","","","","","","2018","2018/03/10 00:00:00+00","69","0650","Human","Other causes","","2018/03/10 00:00:00+00","69","0800","1","B","35.875667","-87.99305","PRIVATE","TN","BENTON","47005","Benton County"
"-79.856740166","32.928353589","2065008","400321569","SFO-2018SCSCS18WF0337","NONFED","ST-NASF","ST/C&L","USSCSCS","South Carolina Forestry Commission","SCSCS","South Carolina Forestry Commission","","18WF0337","","","","","","","","2018","2018/03/11 00:00:00+00","70","1602","Human","Other causes","","2018/03/11 00:00:00+00","70","1728","1","B","32.92836","-79.856743","MISSING/NOT SPECIFIED","SC","Berkeley County","45015","Berkeley County"
"-93.339833047","37.42418524","2065009","400321570","SFO-2018MOMOSMO-08407-2018-176143","NONFED","ST-NASF","ST/C&L","USMOMOS","Missouri Department of Conservation","MOMOS","Missouri Department of Conservation","","MO-08407-2018-176143","","176143-08407-03152018-1359","","","","","","2018","2018/03/15 00:00:00+00","74","1359","Human","Other causes","","","","","0.187","A","37.424192","-93.33984","PRIVATE","MO","Polk","29167","Polk County"
"-81.940296691","29.614194416","2065010","400321571","SFO-2018FLFLS2018080144","NONFED","ST-NASF","ST/C&L","USFLFLS","Florida Forest Service","FLFLS","Florida Forest Service","","2018080144","","TEARDOWN(54)","","","","","","2018","2018/03/13 00:00:00+00","72","1600","Human","Other causes","","2018/03/13 00:00:00+00","72","1616","0.3","B","29.6142","-81.9403","MISSING/NOT SPECIFIED","FL","Putnam","12107","Putnam County"
"-81.838482465","35.179097166","2065011","400321572","SFO-2018SCSCS18FF0477","NONFED","ST-NASF","ST/C&L","USSCSCS","South Carolina Forestry Commission","SCSCS","South Carolina Forestry Commission","","18FF0477","","","","","","","","2018","2018/03/13 00:00:00+00","72","1909","Human","Other causes","","2018/03/13 00:00:00+00","72","2030","1","B","35.179104","-81.838486","PRIVATE","SC","Cherokee County","45021","Cherokee County"
"-83.209696289","30.484394251","2065012","400321573","SFO-2018FLFLS2018060480","NONFED","ST-NASF","ST/C&L","USFLFLS","Florida Forest Service","FLFLS","Florida Forest Service","","2018060480","","SW COUNTY ROAD 143 (24-4)","","","","","","2018","2018/03/14 00:00:00+00","73","1645","Human","Other causes","","2018/03/14 00:00:00+00","73","1841","3","B","30.4844","-83.2097","PRIVATE","FL","Hamilton","12047","Hamilton County"
"-79.441594163","35.513234007","2065013","400321574","SFO-2018NCNCSNCST-063-FY2018-0103","NONFED","ST-NASF","ST/C&L","USNCNCS","North Carolina Forest Service","NCNCS","North Carolina State Division of Forest Resouces","","NCST-063-FY2018-0103","","JESSE PHILLIPS RD","","","","","","2018","2018/03/14 00:00:00+00","73","1730","Human","Other causes","","2018/03/14 00:00:00+00","73","1845","1.08","B","35.513241","-79.441597","MISSING/NOT SPECIFIED","NC","Moore","37125","Moore County"
"-82.827796437","29.525194462","2065014","400321576","SFO-2018FLFLS2018080160","NONFED","ST-NASF","ST/C&L","USFLFLS","Florida Forest Service","FLFLS","Florida Forest Service","","2018080160","","GRAHAM FARM BARN(38)","","","","","","2018","2018/03/15 00:00:00+00","74","1540","Human","Other causes","","2018/03/15 00:00:00+00","74","1649","0.2","A","29.5252","-82.8278","PRIVATE","FL","Levy","12075","Levy County"
"-79.356661221","34.88388314","2065015","400321577","SFO-2018NCNCSNCST-083-FY2018-0096","NONFED","ST-NASF","ST/C&L","USNCNCS","North Carolina Forest Service","NCNCS","North Carolina State Division of Forest Resouces","","NCST-083-FY2018-0096","","MCDONALD CIRCLE.","","","","","","2018","2018/03/15 00:00:00+00","74","1657","Human","Other causes","","2018/03/15 00:00:00+00","74","1716","0.14","A","34.88389","-79.356664","MISSING/NOT SPECIFIED","NC","Scotland","37165","Scotland County"
"-80.228186268","39.517744058","2065016","400321578","SFO-2018WVDOF2018-36986","NONFED","ST-NASF","ST/C&L","USWVWVS","West Virginia Division of Forestry","WVDOF","West Virginia Division of Forestry","","2018-36986","","DUNKARD RUN","","","","","","2018","2018/03/15 00:00:00+00","74","1555","Human","Other causes","","2018/03/15 00:00:00+00","74","1930","4","B","39.51775184","-80.22818959","PRIVATE","WV","Marion","54049","Marion County"
"-80.182896062","33.075867566","2065017","400321579","SFO-2018SCSCS18WF0352","NONFED","ST-NASF","ST/C&L","USSCSCS","South Carolina Forestry Commission","SCSCS","South Carolina Forestry Commission","","18WF0352","","","","","","","","2018","2018/03/15 00:00:00+00","74","1849","Human","Other causes","","2018/03/15 00:00:00+00","74","2027","0.5","B","33.075874","-80.182899","PRIVATE","SC","Berkeley County","45015","Berkeley County"
"-81.350876571","35.872533001","2065018","400321580","SFO-2018NCNCSNCST-014-FY2018-0119","NONFED","ST-NASF","ST/C&L","USNCNCS","North Carolina Forest Service","NCNCS","North Carolina State Division of Forest Resouces","","NCST-014-FY2018-0119","","CEMENT MIXER","","","","","","2018","2018/03/16 00:00:00+00","75","1051","Human","Other causes","","2018/03/16 00:00:00+00","75","1132","0.41","B","35.87254","-81.35088","MISSING/NOT SPECIFIED","NC","Caldwell","37027","Caldwell County"
"-80.946108695","35.814199998","2065019","400321581","SFO-2018NCNCSNCST-049-FY2018-0080","NONFED","ST-NASF","ST/C&L","USNCNCS","North Carolina Forest Service","NCNCS","North Carolina State Division of Forest Resouces","","NCST-049-FY2018-0080","","FAMILY CIRCLE","","","","","","2018","2018/03/16 00:00:00+00","75","1145","Human","Other causes","","2018/03/16 00:00:00+00","75","1156","0.05","A","35.814207","-80.946112","MISSING/NOT SPECIFIED","NC","Iredell","37097","Iredell County"
"-81.99799686","38.217002459","2065020","400321582","SFO-2018WVDOF2018-36786","NONFED","ST-NASF","ST/C&L","USWVWVS","West Virginia Division of Forestry","WVDOF","West Virginia Division of Forestry","","2018-36786","","389 SUGAR TREE ROAD","","","","","","2018","2018/03/16 00:00:00+00","75","1542","Human","Other causes","","2018/03/16 00:00:00+00","75","2100","1","B","38.21700991","-81.99800063","PRIVATE","WV","Lincoln","54043","Lincoln County"
"-78.954858324","35.236061049","2065021","400321583","SFO-2018NCNCSNCST-043-FY2018-0128","NONFED","ST-NASF","ST/C&L","USNCNCS","North Carolina Forest Service","NCNCS","North Carolina State Division of Forest Resouces","","NCST-043-FY2018-0128","","WILLIFORD #3","","","","","","2018","2018/03/16 00:00:00+00","75","0205","Human","Other causes","","2018/03/16 00:00:00+00","75","0331","0.31","B","35.236068","-78.954861","MISSING/NOT SPECIFIED","NC","Harnett","37085","Harnett County"
"-79.708539155","34.098111324","2065022","400321584","SFO-2018SCSCS18FF0527","NONFED","ST-NASF","ST/C&L","USSCSCS","South Carolina Forestry Commission","SCSCS","South Carolina Forestry Commission","","18FF0527","","","","","","","","2018","2018/03/17 00:00:00+00","76","1314","Human","Other causes","","2018/03/17 00:00:00+00","76","1509","0.5","B","34.098118","-79.708542","PRIVATE","SC","Florence County","45041","Florence County"
"-85.961334596","43.368125801","2065023","400321585","SFO-2018MDNR2018620001","NONFED","ST-NASF","ST/C&L","USMIMIS","Michigan Department of Natural Resources","MIDNR","Michigan Department of Natural Resources","","2018620001","","NEWAYGO 01","","","","","","2018","2018/07/03 00:00:00+00","184","1500","Human","Other causes","","","","","1.6","B","43.368134","-85.96134","PRIVATE","MI","Newaygo        ","26123","Newaygo County"
"-90.714813003","44.857511852","2065024","400321586","SFO-2018WI-WIS61260122018","NONFED","ST-NASF","ST/C&L","USWIWIS","Wisconsin Department of Natural Resources","WIWIS","Wisconsin Department of Natural Resources","","61260122018","","RESEBURG FIRE","","","","","","2018","2018/03/17 00:00:00+00","76","1913","Human","Other causes","","2018/03/17 00:00:00+00","76","2010","0.1","A","44.85752","-90.71482","PRIVATE","WI","Clark","55019","Clark County"
"-69.409199736","46.060390604","2065025","400321587","SFO-2018MEMES13018004","NONFED","ST-NASF","ST/C&L","USMEMES","Maine Forest Service","MEMES","Maine Forest Service","","13018004","","CHESUNCOOK LAKE HOUSE FIRE","","","","","","2018","2018/03/17 00:00:00+00","76","","Human","Other causes","","2018/03/17 00:00:00+00","76","","1","B","46.0604","-69.4092","PRIVATE","ME","Piscataquis","23021","Piscataquis County"
"-95.692468107","37.016276317","2065026","400321588","SFO-2018KSKSS20182665","NONFED","ST-NASF","ST/C&L","USKSKSS","Kansas Forest Service","KSKSS","Kansas State Forestry (PBC Area)","","20182665","","1820068","","","","","","2018","2018/03/18 00:00:00+00","77","1342","Human","Other causes","","2018/03/18 00:00:00+00","77","1502","0.1","A","37.01628288","-95.69247565","MISSING/NOT SPECIFIED","KS","Montgomery","20125","Montgomery County"
"-81.071546888","38.984826068","2065027","400321589","SFO-2018WVDOF2018-37131","NONFED","ST-NASF","ST/C&L","USWVWVS","West Virginia Division of Forestry","WVDOF","West Virginia Division of Forestry","","2018-37131","","1144 BACK FORK RD","","","","","","2018","2018/03/18 00:00:00+00","77","2014","Human","Other causes","","2018/03/18 00:00:00+00","77","2153","0.1","A","38.98483371","-81.07155043","PRIVATE","WV","Calhoun","54013","Calhoun County"
"-81.943196684","29.758494382","2065028","400321590","SFO-2018FLFLS2018070136","NONFED","ST-NASF","ST/C&L","USFLFLS","Florida Forest Service","FLFLS","Florida Forest Service","","2018070136","","BLAZING STAR (10)","","","","","","2018","2018/03/18 00:00:00+00","77","0230","Human","Other causes","","2018/03/18 00:00:00+00","77","0814","4","B","29.7585","-81.9432","PRIVATE","FL","Clay","12019","Clay County"
"-82.34289664","27.68049489","2065029","400321591","SFO-2018FLFLS2018140175","NONFED","ST-NASF","ST/C&L","USFLFLS","Florida Forest Service","FLFLS","Florida Forest Service","","2018140175","","BONITA DRIVE (29)","","","","","","2018","2018/03/15 00:00:00+00","74","1845","Human","Other causes","","2018/03/19 00:00:00+00","78","1006","4","B","27.6805","-82.3429","PRIVATE","FL","Hillsborough","12057","Hillsborough County"
"-79.523896847","40.188592059","2065030","400321592","SFO-2018PAPAS04(18)1-005","NONFED","ST-NASF","ST/C&L","USPAPAS","Pennsylvania Division of Forest Fire Protection","PAPAS","Pennsylvania Division of Forest Fire Protection","","04(18)1-005","","ABBY LANE","","","","","","2018","2018/03/19 00:00:00+00","78","1407","Human","Other causes","","2018/03/19 00:00:00+00","78","1430","0.5","B","40.1886","-79.5239","MISSING/NOT SPECIFIED","PA","Westmoreland","42129","Westmoreland County"
"-81.742425401","38.160947869","2065031","400321593","SFO-2018WVDOF2018-36924","NONFED","ST-NASF","ST/C&L","USWVWVS","West Virginia Division of Forestry","WVDOF","West Virginia Division of Forestry","","2018-36924","","BRICKTOWN AT NELLIS","","","","","","2018","2018/03/19 00:00:00+00","78","1720","Human","Other causes","","2018/03/19 00:00:00+00","78","2200","17","C","38.16095532","-81.74242909","PRIVATE","WV","Boone","54005","Boone County"
"-89.430753564","43.350962006","2065032","400321594","SFO-2018WI-WIS11270232018","NONFED","ST-NASF","ST/C&L","USWIWIS","Wisconsin Department of Natural Resources","WIWIS","Wisconsin Department of Natural Resources","","11270232018","","PINE HOLLOW","","","","","","2018","2018/03/21 00:00:00+00","80","1236","Human","Other causes","","2018/03/21 00:00:00+00","80","1314","0.6","B","43.35097","-89.43076","PRIVATE","WI","Columbia","55021","Columbia County"
"-77.253897448","41.723091673","2065033","400321595","SFO-2018PAPAS16(18)1-004","NONFED","ST-NASF","ST/C&L","USPAPAS","Pennsylvania Division of Forest Fire Protection","PAPAS","Pennsylvania Division of Forest Fire Protection","","16(18)1-004","","ROUND TOP","","","","","","2018","2018/03/21 00:00:00+00","80","1455","Human","Other causes","","2018/03/21 00:00:00+00","80","1519","2.75","B","41.7231","-77.2539","MISSING/NOT SPECIFIED","PA","Tioga","42117","Tioga County"
"-81.914753528","33.562043517","2065034","400321596","SFO-2018SCSCS18WF0381","NONFED","ST-NASF","ST/C&L","USSCSCS","South Carolina Forestry Commission","SCSCS","South Carolina Forestry Commission","","18WF0381","","","","","","","","2018","2018/03/21 00:00:00+00","80","1745","Human","Other causes","","2018/03/21 00:00:00+00","80","1929","2","B","33.56205","-81.914757","PRIVATE","SC","Aiken County","45003","Aiken County"
"-94.092043302","30.309427976","2065035","400321597","SFO-2018TXTXS6303","NONFED","ST-NASF","ST/C&L","USTXTXS","Texas A & M Forest Service","TXTXS","Texas Forest Service","","6303","","293","","","","","","2018","2018/03/22 00:00:00+00","81","1432","Human","Other causes","","2018/03/22 00:00:00+00","81","1608","2","B","30.30943333","-94.09205","MISSING/NOT SPECIFIED","TX","Jasper","48241","Jasper County"
"-93.086419113","37.454184221","2065036","400321598","SFO-2018MOMOSMO-03906-2018-176839","NONFED","ST-NASF","ST/C&L","USMOMOS","Missouri Department of Conservation","MOMOS","Missouri Department of Conservation","","MO-03906-2018-176839","","176839-03906-03222018-1736","","","","","","2018","2018/03/22 00:00:00+00","81","1736","Human","Other causes","","2018/03/22 00:00:00+00","81","1945","14.718","C","37.454191","-93.086426","PRIVATE","MO","Dallas","29059","Dallas County"
"-95.733142778","32.24964432","2065037","400321600","SFO-2018TXTXS6307","NONFED","ST-NASF","ST/C&L","USTXTXS","Texas A & M Forest Service","TXTXS","Texas Forest Service","","6307","","180296","","","","","","2018","2018/03/22 00:00:00+00","81","1635","Human","Other causes","","2018/03/22 00:00:00+00","81","2124","8","B","32.24965","-95.73315","MISSING/NOT SPECIFIED","TX","Henderson","48213","Henderson County"
"-101.941824459","33.650161011","2065038","400321601","SFO-2018TXTXS6312","NONFED","ST-NASF","ST/C&L","USTXTXS","Texas A & M Forest Service","TXTXS","Texas Forest Service","","6312","","NORTH FRANKFORT","","","","","","2018","2018/03/23 00:00:00+00","82","1243","Human","Other causes","","2018/03/23 00:00:00+00","82","1415","3","B","33.65016667","-101.9418333","MISSING/NOT SPECIFIED","TX","Lubbock","48303","Lubbock County"
"-79.776725095","34.892202153","2065039","400321602","SFO-2018NCNCSNCST-077-FY2018-0156","NONFED","ST-NASF","ST/C&L","USNCNCS","North Carolina Forest Service","NCNCS","North Carolina State Division of Forest Resouces","","NCST-077-FY2018-0156","","STOKES TRAILER","","","","","","2018","2018/03/23 00:00:00+00","82","0112","Human","Other causes","","2018/03/23 00:00:00+00","82","0143","0.09","A","34.892209","-79.776728","MISSING/NOT SPECIFIED","NC","Richmond","37153","Richmond County"
"-89.735613435","43.689141971","2065040","400321603","SFO-2018WI-WIS11070322018","NONFED","ST-NASF","ST/C&L","USWIWIS","Wisconsin Department of Natural Resources","WIWIS","Wisconsin Department of Natural Resources","","11070322018","","GILLETTE","","","","","","2018","2018/03/23 00:00:00+00","82","1825","Human","Other causes","","2018/03/23 00:00:00+00","82","1900","0.1","A","43.68915","-89.73562","PRIVATE","WI","Adams","55001","Adams County"
"-95.946468979","37.037818687","2065041","400321604","SFO-2018KSKSS20182866","NONFED","ST-NASF","ST/C&L","USKSKSS","Kansas Forest Service","KSKSS","Kansas State Forestry (PBC Area)","","20182866","","1830015","","","","","","2018","2018/03/24 00:00:00+00","83","1708","Human","Other causes","","2018/03/24 00:00:00+00","83","1950","17","C","37.03782524","-95.94647659","MISSING/NOT SPECIFIED","KS","Montgomery","20125","Montgomery County"
"-79.219107232","35.480437006","2065042","400321605","SFO-2018NCNCSNCST-053-FY2018-0106","NONFED","ST-NASF","ST/C&L","USNCNCS","North Carolina Forest Service","NCNCS","North Carolina State Division of Forest Resouces","","NCST-053-FY2018-0106","","OLD CARBONTON HOUSE","","","","","","2018","2018/03/25 00:00:00+00","84","1534","Human","Other causes","","2018/03/25 00:00:00+00","84","1605","0.01","A","35.480444","-79.21911","MISSING/NOT SPECIFIED","NC","Lee","37105","Lee County"
"-89.649683429","43.952421924","2065043","400321606","SFO-2018WI-WIS62020362018","NONFED","ST-NASF","ST/C&L","USWIWIS","Wisconsin Department of Natural Resources","WIWIS","Wisconsin Department of Natural Resources","","62020362018","","SPOT 1","","","","","","2018","2018/03/25 00:00:00+00","84","1615","Human","Other causes","","2018/03/25 00:00:00+00","84","1653","0.1","A","43.95243","-89.64969","PRIVATE","WI","Adams","55001","Adams County"
"-89.650163429","43.952451924","2065044","400321607","SFO-2018WI-WIS62020372018","NONFED","ST-NASF","ST/C&L","USWIWIS","Wisconsin Department of Natural Resources","WIWIS","Wisconsin Department of Natural Resources","","62020372018","","SPOT 2","","","","","","2018","2018/03/25 00:00:00+00","84","1615","Human","Other causes","","2018/03/25 00:00:00+00","84","1653","0.1","A","43.95246","-89.65017","PRIVATE","WI","Adams","55001","Adams County"
"-89.649853429","43.951871924","2065045","400321608","SFO-2018WI-WIS62020382018","NONFED","ST-NASF","ST/C&L","USWIWIS","Wisconsin Department of Natural Resources","WIWIS","Wisconsin Department of Natural Resources","","62020382018","","BARN SPOT 2","","","","","","2018","2018/03/25 00:00:00+00","84","1615","Human","Other causes","","2018/03/25 00:00:00+00","84","1653","0.1","A","43.95188","-89.64986","PRIVATE","WI","Adams","55001","Adams County"
"-89.649723429","43.951931924","2065046","400321609","SFO-2018WI-WIS62020392018","NONFED","ST-NASF","ST/C&L","USWIWIS","Wisconsin Department of Natural Resources","WIWIS","Wisconsin Department of Natural Resources","","62020392018","","BARN SPOT 1","","","","","","2018","2018/03/25 00:00:00+00","84","1615","Human","Other causes","","2018/03/25 00:00:00+00","84","1653","0.1","A","43.95194","-89.64973","PRIVATE","WI","Adams","55001","Adams County"
"-89.649053429","43.952131924","2065047","400321610","SFO-2018WI-WIS62020402018","NONFED","ST-NASF","ST/C&L","USWIWIS","Wisconsin Department of Natural Resources","WIWIS","Wisconsin Department of Natural Resources","","62020402018","","CTH M HOUSE FIRE","","","","","","2018","2018/03/25 00:00:00+00","84","1615","Human","Other causes","","2018/03/25 00:00:00+00","84","1653","0.25","A","43.95214","-89.64906","PRIVATE","WI","Adams","55001","Adams County"
"-76.391565073","35.84821983","2065048","400321611","SFO-2018NCNCSNCST-094-FY2018-0016","NONFED","ST-NASF","ST/C&L","USNCNCS","North Carolina Forest Service","NCNCS","North Carolina State Division of Forest Resouces","","NCST-094-FY2018-0016","","OLD CHERRY","","","","","","2018","2018/03/25 00:00:00+00","84","1130","Human","Other causes","","2018/03/26 00:00:00+00","85","0115","0.3","B","35.848227","-76.391567","MISSING/NOT SPECIFIED","NC","Washington","37187","Washington County"
"-90.28073331","43.397652051","2065049","400321612","SFO-2018WI-WIS11140382018","NONFED","ST-NASF","ST/C&L","USWIWIS","Wisconsin Department of Natural Resources","WIWIS","Wisconsin Department of Natural Resources","","11140382018","","DOG HOLLOW FIRE","","","","","","2018","2018/03/26 00:00:00+00","85","1309","Human","Other causes","","2018/03/26 00:00:00+00","85","1427","0.1","A","43.39766","-90.28074","PRIVATE","WI","Richland","55103","Richland County"
"-79.758327096","34.972240135","2065050","400321613","SFO-2018NCNCSNCST-077-FY2018-0159","NONFED","ST-NASF","ST/C&L","USNCNCS","North Carolina Forest Service","NCNCS","North Carolina State Division of Forest Resouces","","NCST-077-FY2018-0159","","NICHOLSON FIELD","","","","","","2018","2018/03/26 00:00:00+00","85","1450","Human","Other causes","","2018/03/26 00:00:00+00","85","1513","0.73","B","34.972247","-79.75833","MISSING/NOT SPECIFIED","NC","Richmond","37153","Richmond County"
"-82.200664071","39.593886289","2065051","400321614","SFO-2018OHOHS41-61205-P-138-11/14/2018","NONFED","ST-NASF","ST/C&L","USOHOHS","Ohio Department of Natural Resources","OHOHS","Ohio Department of Natural Resources","","41-61205-P-138-11/14/2018","","11825","","","","","","2018","2018/11/14 00:00:00+00","318","","Human","Other causes","","","","","0.1","A","39.593894","-82.200668","PRIVATE","OH","PERRY","39127","Perry County"
"-89.775523291","44.771161804","2065052","400321615","SFO-2018WI-WIS84010012018","NONFED","ST-NASF","ST/C&L","USWIWIS","Wisconsin Department of Natural Resources","WIWIS","Wisconsin Department of Natural Resources","","84010012018","","MOON BARN","","","","","","2018","2018/03/28 00:00:00+00","87","1359","Human","Other causes","","2018/03/28 00:00:00+00","87","1425","0.1","A","44.77117","-89.77553","PRIVATE","WI","Marathon","55073","Marathon County"
"-82.62277319","35.924140039","2065053","400321616","SFO-2018NCNCSNCST-057-FY2018-0057","NONFED","ST-NASF","ST/C&L","USNCNCS","North Carolina Forest Service","NCNCS","North Carolina State Division of Forest Resouces","","NCST-057-FY2018-0057","","BIG LAUREL","","","","","","2018","2018/03/29 00:00:00+00","88","1549","Human","Other causes","","2018/03/29 00:00:00+00","88","1645","0.1","A","35.924147","-82.622777","MISSING/NOT SPECIFIED","NC","Madison","37115","Madison County"
"-79.777769094","34.908378149","2065054","400321619","SFO-2018NCNCSNCST-077-FY2018-0164","NONFED","ST-NASF","ST/C&L","USNCNCS","North Carolina Forest Service","NCNCS","North Carolina State Division of Forest Resouces","","NCST-077-FY2018-0164","","LITTLE INGRAM BUILDING","","","","","","2018","2018/03/31 00:00:00+00","90","1425","Human","Other causes","","2018/03/31 00:00:00+00","90","1440","0.03","A","34.908385","-79.777772","MISSING/NOT SPECIFIED","NC","Richmond","37153","Richmond County"
"-80.058316035","34.403077269","2065055","400321620","SFO-2018SCSCS18FF0595","NONFED","ST-NASF","ST/C&L","USSCSCS","South Carolina Forestry Commission","SCSCS","South Carolina Forestry Commission","","18FF0595","","","","","","","","2018","2018/03/31 00:00:00+00","90","1441","Human","Other causes","","2018/03/31 00:00:00+00","90","1543","0.1","A","34.403084","-80.058319","PRIVATE","SC","Darlington County","45031","Darlington County"
"-79.718559098","35.155579094","2065056","400321621","SFO-2018NCNCSNCST-077-FY2018-0166","NONFED","ST-NASF","ST/C&L","USNCNCS","North Carolina Forest Service","NCNCS","North Carolina State Division of Forest Resouces","","NCST-077-FY2018-0166","","220 SHOP","","","","","","2018","2018/03/31 00:00:00+00","90","1609","Human","Other causes","","2018/03/31 00:00:00+00","90","1653","1.08","B","35.155586","-79.718562","MISSING/NOT SPECIFIED","NC","Richmond","37153","Richmond County"
"-82.101663362","35.616392083","2065057","400321622","SFO-2018NCNCSNCST-059-FY2018-0128","NONFED","ST-NASF","ST/C&L","USNCNCS","North Carolina Forest Service","NCNCS","North Carolina State Division of Forest Resouces","","NCST-059-FY2018-0128","","LOWER HAW BRANCH","","","","","","2018","2018/03/31 00:00:00+00","90","2201","Human","Other causes","","2018/03/31 00:00:00+00","90","2234","0.46","B","35.616399","-82.101667","MISSING/NOT SPECIFIED","NC","McDowell","37111","McDowell County"
"-83.748545912","35.03057627","2065058","400321623","SFO-2018NCNCSNCST-022-FY2018-0015","NONFED","ST-NASF","ST/C&L","USNCNCS","North Carolina Forest Service","NCNCS","North Carolina State Division of Forest Resouces","","NCST-022-FY2018-0015","","CHATUGE VILLAGE","","","","","","2018","2018/04/02 00:00:00+00","92","1506","Human","Other causes","","2018/04/02 00:00:00+00","92","1540","0.25","A","35.030583","-83.74855","MISSING/NOT SPECIFIED","NC","Clay","37043","Clay County"
"-94.244528609","39.577732917","2065059","400321625","SFO-2018MOMOSMO-02515-2018-177624","NONFED","ST-NASF","ST/C&L","USMOMOS","Missouri Department of Conservation","MOMOS","Missouri Department of Conservation","","MO-02515-2018-177624","","177624-02515-04042018-1736","","","","","","2018","2018/04/04 00:00:00+00","94","1736","Human","Other causes","","2018/04/04 00:00:00+00","94","1845","24.656","C","39.57774","-94.244536","PRIVATE","MO","Clinton","29049","Clinton County"
"-80.072046983","35.336490067","2065060","400321626","SFO-2018NCNCSNCST-084-FY2018-0148","NONFED","ST-NASF","ST/C&L","USNCNCS","North Carolina Forest Service","NCNCS","North Carolina State Division of Forest Resouces","","NCST-084-FY2018-0148","","CAMPER","","","","","","2018","2018/04/05 00:00:00+00","95","1135","Human","Other causes","","2018/04/05 00:00:00+00","95","1145","0.2","A","35.336497","-80.07205","MISSING/NOT SPECIFIED","NC","Stanly","37167","Stanly County"
"-81.623104565","34.499814303","2065061","400321627","SFO-2018SCSCS18NF0187","NONFED","ST-NASF","ST/C&L","USSCSCS","South Carolina Forestry Commission","SCSCS","South Carolina Forestry Commission","","18NF0187","","","","","","","","2018","2018/04/05 00:00:00+00","95","1511","Human","Other causes","","2018/04/05 00:00:00+00","95","1610","2","B","34.499821","-81.623108","PRIVATE","SC","Newberry County","45071","Newberry County"
"-92.036429201","39.710759767","2065062","400321630","SFO-2018MOMOSMO-10243-2018-176817","NONFED","ST-NASF","ST/C&L","USMOMOS","Missouri Department of Conservation","MOMOS","Missouri Department of Conservation","","MO-10243-2018-176817","","176817-10243-04052018-1559","","","","","","2018","2018/04/05 00:00:00+00","95","1559","Human","Other causes","","2018/04/05 00:00:00+00","95","1700","0.289","B","39.710767","-92.036436","PRIVATE","MO","Shelby","29205","Shelby County"
"-84.392062702","35.413543216","2065063","400321633","SFO-2018TNTNS18-E0035","NONFED","ST-NASF","ST/C&L","USTNTNS","Tennessee Division of Forestry","TNTNS","Tennessee Division of Forestry","","18-E0035","","WILSON STATION","","","","","","2018","2018/04/05 00:00:00+00","95","0730","Human","Other causes","","2018/04/05 00:00:00+00","95","0800","1.5","B","35.41355","-84.392067","PRIVATE","TN","MONROE","47123","Monroe County"
"-80.619327852","34.71986822","2065064","400321634","SFO-2018SCSCS18FF0677","NONFED","ST-NASF","ST/C&L","USSCSCS","South Carolina Forestry Commission","SCSCS","South Carolina Forestry Commission","","18FF0677","","","","","","","","2018","2018/04/06 00:00:00+00","96","1425","Human","Other causes","","2018/04/06 00:00:00+00","96","1533","6","B","34.719875","-80.619331","PRIVATE","SC","Lancaster County","45057","Lancaster County"
"-79.598309205","33.7363484","2065065","400321635","SFO-2018SCSCS18FF0685","NONFED","ST-NASF","ST/C&L","USSCSCS","South Carolina Forestry Commission","SCSCS","South Carolina Forestry Commission","","18FF0685","","","","","","","","2018","2018/04/06 00:00:00+00","96","2048","Human","Other causes","","2018/04/06 00:00:00+00","96","2228","0.5","B","33.736355","-79.598312","MISSING/NOT SPECIFIED","SC","Williamsburg County","45089","Williamsburg County"
"-81.658756387","38.302851657","2065066","400321636","SFO-2018WVDOF2018-36814","NONFED","ST-NASF","ST/C&L","USWVWVS","West Virginia Division of Forestry","WVDOF","West Virginia Division of Forestry","","2018-36814","","5173 KAN. ST. FOREST DR.","","","","","","2018","2018/04/06 00:00:00+00","96","2130","Human","Other causes","","2018/04/06 00:00:00+00","96","2355","0.1","A","38.30285914","-81.65876006","PRIVATE","WV","Kanawha","54039","Kanawha County"
"-81.596545068","38.561120494","2065067","400321637","SFO-2018WVDOF2018-36817","NONFED","ST-NASF","ST/C&L","USWVWVS","West Virginia Division of Forestry","WVDOF","West Virginia Division of Forestry","","2018-36817","","656 ROCKY SHOALS RD.","","","","","","2018","2018/04/07 00:00:00+00","97","0023","Human","Other causes","","2018/04/07 00:00:00+00","97","0130","0.1","A","38.56112803","-81.59654874","PRIVATE","WV","Kanawha","54039","Kanawha County"
"-77.105847531","41.226281761","2065068","400321638","SFO-2018PAPAS12(18)1-022","NONFED","ST-NASF","ST/C&L","USPAPAS","Pennsylvania Division of Forest Fire Protection","PAPAS","Pennsylvania Division of Forest Fire Protection","","12(18)1-022","","ANTLERS LANE","","","","","","2018","2018/04/09 00:00:00+00","99","1733","Human","Other causes","","2018/04/09 00:00:00+00","99","1805","0.1","A","41.22629","-77.10585","MISSING/NOT SPECIFIED","PA","Lycoming","42081","Lycoming County"
"-94.930826281","32.840827502","2065069","400321639","SFO-2018TXTXS6361","NONFED","ST-NASF","ST/C&L","USTXTXS","Texas A & M Forest Service","TXTXS","Texas Forest Service","","6361","","UPSHUR 13:58","","","","","","2018","2018/04/11 00:00:00+00","101","1358","Human","Other causes","","2018/04/11 00:00:00+00","101","1513","6","B","32.84083333","-94.93083333","MISSING/NOT SPECIFIED","TX","Upshur","48459","Upshur County"
"-81.252863588","36.073954955","2065070","400321640","SFO-2018NCNCSNCST-097-FY2018-0090","NONFED","ST-NASF","ST/C&L","USNCNCS","North Carolina Forest Service","NCNCS","North Carolina State Division of Forest Resouces","","NCST-097-FY2018-0090","","1623 GUNTERS HILL RD.","","","","","","2018","2018/04/11 00:00:00+00","101","1411","Human","Other causes","","2018/04/11 00:00:00+00","101","1815","2.2","B","36.073962","-81.252867","MISSING/NOT SPECIFIED","NC","Wilkes","37193","Wilkes County"
"-79.634641205","33.508561452","2065071","400321641","SFO-2018SCSCS18FF0703","NONFED","ST-NASF","ST/C&L","USSCSCS","South Carolina Forestry Commission","SCSCS","South Carolina Forestry Commission","","18FF0703","","","","","","","","2018","2018/04/12 00:00:00+00","102","1535","Human","Other causes","","2018/04/12 00:00:00+00","102","1701","1","B","33.508568","-79.634644","PRIVATE","SC","Williamsburg County","45089","Williamsburg County"
"-90.254053889","37.484831071","2065072","400321646","SFO-2018MOMOSMO-06205-2018-176515","NONFED","ST-NASF","ST/C&L","USMOMOS","Missouri Department of Conservation","MOMOS","Missouri Department of Conservation","","MO-06205-2018-176515","","176515-06205-04122018-1506","","","","","","2018","2018/04/12 00:00:00+00","102","1506","Human","Other causes","","2018/04/12 00:00:00+00","102","1800","25.204","C","37.484838","-90.25406","PRIVATE","MO","Madison","29123","Madison County"
"-81.145901748","33.693173462","2065073","400321648","SFO-2018SCSCS18NF0192","NONFED","ST-NASF","ST/C&L","USSCSCS","South Carolina Forestry Commission","SCSCS","South Carolina Forestry Commission","","18NF0192","","","","","","","","2018","2018/04/12 00:00:00+00","102","1647","Human","Other causes","","2018/04/12 00:00:00+00","102","1816","0.6","B","33.69318","-81.145905","PRIVATE","SC","Lexington County","45063","Lexington County"
"-92.699382304","45.743971856","2065074","400321649","SFO-2018WI-WIS85050012018","NONFED","ST-NASF","ST/C&L","USWIWIS","Wisconsin Department of Natural Resources","WIWIS","Wisconsin Department of Natural Resources","","85050012018","","FISH LAKE ","","","","","","2018","2018/04/13 00:00:00+00","103","0920","Human","Other causes","","2018/04/13 00:00:00+00","103","1012","0.1","A","45.74398","-92.69939","PRIVATE","WI","Burnett","55013","Burnett County"
"-78.439678543","33.940508316","2065075","400321650","SFO-2018NCNCSNCST-010-FY2018-0045","NONFED","ST-NASF","ST/C&L","USNCNCS","North Carolina Forest Service","NCNCS","North Carolina State Division of Forest Resouces","","NCST-010-FY2018-0045","","CYPRESS CIRCLE","","","","","","2018","2018/04/13 00:00:00+00","103","1853","Human","Other causes","","2018/04/13 00:00:00+00","103","1932","0.21","A","33.940515","-78.439681","MISSING/NOT SPECIFIED","NC","Brunswick","37019","Brunswick County"
"-81.692754169","40.331950126","2065076","400321651","SFO-2018OHOHS41-61205-P-137-11/13/2018","NONFED","ST-NASF","ST/C&L","USOHOHS","Ohio Department of Natural Resources","OHOHS","Ohio Department of Natural Resources","","41-61205-P-137-11/13/2018","","13125","","","","","","2018","2018/11/13 00:00:00+00","317","","Human","Other causes","","","","","1","B","40.331958","-81.692758","PRIVATE","OH","COSHOCTON","39031","Coshocton County"
"-81.890896792","26.975595051","2065077","400321652","SFO-2018FLFLS2018150237","NONFED","ST-NASF","ST/C&L","USFLFLS","Florida Forest Service","FLFLS","Florida Forest Service","","2018150237","","WASHINGTON LOOP ROAD (08)","","","","","","2018","2018/04/14 00:00:00+00","104","1110","Human","Other causes","","2018/04/14 00:00:00+00","104","1240","0.8","B","26.9756","-81.8909","PRIVATE","FL","Charlotte","12015","Charlotte County"
"-78.267252985","40.942692662","2065078","400321653","SFO-2018PAPAS09(18)1-020","NONFED","ST-NASF","ST/C&L","USPAPAS","Pennsylvania Division of Forest Fire Protection","PAPAS","Pennsylvania Division of Forest Fire Protection","","09(18)1-020","","GRAY HOLLOW","","","","","","2018","2018/04/14 00:00:00+00","104","1230","Human","Other causes","","2018/04/14 00:00:00+00","104","1258","0.33","B","40.9427008","-78.2672558","MISSING/NOT SPECIFIED","PA","Clearfield","42033","Clearfield County"
"-77.317997466","41.189991776","2065079","400321654","SFO-2018PAPAS12(18)1-029","NONFED","ST-NASF","ST/C&L","USPAPAS","Pennsylvania Division of Forest Fire Protection","PAPAS","Pennsylvania Division of Forest Fire Protection","","12(18)1-029","","28 VIEW LANE","","","","","","2018","2018/04/14 00:00:00+00","104","1705","Human","Other causes","","2018/04/14 00:00:00+00","104","1725","0.1","A","41.19","-77.318","MISSING/NOT SPECIFIED","PA","Clinton","42035","Clinton County"
"-82.269636198","37.933384156","2065080","400321655","SFO-2018WVDOF2018-37086","NONFED","ST-NASF","ST/C&L","USWVWVS","West Virginia Division of Forestry","WVDOF","West Virginia Division of Forestry","","2018-37086","","1323 BREEDEN CREEK RD","","","","","","2018","2018/04/14 00:00:00+00","104","1402","Human","Other causes","","2018/04/14 00:00:00+00","104","2030","57.1","C","37.93339154","-82.26964003","PRIVATE","WV","Mingo","54059","Mingo County"
"-81.768746904","38.140230044","2065081","400321656","SFO-2018WVDOF2018-36923","NONFED","ST-NASF","ST/C&L","USWVWVS","West Virginia Division of Forestry","WVDOF","West Virginia Division of Forestry","","2018-36923","","RIDGEVIEW","2018_9134389_RIDGEVIEW","","","","","2018","2018/04/13 00:00:00+00","103","2012","Human","Other causes","","2018/04/14 00:00:00+00","104","2300","131","D","38.14023749","-81.7687506","PRIVATE","WV","Boone","54005","Boone County"
"-80.496868971","33.040940585","2065082","400321659","SFO-2018SCSCS18WF0474","NONFED","ST-NASF","ST/C&L","USSCSCS","South Carolina Forestry Commission","SCSCS","South Carolina Forestry Commission","","18WF0474","","","","","","","","2018","2018/04/18 00:00:00+00","108","1252","Human","Other causes","","2018/04/18 00:00:00+00","108","1455","0.2","A","33.040947","-80.496872","PRIVATE","SC","Colleton County","45029","Colleton County"
"-81.37852169","33.459714521","2065083","400321660","SFO-2018SCSCS18WF0475","NONFED","ST-NASF","ST/C&L","USSCSCS","South Carolina Forestry Commission","SCSCS","South Carolina Forestry Commission","","18WF0475","","","","","","","","2018","2018/04/18 00:00:00+00","108","1551","Human","Other causes","","2018/04/18 00:00:00+00","108","1744","0.3","B","33.459721","-81.378525","PRIVATE","SC","Barnwell County","45011","Barnwell County"
"-95.919445377","37.263412376","2065084","400321661","SFO-2018KSKSS20183855","NONFED","ST-NASF","ST/C&L","USKSKSS","Kansas Forest Service","KSKSS","Kansas State Forestry (PBC Area)","","20183855","","1830021","","","","","","2018","2018/04/18 00:00:00+00","108","1529","Human","Other causes","","2018/04/18 00:00:00+00","108","2202","320","E","37.26341897","-95.919453","MISSING/NOT SPECIFIED","KS","Montgomery","20125","Montgomery County"
"-77.911114647","35.089277046","2065085","400321664","SFO-2018NCNCSNCST-031-FY2018-0084","NONFED","ST-NASF","ST/C&L","USNCNCS","North Carolina Forest Service","NCNCS","North Carolina State Division of Forest Resouces","","NCST-031-FY2018-0084","","JOE BRANCH RD","","","","","","2018","2018/04/19 00:00:00+00","109","1245","Human","Other causes","","2018/04/19 00:00:00+00","109","1340","0.08","A","35.089284","-77.911117","MISSING/NOT SPECIFIED","NC","Duplin","37061","Duplin County"
"-95.185774216","37.41322383","2065086","400321665","SFO-2018KSKSS20183947","NONFED","ST-NASF","ST/C&L","USKSKSS","Kansas Forest Service","KSKSS","Kansas State Forestry (PBC Area)","","20183947","","2018029","","","","","","2018","2018/04/19 00:00:00+00","109","0959","Human","Other causes","","2018/04/19 00:00:00+00","109","1537","2","B","37.41323049","-95.18578166","MISSING/NOT SPECIFIED","KS","Neosho","20133","Neosho County"
"-88.700844497","35.018493475","2065087","400321666","SFO-2018TNTNS18-W0071","NONFED","ST-NASF","ST/C&L","USTNTNS","Tennessee Division of Forestry","TNTNS","Tennessee Division of Forestry","","18-W0071","","BUTLERS CHAPEL RD","","","","","","2018","2018/04/21 00:00:00+00","111","1245","Human","Other causes","","2018/04/21 00:00:00+00","111","1400","0.3","B","35.0185","-88.70085","PRIVATE","TN","MCNAIRY","47109","McNairy County"
"-80.477735829","35.927337957","2065088","400321667","SFO-2018NCNCSNCST-030-FY2018-0046","NONFED","ST-NASF","ST/C&L","USNCNCS","North Carolina Forest Service","NCNCS","North Carolina State Division of Forest Resouces","","NCST-030-FY2018-0046","","NAIL LANE","","","","","","2018","2018/04/21 00:00:00+00","111","1403","Human","Other causes","","2018/04/21 00:00:00+00","111","1422","0.06","A","35.927345","-80.477739","MISSING/NOT SPECIFIED","NC","Davie","37059","Davie County"
"-78.154060621","34.119130267","2065089","400321668","SFO-2018NCNCSNCST-010-FY2018-0043","NONFED","ST-NASF","ST/C&L","USNCNCS","North Carolina Forest Service","NCNCS","North Carolina State Division of Forest Resouces","","NCST-010-FY2018-0043","","CHERRYTREE RD.","","","","","","2018","2018/04/21 00:00:00+00","111","1200","Human","Other causes","","2018/04/21 00:00:00+00","111","1430","1.63","B","34.119137","-78.154063","MISSING/NOT SPECIFIED","NC","Brunswick","37019","Brunswick County"
"-77.910920647","35.089505045","2065090","400321669","SFO-2018NCNCSNCST-031-FY2018-0090","NONFED","ST-NASF","ST/C&L","USNCNCS","North Carolina Forest Service","NCNCS","North Carolina State Division of Forest Resouces","","NCST-031-FY2018-0090","","JOE BRANCH RD REKINDLE","","","","","","2018","2018/04/21 00:00:00+00","111","1340","Human","Other causes","","2018/04/21 00:00:00+00","111","1615","3","B","35.089512","-77.910923","MISSING/NOT SPECIFIED","NC","Duplin","37061","Duplin County"
"-82.564146208","35.915276039","2065091","400321670","SFO-2018NCNCSNCST-057-FY2018-0070","NONFED","ST-NASF","ST/C&L","USNCNCS","North Carolina Forest Service","NCNCS","North Carolina State Division of Forest Resouces","","NCST-057-FY2018-0070","","BIG LAUREL ROAD TWO","","","","","","2018","2018/04/21 00:00:00+00","111","1541","Human","Other causes","","2018/04/21 00:00:00+00","111","1631","0.17","A","35.915283","-82.56415","MISSING/NOT SPECIFIED","NC","Madison","37115","Madison County"
"-79.949994056","34.633328215","2065092","400321671","SFO-2018SCSCS18FF0763","NONFED","ST-NASF","ST/C&L","USSCSCS","South Carolina Forestry Commission","SCSCS","South Carolina Forestry Commission","","18FF0763","","","","","","","","2018","2018/04/21 00:00:00+00","111","1648","Human","Other causes","","2018/04/21 00:00:00+00","111","1853","0.5","B","34.633335","-79.949997","PRIVATE","SC","Chesterfield County","45025","Chesterfield County"
"-78.98793834","34.729941161","2065093","400321672","SFO-2018NCNCSNCST-078-FY2018-0242","NONFED","ST-NASF","ST/C&L","USNCNCS","North Carolina Forest Service","NCNCS","North Carolina State Division of Forest Resouces","","NCST-078-FY2018-0242","","HWY 301 STRUCTURE","","","","","","2018","2018/04/21 00:00:00+00","111","1721","Human","Other causes","","2018/04/21 00:00:00+00","111","1859","2.61","B","34.729948","-78.987941","MISSING/NOT SPECIFIED","NC","Robeson","37155","Robeson County"
"-84.572694947","44.060691608","2065094","400321673","SFO-2018MDNR2018260004","NONFED","ST-NASF","ST/C&L","USMIMIS","Michigan Department of Natural Resources","MIDNR","Michigan Department of Natural Resources","","2018260004","","GLADWIN 04","","","","","","2018","2018/05/01 00:00:00+00","121","1648","Human","Other causes","","","","","0.9","B","44.0607","-84.5727","PRIVATE","MI","Gladwin        ","26051","Gladwin County"
"-70.109889606","44.34015093","2065095","400321674","SFO-2018MEMES21018020","NONFED","ST-NASF","ST/C&L","USMEMES","Maine Forest Service","MEMES","Maine Forest Service","","21018020","","MOUSSE WAY FIRE","","","","","","2018","2018/04/23 00:00:00+00","113","","Human","Other causes","","2018/04/23 00:00:00+00","113","","0.5","B","44.34016","-70.10989","PRIVATE","ME","Androscoggin","23001","Androscoggin County"
"-89.551763483","43.737401952","2065096","400321675","SFO-2018WI-WIS62070712018","NONFED","ST-NASF","ST/C&L","USWIWIS","Wisconsin Department of Natural Resources","WIWIS","Wisconsin Department of Natural Resources","","62070712018","","FUR LN FIRE","","","","","","2018","2018/04/25 00:00:00+00","115","1237","Human","Other causes","","2018/04/25 00:00:00+00","115","1402","0.1","A","43.73741","-89.55177","PRIVATE","WI","Marquette","55077","Marquette County"
"-93.640455777","39.539907888","2065097","400321676","SFO-2018MOMOSMO-01702-2018-178906","NONFED","ST-NASF","ST/C&L","USMOMOS","Missouri Department of Conservation","MOMOS","Missouri Department of Conservation","","MO-01702-2018-178906","","178906-01702-04272018-1950","","","","","","2018","2018/04/27 00:00:00+00","117","1950","Human","Other causes","","2018/04/27 00:00:00+00","117","2120","1.31","B","39.539915","-93.640463","PRIVATE","MO","Carroll","29033","Carroll County"
"-93.649997847","38.766236021","2065098","400321677","SFO-2018MOMOSMO-05130-2018-176829","NONFED","ST-NASF","ST/C&L","USMOMOS","Missouri Department of Conservation","MOMOS","Missouri Department of Conservation","","MO-05130-2018-176829","","176829-05130-04282018-1235","","","","","","2018","2018/04/28 00:00:00+00","118","1235","Human","Other causes","","2018/04/28 00:00:00+00","118","1308","1.007","B","38.766243","-93.650005","PRIVATE","MO","Johnson","29101","Johnson County"
"-84.460695947","30.071994384","2065099","400321679","SFO-2018FLFLS2018040411","NONFED","ST-NASF","ST/C&L","USFLFLS","Florida Forest Service","FLFLS","Florida Forest Service","","2018040411","","BAPTIST HILL RD ( 65) -0411","","","","","","2018","2018/04/28 00:00:00+00","118","1715","Human","Other causes","","2018/04/28 00:00:00+00","118","1914","0.2","A","30.072","-84.4607","PRIVATE","FL","Wakulla","12129","Wakulla County"
"-79.690218124","34.835079162","2065100","400321680","SFO-2018NCNCSNCST-077-FY2018-0195","NONFED","ST-NASF","ST/C&L","USNCNCS","North Carolina Forest Service","NCNCS","North Carolina State Division of Forest Resouces","","NCST-077-FY2018-0195","","SMITH CEMETARY TRAILER","","","","","","2018","2018/04/28 00:00:00+00","118","2244","Human","Other causes","","2018/04/28 00:00:00+00","118","2309","0.24","A","34.835086","-79.690221","MISSING/NOT SPECIFIED","NC","Richmond","37153","Richmond County"
"-94.917744251","47.070364986","2065101","400321681","SFO-2018MNMNS2018161014","NONFED","ST-NASF","ST/C&L","USMNMNS","Minnesota Department of Natural Resources","MNMNS","Minnesota Department of Natural Resources","","2018161014","","","","","","","","2018","2018/04/29 00:00:00+00","119","1150","Human","Other causes","","2018/04/29 00:00:00+00","119","1229","0.05","A","47.07037315","-94.91775279","PRIVATE","MN","Hubbard","27057","Hubbard County"
"-87.105034956","45.882483465","2065102","400321682","SFO-2018MDNR2018210002","NONFED","ST-NASF","ST/C&L","USMIMIS","Michigan Department of Natural Resources","MIDNR","Michigan Department of Natural Resources","","2018210002","","BUS RIVER","","","","","","2018","2018/05/01 00:00:00+00","121","1420","Human","Other causes","","","","","0.9","B","45.882492","-87.105041","PRIVATE","MI","Delta          ","26041","Delta County"
"-81.720768584","33.575921507","2065103","400321683","SFO-2018SCSCS18WF0486","NONFED","ST-NASF","ST/C&L","USSCSCS","South Carolina Forestry Commission","SCSCS","South Carolina Forestry Commission","","18WF0486","","","","","","","","2018","2018/04/29 00:00:00+00","119","1609","Human","Other causes","","2018/04/29 00:00:00+00","119","1657","1.5","B","33.575928","-81.720772","PRIVATE","SC","Aiken County","45003","Aiken County"
"-91.428092584","46.379901676","2065104","400321684","SFO-2018WI-WIS83050122018","NONFED","ST-NASF","ST/C&L","USWIWIS","Wisconsin Department of Natural Resources","WIWIS","Wisconsin Department of Natural Resources","","83050122018","","SHED","","","","","","2018","2018/04/29 00:00:00+00","119","1610","Human","Other causes","","2018/04/29 00:00:00+00","119","1710","0.12","A","46.37991","-91.4281","PRIVATE","WI","Bayfield","55007","Bayfield County"
"-81.192165741","33.555081494","2065105","400321685","SFO-2018SCSCS18WF0487","NONFED","ST-NASF","ST/C&L","USSCSCS","South Carolina Forestry Commission","SCSCS","South Carolina Forestry Commission","","18WF0487","","","","","","","","2018","2018/04/29 00:00:00+00","119","1504","Human","Other causes","","2018/04/29 00:00:00+00","119","1738","25","C","33.555088","-81.192169","PRIVATE","SC","Orangeburg County","45075","Orangeburg County"
"-81.590696897","26.340895202","2065106","400321686","SFO-2018FLFLS2018170166","NONFED","ST-NASF","ST/C&L","USFLFLS","Florida Forest Service","FLFLS","Florida Forest Service","","2018170166","","FLATFIELD (11)","","","","","","2018","2018/04/29 00:00:00+00","119","0127","Human","Other causes","","2018/04/29 00:00:00+00","119","0441","5","B","26.3409","-81.5907","PRIVATE","FL","Collier","12021","Collier County"
"-90.488572961","45.681641714","2065107","400321687","SFO-2018WI-WIS83010142018","NONFED","ST-NASF","ST/C&L","USWIWIS","Wisconsin Department of Natural Resources","WIWIS","Wisconsin Department of Natural Resources","","83010142018","","BRIDGE","","","","","","2018","2018/04/30 00:00:00+00","120","0348","Human","Other causes","","2018/04/30 00:00:00+00","120","0546","0.5","B","45.68165","-90.48858","PRIVATE","WI","Price","55099","Price County"
"-85.999690446","44.633333595","2065108","400321688","SFO-2018MDNR2018100001","NONFED","ST-NASF","ST/C&L","USMIMIS","Michigan Department of Natural Resources","MIDNR","Michigan Department of Natural Resources","","2018100001","","BENZIE 01","","","","","","2018","2018/03/26 00:00:00+00","85","1410","Human","Other causes","","2018/05/01 00:00:00+00","121","1530","0.2","A","44.633342","-85.999696","PRIVATE","MI","Benzie         ","26019","Benzie County"
"-90.527002911","45.962951675","2065109","400321689","SFO-2018WI-WIS83010242018","NONFED","ST-NASF","ST/C&L","USWIWIS","Wisconsin Department of Natural Resources","WIWIS","Wisconsin Department of Natural Resources","","83010242018","","BUNTING FIRE 1","","","","","","2018","2018/05/01 00:00:00+00","121","1418","Human","Other causes","","2018/05/01 00:00:00+00","121","1530","0.1","A","45.96296","-90.52701","PRIVATE","WI","Price","55099","Price County"
"-90.52767291","45.962661675","2065110","400321690","SFO-2018WI-WIS83010222018","NONFED","ST-NASF","ST/C&L","USWIWIS","Wisconsin Department of Natural Resources","WIWIS","Wisconsin Department of Natural Resources","","83010222018","","BUNTING FIRE 3","","","","","","2018","2018/05/01 00:00:00+00","121","1418","Human","Other causes","","2018/05/01 00:00:00+00","121","1535","0.1","A","45.96267","-90.52768","PRIVATE","WI","Price","55099","Price County"
"-90.527112911","45.962961675","2065111","400321691","SFO-2018WI-WIS83010232018","NONFED","ST-NASF","ST/C&L","USWIWIS","Wisconsin Department of Natural Resources","WIWIS","Wisconsin Department of Natural Resources","","83010232018","","BUNTING FIRE 2","","","","","","2018","2018/05/01 00:00:00+00","121","1418","Human","Other causes","","2018/05/01 00:00:00+00","121","1535","0.1","A","45.96297","-90.52712","PRIVATE","WI","Price","55099","Price County"
"-78.283901549","34.800717121","2065112","400321692","SFO-2018NCNCSNCST-082-FY2018-0042","NONFED","ST-NASF","ST/C&L","USNCNCS","North Carolina Forest Service","NCNCS","North Carolina State Division of Forest Resouces","","NCST-082-FY2018-0042","","MOORE'S BRIDGE","","","","","","2018","2018/05/01 00:00:00+00","121","1542","Human","Other causes","","2018/05/01 00:00:00+00","121","1830","1.32","B","34.800724","-78.283904","MISSING/NOT SPECIFIED","NC","Sampson","37163","Sampson County"
"-83.391170252","44.649866446","2065113","400321693","SFO-2018MDNR2018010004","NONFED","ST-NASF","ST/C&L","USMIMIS","Michigan Department of Natural Resources","MIDNR","Michigan Department of Natural Resources","","2018010004","","ALCONA 04 - SPADE FIRE","","","","","","2018","2018/03/03 00:00:00+00","62","1603","Human","Other causes","","2018/05/01 00:00:00+00","121","1832","2.5","B","44.649875","-83.391175","PRIVATE","MI","Alcona         ","26001","Alcona County"
"-88.918813432","45.666781613","2065114","400321694","SFO-2018WI-WIS44040352018","NONFED","ST-NASF","ST/C&L","USWIWIS","Wisconsin Department of Natural Resources","WIWIS","Wisconsin Department of Natural Resources","","44040352018","","HWY 32 FIRE","","","","","","2018","2018/05/01 00:00:00+00","121","2158","Human","Other causes","","2018/05/01 00:00:00+00","121","2245","1.14","B","45.66679","-88.91882","PRIVATE","WI","Forest","55041","Forest County"
"-76.826493765","38.994486187","2065115","400321695","SFO-2018MDMDS5054","NONFED","ST-NASF","ST/C&L","USMDMDS","Maryland Department of Natural Resources Forest Service","MDMDS","Maryland Department of Natural Resources Forest Service","","5054","","AEROSPACE ROAD","","","","","","2018","2018/05/02 00:00:00+00","122","1230","Human","Other causes","","2018/05/02 00:00:00+00","122","1830","2.2","B","38.994494","-76.826496","PRIVATE","MD","Prince Georges","24033","Prince George's County"
"-69.548695785","44.498831884","2065116","400321696","SFO-2018MEMES23018031","NONFED","ST-NASF","ST/C&L","USMEMES","Maine Forest Service","MEMES","Maine Forest Service","","23018031","","FIRE MARSHAL SHED FIRE","","","","","","2018","2018/05/02 00:00:00+00","122","","Human","Other causes","","2018/05/02 00:00:00+00","122","","0.1","A","44.498841","-69.548696","PRIVATE","ME","Kennebec","23011","Kennebec County"
"-81.885807213","38.953988399","2065117","400321697","SFO-2018OHOHS42-05203-P-29-12/11/2018","NONFED","ST-NASF","ST/C&L","USOHOHS","Ohio Department of Natural Resources","OHOHS","Ohio Department of Natural Resources","","42-05203-P-29-12/11/2018","","13606","","","","","","2018","2018/12/11 00:00:00+00","345","","Human","Other causes","","","","","5.5","B","38.953996","-81.885811","PRIVATE","OH","MEIGS","39105","Meigs County"
"-81.331955537","36.551214859","2065118","400321698","SFO-2018NCNCSNCST-003-FY2018-0027","NONFED","ST-NASF","ST/C&L","USNCNCS","North Carolina Forest Service","NCNCS","North Carolina State Division of Forest Resouces","","NCST-003-FY2018-0027","","CARLITOS","","","","","","2018","2018/05/03 00:00:00+00","123","1241","Human","Other causes","","2018/05/03 00:00:00+00","123","1335","0.41","B","36.551222","-81.331959","MISSING/NOT SPECIFIED","NC","Alleghany","37005","Alleghany County"
"-92.463199295","46.741193459","2065119","400321699","SFO-2018MNMNS2018251021","NONFED","ST-NASF","ST/C&L","USMNMNS","Minnesota Department of Natural Resources","MNMNS","Minnesota Department of Natural Resources","","2018251021","","","","","","","","2018","2018/05/03 00:00:00+00","123","1547","Human","Other causes","","2018/05/03 00:00:00+00","123","1644","2","B","46.74120176","-92.46320707","PRIVATE","MN","Carlton","27017","Carlton County"
"-75.051937105","41.518206966","2065120","400321700","SFO-2018PAPAS19(18)1-027","NONFED","ST-NASF","ST/C&L","USPAPAS","Pennsylvania Division of Forest Fire Protection","PAPAS","Pennsylvania Division of Forest Fire Protection","","19(18)1-027","","COTTONWOOD ","","","","","","2018","2018/05/03 00:00:00+00","123","1630","Human","Other causes","","2018/05/03 00:00:00+00","123","1800","1","B","41.51821534","-75.05193894","MISSING/NOT SPECIFIED","PA","Pike","42103","Pike County"
"-81.780670672","38.267388249","2065121","400321701","SFO-2018WVDOF2018-37109","NONFED","ST-NASF","ST/C&L","USWVWVS","West Virginia Division of Forestry","WVDOF","West Virginia Division of Forestry","","2018-37109","","49 ASHWORTH DR.","","","","","","2018","2018/05/03 00:00:00+00","123","1700","Human","Other causes","","2018/05/03 00:00:00+00","123","1930","0.1","A","38.26739572","-81.78067438","PRIVATE","WV","Kanawha","54039","Kanawha County"
"-93.23641666","45.175557966","2065122","400321702","SFO-2018MNMNS2018344066","NONFED","ST-NASF","ST/C&L","USMNMNS","Minnesota Department of Natural Resources","MNMNS","Minnesota Department of Natural Resources","","2018344066","","","","","","","","2018","2018/05/05 00:00:00+00","125","1420","Human","Other causes","","2018/05/05 00:00:00+00","125","1436","0.5","B","45.17556599","-93.23642443","PRIVATE","MN","Anoka","27003","Anoka County"
"-84.639834791","45.29648141","2065123","400321703","SFO-2018MDNR2018160006","NONFED","ST-NASF","ST/C&L","USMIMIS","Michigan Department of Natural Resources","MIDNR","Michigan Department of Natural Resources","","2018160006","","CHEBOYGAN 05 - HARIG","","","","","","2018","2018/04/22 00:00:00+00","112","1355","Human","Other causes","","2018/05/05 00:00:00+00","125","1500","0.1","A","45.29649","-84.63984","PRIVATE","MI","Cheboygan      ","26031","Cheboygan County"
"-91.516052521","46.633511646","2065124","400321704","SFO-2018WI-WIS85020262018","NONFED","ST-NASF","ST/C&L","USWIWIS","Wisconsin Department of Natural Resources","WIWIS","Wisconsin Department of Natural Resources","","85020262018","","B FIRE","","","","","","2018","2018/05/05 00:00:00+00","125","1415","Human","Other causes","","2018/05/05 00:00:00+00","125","1515","2.75","B","46.63352","-91.51606","PRIVATE","WI","Bayfield","55007","Bayfield County"
"-92.80220344","45.276803851","2065125","400321705","SFO-2018MNMNS2018344065","NONFED","ST-NASF","ST/C&L","USMNMNS","Minnesota Department of Natural Resources","MNMNS","Minnesota Department of Natural Resources","","2018344065","","","","","","","","2018","2018/05/05 00:00:00+00","125","1404","Human","Other causes","","2018/05/05 00:00:00+00","125","1534","14.1","C","45.27681192","-92.8022111","PRIVATE","MN","Washington","27163","Washington County"
"-90.260223105","45.105381785","2065126","400321706","SFO-2018WI-WIS84160292018","NONFED","ST-NASF","ST/C&L","USWIWIS","Wisconsin Department of Natural Resources","WIWIS","Wisconsin Department of Natural Resources","","84160292018","","RUBY","","","","","","2018","2018/05/06 00:00:00+00","126","1329","Human","Other causes","","2018/05/06 00:00:00+00","126","1401","0.3","B","45.10539","-90.26023","PRIVATE","WI","Taylor","55119","Taylor County"
"-90.286453088","45.179031775","2065127","400321707","SFO-2018WI-WIS84160322018","NONFED","ST-NASF","ST/C&L","USWIWIS","Wisconsin Department of Natural Resources","WIWIS","Wisconsin Department of Natural Resources","","84160322018","","BRINK","","","","","","2018","2018/05/06 00:00:00+00","126","1549","Human","Other causes","","2018/05/06 00:00:00+00","126","1725","1.78","B","45.17904","-90.28646","PRIVATE","WI","Taylor","55119","Taylor County"
"-92.314922403","45.827481817","2065128","400321708","SFO-2018WI-WIS85120282018","NONFED","ST-NASF","ST/C&L","USWIWIS","Wisconsin Department of Natural Resources","WIWIS","Wisconsin Department of Natural Resources","","85120282018","","CLAM SHELL","","","","","","2018","2018/05/06 00:00:00+00","126","0830","Human","Other causes","","2018/05/06 00:00:00+00","126","0934","0.4","B","45.82749","-92.31493","PRIVATE","WI","Burnett","55013","Burnett County"
"-92.408067075","47.42599982","2065129","400321709","SFO-2018MNMNS2018234017","NONFED","ST-NASF","ST/C&L","USMNMNS","Minnesota Department of Natural Resources","MNMNS","Minnesota Department of Natural Resources","","2018234017","","","","","","","","2018","2018/05/07 00:00:00+00","127","1723","Human","Other causes","","2018/05/07 00:00:00+00","127","1804","0.75","B","47.42600822","-92.40807494","PRIVATE","MN","St. Louis","27137","St. Louis County"
"-94.760935277","47.610139793","2065130","400321710","SFO-2018MNMNS2018111063","NONFED","ST-NASF","ST/C&L","USMNMNS","Minnesota Department of Natural Resources","MNMNS","Minnesota Department of Natural Resources","","2018111063","","","","","","","","2018","2018/05/07 00:00:00+00","127","1725","Human","Other causes","","2018/05/07 00:00:00+00","127","2000","1.5","B","47.61014804","-94.76094386","PRIVATE","MN","Beltrami","27007","Beltrami County"
"-85.685995568","30.800294257","2065131","400321711","SFO-2018FLFLS2018020317","NONFED","ST-NASF","ST/C&L","USFLFLS","Florida Forest Service","FLFLS","Florida Forest Service","","2018020317","","N COTTON ST (30)","","","","","","2018","2018/05/09 00:00:00+00","129","1305","Human","Other causes","","2018/05/10 00:00:00+00","130","1440","0.1","A","30.8003","-85.686","MISSING/NOT SPECIFIED","FL","Holmes","12059","Holmes County"
"-93.021869162","46.078486642","2065132","400321712","SFO-2018MNMNS2018344078","NONFED","ST-NASF","ST/C&L","USMNMNS","Minnesota Department of Natural Resources","MNMNS","Minnesota Department of Natural Resources","","2018344078","","","","","","","","2018","2018/05/11 00:00:00+00","131","1100","Human","Other causes","","2018/05/11 00:00:00+00","131","1220","0.8","B","46.07849481","-93.021877","PRIVATE","MN","Pine","27115","Pine County"
"-78.957753326","35.175392063","2065133","400321713","SFO-2018NCNCSNCST-026-FY2018-0067","NONFED","ST-NASF","ST/C&L","USNCNCS","North Carolina Forest Service","NCNCS","North Carolina State Division of Forest Resouces","","NCST-026-FY2018-0067","","SWEET HOME","","","","","","2018","2018/05/11 00:00:00+00","131","2225","Human","Other causes","","2018/05/11 00:00:00+00","131","2338","0.1","A","35.175399","-78.957756","MISSING/NOT SPECIFIED","NC","Cumberland","37051","Cumberland County"
"-88.220713688","45.316251622","2065134","400321714","SFO-2018WI-WIS44020562018","NONFED","ST-NASF","ST/C&L","USWIWIS","Wisconsin Department of Natural Resources","WIWIS","Wisconsin Department of Natural Resources","","44020562018","","WHITE OAK FIRE","","","","","","2018","2018/05/12 00:00:00+00","132","1213","Human","Other causes","","2018/05/12 00:00:00+00","132","1229","0.1","A","45.31626","-88.22072","PRIVATE","WI","Marinette","55075","Marinette County"
"-89.466473397","44.655421802","2065135","400321715","SFO-2018WI-WIS62081042018","NONFED","ST-NASF","ST/C&L","USWIWIS","Wisconsin Department of Natural Resources","WIWIS","Wisconsin Department of Natural Resources","","62081042018","","CO RD Y BARN FIRE","","","","","","2018","2018/05/12 00:00:00+00","132","1100","Human","Other causes","","2018/05/12 00:00:00+00","132","1311","0.1","A","44.65543","-89.46648","PRIVATE","WI","Portage","55097","Portage County"
"-94.800825411","40.065341869","2065136","400321716","SFO-2018MOMOSMO-00205-2018-178423","NONFED","ST-NASF","ST/C&L","USMOMOS","Missouri Department of Conservation","MOMOS","Missouri Department of Conservation","","MO-00205-2018-178423","","178423-00205-05122018-1825","","","","","","2018","2018/05/12 00:00:00+00","132","1825","Human","Other causes","","2018/05/12 00:00:00+00","132","1900","2.33","B","40.065349","-94.800833","PRIVATE","MO","Andrew","29003","Andrew County"
"-83.223528975","36.541209937","2065137","400321717","SFO-2018TNTNS18-E0077","NONFED","ST-NASF","ST/C&L","USTNTNS","Tennessee Division of Forestry","TNTNS","Tennessee Division of Forestry","","18-E0077","","NEWMANS RIDGE RD","","","","","","2018","2018/05/12 00:00:00+00","132","0150","Human","Other causes","","2018/05/12 00:00:00+00","132","0300","0.5","B","36.541217","-83.223533","PRIVATE","TN","HANCOCK","47067","Hancock County"
"-89.182633527","44.283401843","2065138","400321718","SFO-2018WI-WIS62161072018","NONFED","ST-NASF","ST/C&L","USWIWIS","Wisconsin Department of Natural Resources","WIWIS","Wisconsin Department of Natural Resources","","62161072018","","MYNYARD LAKE FIRE","","","","","","2018","2018/05/13 00:00:00+00","133","1504","Human","Other causes","","2018/05/13 00:00:00+00","133","1545","0.15","A","44.28341","-89.18264","PRIVATE","WI","Waupaca","55135","Waupaca County"
"-78.452226487","35.025777078","2065139","400321719","SFO-2018NCNCSNCST-082-FY2018-0048","NONFED","ST-NASF","ST/C&L","USNCNCS","North Carolina Forest Service","NCNCS","North Carolina State Division of Forest Resouces","","NCST-082-FY2018-0048","","PATTERSON LN","","","","","","2018","2018/05/14 00:00:00+00","134","1444","Human","Other causes","","2018/05/14 00:00:00+00","134","1617","0.46","B","35.025784","-78.452229","MISSING/NOT SPECIFIED","NC","Sampson","37163","Sampson County"
"-89.521493229","45.830961627","2065140","400321720","SFO-2018WI-WIS84220512018","NONFED","ST-NASF","ST/C&L","USWIWIS","Wisconsin Department of Natural Resources","WIWIS","Wisconsin Department of Natural Resources","","84220512018","","BARBARA","","","","","","2018","2018/05/15 00:00:00+00","135","1443","Human","Other causes","","2018/05/15 00:00:00+00","135","1800","0.3","B","45.83097","-89.5215","PRIVATE","WI","Oneida","55085","Oneida County"
"-85.038948693","45.061944471","2065141","400321721","SFO-2018MDNR2018050003","NONFED","ST-NASF","ST/C&L","USMIMIS","Michigan Department of Natural Resources","MIDNR","Michigan Department of Natural Resources","","2018050003","","ANTRIM 02 - WILLIAMS RD FIRE","","","","","","2018","2018/03/24 00:00:00+00","83","1546","Human","Other causes","","2018/05/15 00:00:00+00","135","1900","0.1","A","45.061953","-85.038954","PRIVATE","MI","Antrim         ","26009","Antrim County"
"-92.313422376","46.024001789","2065142","400321722","SFO-2018WI-WIS85120412018","NONFED","ST-NASF","ST/C&L","USWIWIS","Wisconsin Department of Natural Resources","WIWIS","Wisconsin Department of Natural Resources","","85120412018","","GRIFF","","","","","","2018","2018/05/15 00:00:00+00","135","1908","Human","Other causes","","2018/05/15 00:00:00+00","135","2030","1.44","B","46.02401","-92.31343","PRIVATE","WI","Burnett","55013","Burnett County"
"-95.015280444","46.94550622","2065143","400321723","SFO-2018MNMNS2018161055","NONFED","ST-NASF","ST/C&L","USMNMNS","Minnesota Department of Natural Resources","MNMNS","Minnesota Department of Natural Resources","","2018161055","","","","","","","","2018","2018/05/17 00:00:00+00","137","0058","Human","Other causes","","2018/05/17 00:00:00+00","137","0135","1","B","46.94551436","-95.01528899","PRIVATE","MN","Hubbard","27057","Hubbard County"
"-91.13331261","46.798511596","2065144","400321724","SFO-2018WI-WIS83130562018","NONFED","ST-NASF","ST/C&L","USWIWIS","Wisconsin Department of Natural Resources","WIWIS","Wisconsin Department of Natural Resources","","83130562018","","SISKIWIT","","","","","","2018","2018/05/18 00:00:00+00","138","1224","Human","Other causes","","2018/05/18 00:00:00+00","138","1304","0.11","A","46.79852","-91.13332","PRIVATE","WI","Bayfield","55007","Bayfield County"
"-89.487983451","44.170961879","2065145","400321725","SFO-2018WI-WIS62111152018","NONFED","ST-NASF","ST/C&L","USWIWIS","Wisconsin Department of Natural Resources","WIWIS","Wisconsin Department of Natural Resources","","62111152018","","CALF PEN (1)","","","","","","2018","2018/05/18 00:00:00+00","138","1415","Human","Other causes","","2018/05/18 00:00:00+00","138","1605","6.02","B","44.17097","-89.48799","PRIVATE","WI","Waushara","55137","Waushara County"
"-89.487543451","44.172001879","2065146","400321726","SFO-2018WI-WIS62111172018","NONFED","ST-NASF","ST/C&L","USWIWIS","Wisconsin Department of Natural Resources","WIWIS","Wisconsin Department of Natural Resources","","62111172018","","CALF PEN (2)","","","","","","2018","2018/05/18 00:00:00+00","138","1415","Human","Other causes","","2018/05/18 00:00:00+00","138","1605","0.82","B","44.17201","-89.48755","PRIVATE","WI","Waushara","55137","Waushara County"
"-89.486833451","44.170481879","2065147","400321727","SFO-2018WI-WIS62111182018","NONFED","ST-NASF","ST/C&L","USWIWIS","Wisconsin Department of Natural Resources","WIWIS","Wisconsin Department of Natural Resources","","62111182018","","CALF PEN (3)","","","","","","2018","2018/05/18 00:00:00+00","138","1415","Human","Other causes","","2018/05/18 00:00:00+00","138","1605","0.16","A","44.17049","-89.48684","PRIVATE","WI","Waushara","55137","Waushara County"
"-89.485873451","44.170861879","2065148","400321728","SFO-2018WI-WIS62111192018","NONFED","ST-NASF","ST/C&L","USWIWIS","Wisconsin Department of Natural Resources","WIWIS","Wisconsin Department of Natural Resources","","62111192018","","CALF PEN (4)","","","","","","2018","2018/05/18 00:00:00+00","138","1415","Human","Other causes","","2018/05/18 00:00:00+00","138","1605","0.1","A","44.17087","-89.48588","PRIVATE","WI","Waushara","55137","Waushara County"
"-89.485633451","44.170551879","2065149","400321729","SFO-2018WI-WIS62111202018","NONFED","ST-NASF","ST/C&L","USWIWIS","Wisconsin Department of Natural Resources","WIWIS","Wisconsin Department of Natural Resources","","62111202018","","CALF PEN (5)","","","","","","2018","2018/05/18 00:00:00+00","138","1415","Human","Other causes","","2018/05/18 00:00:00+00","138","1605","0.32","B","44.17056","-89.48564","PRIVATE","WI","Waushara","55137","Waushara County"
"-94.18960981","32.905910798","2065150","400321730","SFO-2018TXTXS6496","NONFED","ST-NASF","ST/C&L","USTXTXS","Texas A & M Forest Service","TXTXS","Texas Forest Service","","6496","","CASS 20:25","","","","","","2018","2018/05/20 00:00:00+00","140","2025","Human","Other causes","","2018/05/20 00:00:00+00","140","2156","1","B","32.90591667","-94.18961667","MISSING/NOT SPECIFIED","TX","Cass","48067","Cass County"
"-91.401162657","45.92654174","2065151","400321731","SFO-2018WI-WIS83030632018","NONFED","ST-NASF","ST/C&L","USWIWIS","Wisconsin Department of Natural Resources","WIWIS","Wisconsin Department of Natural Resources","","83030632018","","POST","","","","","","2018","2018/05/21 00:00:00+00","141","1322","Human","Other causes","","2018/05/21 00:00:00+00","141","1348","0.1","A","45.92655","-91.40117","PRIVATE","WI","Sawyer","55113","Sawyer County"
"-69.276649875","44.52928087","2065152","400321732","SFO-2018MEMES23018069","NONFED","ST-NASF","ST/C&L","USMEMES","Maine Forest Service","MEMES","Maine Forest Service","","23018069","","DEPOT","","","","","","2018","2018/05/21 00:00:00+00","141","","Human","Other causes","","2018/05/21 00:00:00+00","141","","0.1","A","44.52929","-69.27665","PRIVATE","ME","Waldo","23027","Waldo County"
"-82.152345086","39.585328289","2065153","400321734","SFO-2018OHOHS41-84241-MAPR-139-11/21/2018","NONFED","ST-NASF","ST/C&L","USOHOHS","Ohio Department of Natural Resources","OHOHS","Ohio Department of Natural Resources","","41-84241-MAPR-139-11/21/2018","","14267","","","","","","2018","2018/11/21 00:00:00+00","325","","Human","Other causes","","","","","0.01","A","39.585336","-82.152349","PRIVATE","OH","PERRY","39127","Perry County"
"-69.822779681","44.695100857","2065154","400321735","SFO-2018MEMES23018078","NONFED","ST-NASF","ST/C&L","USMEMES","Maine Forest Service","MEMES","Maine Forest Service","","23018078","","HAY SHED","","","","","","2018","2018/05/24 00:00:00+00","144","","Human","Other causes","","2018/05/24 00:00:00+00","144","","0.5","B","44.69511","-69.82278","PRIVATE","ME","Somerset","23025","Somerset County"
"-123.592643057","46.979098553","2065155","400321736","SFO-2018WADNR54793","NONFED","ST-NASF","ST/C&L","USWAWAS","Washington State Department of Natural Resources Headquarters","WADNR","Washington Department of Natural Resources","","54793","","PIONEER","","","","","","2018","2018/05/25 00:00:00+00","145","1346","Human","Other causes","","2018/05/25 00:00:00+00","145","1718","1","B","46.979104","-123.592658","PRIVATE","WA","Grays Harbor County","53027","Grays Harbor County"
"-71.503109291","41.89111143","2065156","400321737","SFO-2018RI-RISRI-18-026","NONFED","ST-NASF","ST/C&L","USRIRIS","Rhode Island Division of Forest Environment","RIRIS","Rhode Island Division of Forest Environment","","RI-18-026","","","","","","","","2018","2018/05/25 00:00:00+00","145","1532","Human","Other causes","","2018/05/25 00:00:00+00","145","1730","0.2","A","41.89112","-71.50311","PRIVATE","RI","Providence","44007","Providence County"
"-82.642793004","38.691378483","2065157","400321738","SFO-2018OHOHS41-84241-P-140-12/27/2018","NONFED","ST-NASF","ST/C&L","USOHOHS","Ohio Department of Natural Resources","OHOHS","Ohio Department of Natural Resources","","41-84241-P-140-12/27/2018","","14345","","","","","","2018","2018/12/27 00:00:00+00","361","","Human","Other causes","","","","","1","B","38.691386","-82.642797","PRIVATE","OH","LAWRENCE","39087","Lawrence County"
"-81.669063595","33.668111485","2065158","400321739","SFO-2018SCSCS18WF0540","NONFED","ST-NASF","ST/C&L","USSCSCS","South Carolina Forestry Commission","SCSCS","South Carolina Forestry Commission","","18WF0540","","","","","","","","2018","2018/05/27 00:00:00+00","147","0519","Human","Other causes","","2018/05/27 00:00:00+00","147","0830","1","B","33.668118","-81.669067","PRIVATE","SC","Aiken County","45003","Aiken County"
"-82.214716066","39.607255287","2065159","400321740","SFO-2018OHOHS41-60247-P-136-10/23/2018","NONFED","ST-NASF","ST/C&L","USOHOHS","Ohio Department of Natural Resources","OHOHS","Ohio Department of Natural Resources","","41-60247-P-136-10/23/2018","","14265","","","","","","2018","2018/10/23 00:00:00+00","296","","Human","Other causes","","","","","0.1","A","39.607263","-82.21472","UNDEFINED FEDERAL","OH","PERRY","39127","Perry County"
"-89.897403382","43.737621973","2065160","400321741","SFO-2018WI-WIS11071592018","NONFED","ST-NASF","ST/C&L","USWIWIS","Wisconsin Department of Natural Resources","WIWIS","Wisconsin Department of Natural Resources","","11071592018","","26TH AVE","","","","","","2018","2018/05/29 00:00:00+00","149","1537","Human","Other causes","","2018/05/29 00:00:00+00","149","1610","0.1","A","43.73763","-89.89741","PRIVATE","WI","Juneau","55057","Juneau County"
"-97.878492432","28.145495213","2065161","400321742","SFO-2018TXTXS7551","NONFED","ST-NASF","ST/C&L","USTXTXS","Texas A & M Forest Service","TXTXS","Texas Forest Service","","7551","","LIVE OAK SHORES","","","","","","2018","2018/05/30 00:00:00+00","150","1518","Human","Other causes","","2018/05/30 00:00:00+00","150","2110","44","C","28.1455","-97.8785","MISSING/NOT SPECIFIED","TX","Live Oak","48297","Live Oak County"
"-118.988385358","48.893033942","2065162","400321743","SFO-2018WADNR54808","NONFED","ST-NASF","ST/C&L","USWAWAS","Washington State Department of Natural Resources Headquarters","WADNR","Washington Department of Natural Resources","","54808","","PONTIAC","","","","","","2018","2018/05/25 00:00:00+00","145","1300","Human","Other causes","","2018/06/01 00:00:00+00","152","0939","0.5","B","48.89304","-118.9884","PRIVATE","WA","Okanogan County","53047","Okanogan County"
"-80.520916889","34.56403425","2065163","400321744","SFO-2018SCSCS18FF0850","NONFED","ST-NASF","ST/C&L","USSCSCS","South Carolina Forestry Commission","SCSCS","South Carolina Forestry Commission","","18FF0850","","","","","","","","2018","2018/06/04 00:00:00+00","155","1602","Human","Other causes","","2018/06/04 00:00:00+00","155","1743","0.5","B","34.564041","-80.52092","PRIVATE","SC","Kershaw County","45055","Kershaw County"
"-91.896630301","39.051535874","2065164","400321745","SFO-2018MOMOSMO-01420-2018-177552","NONFED","ST-NASF","ST/C&L","USMOMOS","Missouri Department of Conservation","MOMOS","Missouri Department of Conservation","","MO-01420-2018-177552","","177552-01420-06062018-1050","","","","","","2018","2018/06/06 00:00:00+00","157","1050","Human","Other causes","","2018/06/06 00:00:00+00","157","1123","3.297","B","39.051543","-91.896637","PRIVATE","MO","Callaway","29027","Callaway County"
"-114.64838638","48.119393526","2065165","400321746","SFO-2018MTNWS000068","NONFED","ST-NASF","ST/C&L","USMTNWS","Northwestern Land Office","MTNWS","Northwestern Land Office","","000068","","IDAHO HILL","","","","","","2018","2018/06/06 00:00:00+00","157","1645","Human","Other causes","","2018/06/06 00:00:00+00","157","1840","0.97","B","48.1194","-114.6484","PRIVATE","MT","Flathead","30029","Flathead County"
"-68.305037157","45.348262695","2065166","400321747","SFO-2018MEMES12018065","NONFED","ST-NASF","ST/C&L","USMEMES","Maine Forest Service","MEMES","Maine Forest Service","","12018065","","CURTIS FIRE","","","","","","2018","2018/06/06 00:00:00+00","157","","Human","Other causes","","2018/06/06 00:00:00+00","157","","0.1","A","45.348272","-68.305037","PRIVATE","ME","Penobscot","23019","Penobscot County"
"-117.527085886","47.83928385","2065167","400321748","SFO-2018WADNR54869","NONFED","ST-NASF","ST/C&L","USWAWAS","Washington State Department of Natural Resources Headquarters","WADNR","Washington Department of Natural Resources","","54869","","WEAVER WAY","","","","","","2018","2018/06/02 00:00:00+00","153","1330","Human","Other causes","","2018/06/07 00:00:00+00","158","1101","0.25","A","47.83929","-117.5271","PRIVATE","WA","Stevens County","53065","Stevens County"
"-99.657948391","39.538802315","2065168","400321749","SFO-2018KSKSS20184848","NONFED","ST-NASF","ST/C&L","USKSKSS","Kansas Forest Service","KSKSS","Kansas State Forestry (PBC Area)","","20184848","","180015","","","","","","2018","2018/06/08 00:00:00+00","159","1528","Human","Other causes","","2018/06/08 00:00:00+00","159","1629","0.1","A","39.53880906","-99.65795719","MISSING/NOT SPECIFIED","KS","Graham","20065","Graham County"
"-68.952939957","45.000260776","2065169","400321750","SFO-2018MEMES13018042","NONFED","ST-NASF","ST/C&L","USMEMES","Maine Forest Service","MEMES","Maine Forest Service","","13018042","","LATE REPORT FIRE","","","","","","2018","2018/06/10 00:00:00+00","161","","Human","Other causes","","2018/06/10 00:00:00+00","161","","0.1","A","45.00027","-68.95294","PRIVATE","ME","Penobscot","23019","Penobscot County"
"-121.007285709","45.883714342","2065170","400321751","SFO-2018WADNR55171","NONFED","ST-NASF","ST/C&L","USWAWAS","Washington State Department of Natural Resources Headquarters","WADNR","Washington Department of Natural Resources","","55171","","COUNTS BUTTE","","","","","","2018","2018/06/07 00:00:00+00","158","1635","Human","Other causes","","2018/06/11 00:00:00+00","162","1113","0.3","B","45.88372","-121.0073","PRIVATE","WA","Klickitat County","53039","Klickitat County"
"-72.61089988","42.696279315","2065171","400321752","SFO-2018MADCRMA09018030","NONFED","ST-NASF","ST/C&L","USMAMAS","Massachusetts Bureau of Forest Fire Control","MADCR","Massachusetts Department of Conservation and Recreation","","MA09018030","","","","","","","","2018","2018/06/11 00:00:00+00","162","1335","Human","Other causes","","2018/06/11 00:00:00+00","162","","3","B","42.696288","-72.610901","MISSING/NOT SPECIFIED","MA","Franklin","25011","Franklin County"
"-74.935068192","41.67971159","2065172","400321753","SFO-2018NY5315NY5315-2018-18038","NONFED","ST-NASF","ST/C&L","USNYNYX","Fire Department of New York","NY5315","Fire Department of New York","","NY5315-2018-18038","","N/A","","","","","","2018","2018/06/14 00:00:00+00","165","1102","Human","Other causes","","2018/06/14 00:00:00+00","165","1303","0.02795","A","41.67972","-74.93507","MISSING/NOT SPECIFIED","NY","SULLIVAN","36105","Sullivan County"
"-74.689398267","41.748821568","2065173","400321754","SFO-2018NY5311NY5311-2018-18058","NONFED","ST-NASF","ST/C&L","USNYNYX","Fire Department of New York","NY5311","Fire Department of New York","","NY5311-2018-18058","","N/A","","","","","","2018","2018/06/19 00:00:00+00","170","0858","Human","Other causes","","2018/06/19 00:00:00+00","170","1021","0.0271","A","41.74883","-74.6894","MISSING/NOT SPECIFIED","NY","SULLIVAN","36105","Sullivan County"
"-81.724396855","26.483895169","2065174","400321755","SFO-2018FLFLS2018170211","NONFED","ST-NASF","ST/C&L","USFLFLS","Florida Forest Service","FLFLS","Florida Forest Service","","2018170211","","DEVORE (36)","","","","","","2018","2018/06/19 00:00:00+00","170","1745","Human","Other causes","","2018/06/19 00:00:00+00","170","1918","3","B","26.4839","-81.7244","PRIVATE","FL","Lee","12071","Lee County"
"-117.532185872","47.894363847","2065175","400321756","SFO-2018WADNR55231","NONFED","ST-NASF","ST/C&L","USWAWAS","Washington State Department of Natural Resources Headquarters","WADNR","Washington Department of Natural Resources","","55231","","CROSSCUT","","","","","","2018","2018/06/20 00:00:00+00","171","1515","Human","Other causes","","2018/06/25 00:00:00+00","176","1223","0.5","B","47.89437","-117.5322","PRIVATE","WA","SPokane County","53063","Spokane County"
"-97.611192283","32.571627667","2065176","400321757","SFO-2018TXTXS7681","NONFED","ST-NASF","ST/C&L","USTXTXS","Texas A & M Forest Service","TXTXS","Texas Forest Service","","7681","","MOUNTAIN RIDGE","","","","","","2018","2018/06/30 00:00:00+00","181","1853","Human","Other causes","","2018/06/30 00:00:00+00","181","2100","5.6","B","32.57163333","-97.6112","MISSING/NOT SPECIFIED","TX","Parker","48367","Parker County"
"-117.282385769","48.514413778","2065177","400321758","SFO-2018WADNR55556","NONFED","ST-NASF","ST/C&L","USWAWAS","Washington State Department of Natural Resources Headquarters","WADNR","Washington Department of Natural Resources","","55556","","RUBY","","","","","","2018","2018/06/30 00:00:00+00","181","1600","Human","Other causes","","2018/07/01 00:00:00+00","182","1045","0.01","A","48.51442","-117.2824","PRIVATE","WA","Pend Oreille County","53051","Pend Oreille County"
"-68.325300197","44.525490843","2065178","400321759","SFO-2018MEMES12018101","NONFED","ST-NASF","ST/C&L","USMEMES","Maine Forest Service","MEMES","Maine Forest Service","","12018101","","MUD CREEK","","","","","","2018","2018/07/30 00:00:00+00","211","","Human","Other causes","","","","","0.1","A","44.5255","-68.3253","PRIVATE","ME","Hancock","23009","Hancock County"
"-80.480396903","34.531533255","2065179","400321760","SFO-2018SCSCS19FF0004","NONFED","ST-NASF","ST/C&L","USSCSCS","South Carolina Forestry Commission","SCSCS","South Carolina Forestry Commission","","19FF0004","","","","","","","","2018","2018/07/03 00:00:00+00","184","1401","Human","Other causes","","2018/07/03 00:00:00+00","184","1429","0.1","A","34.53154","-80.4804","MISSING/NOT SPECIFIED","SC","Kershaw County","45055","Kershaw County"
"-81.451900584","35.094700169","2065180","400321761","SFO-2018SCSCS19FF0007","NONFED","ST-NASF","ST/C&L","USSCSCS","South Carolina Forestry Commission","SCSCS","South Carolina Forestry Commission","","19FF0007","","","","","","","","2018","2018/07/04 00:00:00+00","185","0118","Human","Other causes","","2018/07/04 00:00:00+00","185","0209","0.3","B","35.094707","-81.451904","PRIVATE","SC","Cherokee County","45021","Cherokee County"
"-120.415585183","48.590644118","2065181","400321762","SFO-2018WADNR55553","NONFED","ST-NASF","ST/C&L","USWAWAS","Washington State Department of Natural Resources Headquarters","WADNR","Washington Department of Natural Resources","","55553","","MAZAMA PINE","","","","","","2018","2018/06/28 00:00:00+00","179","1345","Human","Other causes","","2018/07/07 00:00:00+00","188","1335","0.25","A","48.59065","-120.4156","PRIVATE","WA","Okanogan County","53047","Okanogan County"
"-122.07338559","45.629104467","2065182","400321764","SFO-2018WADNR55655","NONFED","ST-NASF","ST/C&L","USWAWAS","Washington State Department of Natural Resources Headquarters","WADNR","Washington Department of Natural Resources","","55655","","DUNCAN RD","","","","","","2018","2018/07/08 00:00:00+00","189","1500","Human","Other causes","","2018/07/08 00:00:00+00","189","1630","0.1","A","45.62911","-122.0734","PRIVATE","WA","Skamania County","53059","Skamania County"
"-80.085477027","34.406258269","2065183","400321766","SFO-2018SCSCS19WF0012","NONFED","ST-NASF","ST/C&L","USSCSCS","South Carolina Forestry Commission","SCSCS","South Carolina Forestry Commission","","19WF0012","","","","","","","","2018","2018/07/10 00:00:00+00","191","1542","Human","Other causes","","2018/07/10 00:00:00+00","191","1730","1","B","34.406265","-80.08548","PRIVATE","SC","Darlington County","45031","Darlington County"
"-81.981655427","35.097161188","2065184","400321767","SFO-2018SCSCS19NF0010","NONFED","ST-NASF","ST/C&L","USSCSCS","South Carolina Forestry Commission","SCSCS","South Carolina Forestry Commission","","19NF0010","","","","","","","","2018","2018/07/12 00:00:00+00","193","1426","Human","Other causes","","2018/07/12 00:00:00+00","193","1558","0.5","B","35.097168","-81.981659","PRIVATE","SC","Spartanburg County","45083","Spartanburg County"
"-78.529056999","42.320351616","2065185","400321768","SFO-2018NY5010NY5010-2018-255","NONFED","ST-NASF","ST/C&L","USNYNYX","Fire Department of New York","NY5010","Fire Department of New York","","NY5010-2018-255","","N/A","","","","","","2018","2018/07/12 00:00:00+00","193","1704","Human","Other causes","","2018/07/12 00:00:00+00","193","1800","1.29165","B","42.32036","-78.52906","MISSING/NOT SPECIFIED","NY","CATTARAUGUS","36009","Cattaraugus County"
"-68.46468714","44.695794816","2065186","400321769","SFO-2018MEMES12018086","NONFED","ST-NASF","ST/C&L","USMEMES","Maine Forest Service","MEMES","Maine Forest Service","","12018086","","OTIS CAMP 1","","","","","","2018","2018/07/12 00:00:00+00","193","","Human","Other causes","","2018/07/12 00:00:00+00","193","","0.2","A","44.695804","-68.464687","PRIVATE","ME","Hancock","23009","Hancock County"
"-117.592085889","47.774633861","2065187","400321770","SFO-2018WADNR55728","NONFED","ST-NASF","ST/C&L","USWAWAS","Washington State Department of Natural Resources Headquarters","WADNR","Washington Department of Natural Resources","","55728","","WEST FARWELL","","","","","","2018","2018/07/11 00:00:00+00","192","2300","Human","Other causes","","2018/07/14 00:00:00+00","195","1133","0.15","A","47.77464","-117.5921","PRIVATE","WA","SPokane County","53063","Spokane County"
"-92.35889237","45.9729918","2065188","400321771","SFO-2018WI-WIS85120762018","NONFED","ST-NASF","ST/C&L","USWIWIS","Wisconsin Department of Natural Resources","WIWIS","Wisconsin Department of Natural Resources","","85120762018","","CRYSTAL SKULL FIRE","","","","","","2018","2018/07/14 00:00:00+00","195","1519","Human","Other causes","","2018/07/14 00:00:00+00","195","1600","0.1","A","45.973","-92.3589","PRIVATE","WI","Burnett","55013","Burnett County"
"-120.193885246","48.493254099","2065189","400321772","SFO-2018WADNR55671","NONFED","ST-NASF","ST/C&L","USWAWAS","Washington State Department of Natural Resources Headquarters","WADNR","Washington Department of Natural Resources","","55671","","RENDEZVOUS","","","","","","2018","2018/07/06 00:00:00+00","187","1600","Human","Other causes","","2018/07/20 00:00:00+00","201","1450","0.06","A","48.49326","-120.1939","PRIVATE","WA","Okanogan County","53047","Okanogan County"
"-74.019838498","41.498271592","2065190","400321773","SFO-2018NY3631NY3631-2018-1809","NONFED","ST-NASF","ST/C&L","USNYNYX","Fire Department of New York","NY3631","Fire Department of New York","","NY3631-2018-1809","","N/A","","","","","","2018","2018/07/21 00:00:00+00","202","0633","Human","Other causes","","2018/07/21 00:00:00+00","202","0643","0.1","A","41.49828","-74.01984","MISSING/NOT SPECIFIED","NY","ORANGE","36071","Orange County"
"-69.703797748","44.257684932","2065191","400321774","SFO-2018MEMES23018110","NONFED","ST-NASF","ST/C&L","USMEMES","Maine Forest Service","MEMES","Maine Forest Service","","23018110","","HILLCREST DRIVE FIRE","","","","","","2018","2018/07/23 00:00:00+00","204","","Human","Other causes","","2018/07/23 00:00:00+00","204","","0.1","A","44.257694","-69.703798","PRIVATE","ME","Kennebec","23011","Kennebec County"
"-96.251709285","32.772077571","2065192","400321775","SFO-2018TXTXS7826","NONFED","ST-NASF","ST/C&L","USTXTXS","Texas A & M Forest Service","TXTXS","Texas Forest Service","","7826","","PARSONS","","","","","","2018","2018/07/25 00:00:00+00","206","1520","Human","Other causes","","2018/07/25 00:00:00+00","206","1704","3.71","B","32.77208333","-96.25171667","MISSING/NOT SPECIFIED","TX","Kaufman","48257","Kaufman County"
"-97.347125804","30.248828104","2065193","400321776","SFO-2018TXTXS7842","NONFED","ST-NASF","ST/C&L","USTXTXS","Texas A & M Forest Service","TXTXS","Texas Forest Service","","7842","","OLD SAYERS ROAD ","","","","","","2018","2018/07/27 00:00:00+00","208","2132","Human","Other causes","","2018/07/27 00:00:00+00","208","2317","0.5","B","30.24883333","-97.34713333","MISSING/NOT SPECIFIED","TX","Bastrop","48021","Bastrop County"
"-122.880285098","47.273984461","2065194","400321778","SFO-2018WADNR56065","NONFED","ST-NASF","ST/C&L","USWAWAS","Washington State Department of Natural Resources Headquarters","WADNR","Washington Department of Natural Resources","","56065","","HARTSTINE HEIGHTS LN","","","","","","2018","2018/07/16 00:00:00+00","197","1505","Human","Other causes","","2018/07/30 00:00:00+00","211","1200","1","B","47.27399","-122.8803","PRIVATE","WA","Mason County","53045","Mason County"
"-112.559387057","47.015193403","2065195","400321779","SFO-2018MTSWS000806","NONFED","ST-NASF","ST/C&L","USMTSWS","Southwestern Land Office","MTSWS","Southwestern Land Office","","000806","","LANDERS FORK","","","","","","2018","2018/07/30 00:00:00+00","211","0643","Human","Other causes","","2018/07/30 00:00:00+00","211","1209","0.4","B","47.0152","-112.5594","PRIVATE","MT","Lewis & Clark","30049","Lewis and Clark County"
"-68.202576109","46.731605454","2065196","400321780","SFO-2018MEMES31018027","NONFED","ST-NASF","ST/C&L","USMEMES","Maine Forest Service","MEMES","Maine Forest Service","","31018027","","BARN FIRE","","","","","","2018","2018/08/01 00:00:00+00","213","","Human","Other causes","","2018/08/01 00:00:00+00","213","","0.5","B","46.731615","-68.202576","PRIVATE","ME","Aroostook","23003","Aroostook County"
"-68.868459968","45.287730722","2065197","400321781","SFO-2018MEMES13018059","NONFED","ST-NASF","ST/C&L","USMEMES","Maine Forest Service","MEMES","Maine Forest Service","","13018059","","CAMP IRELAND FIRE","","","","","","2018","2018/08/01 00:00:00+00","213","","Human","Other causes","","2018/08/01 00:00:00+00","213","","2","B","45.28774","-68.86846","PRIVATE","ME","Piscataquis","23021","Piscataquis County"
"-94.840586843","48.693378741","2065198","400321782","SFO-2018MNMNS2018131011","NONFED","ST-NASF","ST/C&L","USMNMNS","Minnesota Department of Natural Resources","MNMNS","Minnesota Department of Natural Resources","","2018131011","","","","","","","","2018","2018/08/02 00:00:00+00","214","1544","Human","Other causes","","2018/08/02 00:00:00+00","214","1647","1.4","B","48.69338712","-94.84059564","PRIVATE","MN","Lake of the Woods","27077","Lake of the Woods County"
"-121.580685023","48.443834256","2065199","400321783","SFO-2018WADNR56472","NONFED","ST-NASF","ST/C&L","USWAWAS","Washington State Department of Natural Resources Headquarters","WADNR","Washington Department of Natural Resources","","56472","","SOUTH ROCKPORT","","","","","","2018","2018/07/28 00:00:00+00","209","1400","Human","Other causes","","2018/08/08 00:00:00+00","220","1400","0.1","A","48.44384","-121.5807","PRIVATE","WA","Skagit County","53057","Skagit County"
"-117.686785926","47.538693887","2065200","400321784","SFO-2018WADNR56415","NONFED","ST-NASF","ST/C&L","USWAWAS","Washington State Department of Natural Resources Headquarters","WADNR","Washington Department of Natural Resources","","56415","","CLEAR LAKE","","","","","","2018","2018/08/07 00:00:00+00","219","0100","Human","Other causes","","2018/08/10 00:00:00+00","222","1100","1.1","B","47.5387","-117.6868","PRIVATE","WA","SPokane County","53063","Spokane County"
"-92.62931207","47.915135281","2065201","400321785","SFO-2018MNMNS2018245011","NONFED","ST-NASF","ST/C&L","USMNMNS","Minnesota Department of Natural Resources","MNMNS","Minnesota Department of Natural Resources","","2018245011","","","","","","","","2018","2018/08/10 00:00:00+00","222","1715","Human","Other causes","","2018/08/10 00:00:00+00","222","2030","0.1","A","47.91514373","-92.62932008","PRIVATE","MN","St. Louis","27137","St. Louis County"
"-122.01818498","48.325854311","2065202","400321786","SFO-2018WADNR56530","NONFED","ST-NASF","ST/C&L","USWAWAS","Washington State Department of Natural Resources Headquarters","WADNR","Washington Department of Natural Resources","","56530","","CAVANAUGH","","","","","","2018","2018/07/28 00:00:00+00","209","1800","Human","Other causes","","2018/08/16 00:00:00+00","228","1654","0.1","A","48.32586","-122.0182","PRIVATE","WA","Skagit County","53057","Skagit County"
"-123.169885202","46.627524526","2065203","400321787","SFO-2018WADNR56417","NONFED","ST-NASF","ST/C&L","USWAWAS","Washington State Department of Natural Resources Headquarters","WADNR","Washington Department of Natural Resources","","56417","","JORGENSEN ROAD","","","","","","2018","2018/08/09 00:00:00+00","221","1558","Human","Other causes","","2018/08/17 00:00:00+00","229","1509","1","B","46.62753","-123.1699","PRIVATE","WA","Lewis County","53041","Lewis County"
"-114.17168643","48.323293461","2065204","400321788","SFO-2018MTNWS000433","NONFED","ST-NASF","ST/C&L","USMTNWS","Northwestern Land Office","MTNWS","Northwestern Land Office","","000433","","550 NEIGHBORLY WAY","","","","","","2018","2018/08/18 00:00:00+00","230","1558","Human","Other causes","","2018/08/18 00:00:00+00","230","1930","0.1","A","48.3233","-114.1717","PRIVATE","MT","Flathead","30029","Flathead County"
"-80.111028035","34.090161339","2065205","400321789","SFO-2018SCSCS19FF0031","NONFED","ST-NASF","ST/C&L","USSCSCS","South Carolina Forestry Commission","SCSCS","South Carolina Forestry Commission","","19FF0031","","","","","","","","2018","2018/08/18 00:00:00+00","230","2052","Human","Other causes","","2018/08/18 00:00:00+00","230","2226","0.3","B","34.090168","-80.111031","PRIVATE","SC","Lee County","45061","Lee County"
"-81.716717583","33.627690496","2065206","400321790","SFO-2018SCSCS19WF0031","NONFED","ST-NASF","ST/C&L","USSCSCS","South Carolina Forestry Commission","SCSCS","South Carolina Forestry Commission","","19WF0031","","","","","","","","2018","2018/08/25 00:00:00+00","237","1855","Human","Other causes","","2018/08/25 00:00:00+00","237","1927","1","B","33.627697","-81.716721","MISSING/NOT SPECIFIED","SC","Aiken County","45003","Aiken County"
"-76.656337606","42.174531564","2065207","400321791","SFO-2018NY8008NY8008-2018-147","NONFED","ST-NASF","ST/C&L","USNYNYX","Fire Department of New York","NY8008","Fire Department of New York","","NY8008-2018-147","","N/A","","","","","","2018","2018/08/25 00:00:00+00","237","2115","Human","Other causes","","2018/08/25 00:00:00+00","237","2251","0.4922","B","42.17454","-76.65634","PRIVATE","NY","CHEMUNG","36015","Chemung County"
"-87.369711817","35.865576248","2065208","400321792","SFO-2018TNTNS18-H0080","NONFED","ST-NASF","ST/C&L","USTNTNS","Tennessee Division of Forestry","TNTNS","Tennessee Division of Forestry","","18-H0080","","HICKORY TRACE FIRE","","","","","","2018","2018/08/26 00:00:00+00","238","1628","Human","Other causes","","2018/08/26 00:00:00+00","238","1700","1","B","35.865583","-87.369717","PRIVATE","TN","HICKMAN","47081","Hickman County"
"-68.936719949","45.230350735","2065209","400321793","SFO-2018MEMES13018064","NONFED","ST-NASF","ST/C&L","USMEMES","Maine Forest Service","MEMES","Maine Forest Service","","13018064","","JOE RAYMOND FIRE","","","","","","2018","2018/08/26 00:00:00+00","238","","Human","Other causes","","2018/08/26 00:00:00+00","238","","0.1","A","45.23036","-68.93672","PRIVATE","ME","Piscataquis","23021","Piscataquis County"
"-120.173585466","47.601594149","2065210","400321794","SFO-2018WADNR57290","NONFED","ST-NASF","ST/C&L","USWAWAS","Washington State Department of Natural Resources Headquarters","WADNR","Washington Department of Natural Resources","","57290","","RED FIELD","","","","","","2018","2018/08/30 00:00:00+00","242","1312","Human","Other causes","","2018/08/31 00:00:00+00","243","1204","0.1","A","47.6016","-120.1736","PRIVATE","WA","Douglas County","53017","Douglas County"
"-80.444515932","34.161153335","2065211","400321795","SFO-2018SCSCS19FF0054","NONFED","ST-NASF","ST/C&L","USSCSCS","South Carolina Forestry Commission","SCSCS","South Carolina Forestry Commission","","19FF0054","","","","","","","","2018","2018/08/31 00:00:00+00","243","1554","Human","Other causes","","2018/08/31 00:00:00+00","243","1803","3","B","34.16116","-80.444519","PRIVATE","SC","Lee County","45061","Lee County"
"-118.127085669","48.279903885","2065212","400321796","SFO-2018WADNR55067","NONFED","ST-NASF","ST/C&L","USWAWAS","Washington State Department of Natural Resources Headquarters","WADNR","Washington Department of Natural Resources","","55067","","MARTIN","","","","","","2018","2018/06/11 00:00:00+00","162","2330","Human","Other causes","","2018/09/07 00:00:00+00","250","1100","0.15","A","48.27991","-118.1271","PRIVATE","WA","Stevens County","53065","Stevens County"
"-118.028385565","48.772663843","2065213","400321797","SFO-2018WADNR56515","NONFED","ST-NASF","ST/C&L","USWAWAS","Washington State Department of Natural Resources Headquarters","WADNR","Washington Department of Natural Resources","","56515","","NORTHPORT FLAT","","","","","","2018","2018/08/11 00:00:00+00","223","2330","Human","Other causes","","2018/09/07 00:00:00+00","250","1100","1.28","B","48.77267","-118.0284","PRIVATE","WA","Stevens County","53065","Stevens County"
"-68.110544225","45.316655695","2065214","400321798","SFO-2018MEMES12018132","NONFED","ST-NASF","ST/C&L","USMEMES","Maine Forest Service","MEMES","Maine Forest Service","","12018132","","UPPER PUG FIRE","","","","","","2018","2018/09/07 00:00:00+00","250","","Human","Other causes","","2018/09/07 00:00:00+00","250","","0.1","A","45.316665","-68.110544","PRIVATE","ME","Penobscot","23019","Penobscot County"
"-79.371907237","34.479153228","2065215","400321799","SFO-2018SCSCS19FF0080","NONFED","ST-NASF","ST/C&L","USSCSCS","South Carolina Forestry Commission","SCSCS","South Carolina Forestry Commission","","19FF0080","","","","","","","","2018","2018/09/08 00:00:00+00","251","1446","Human","Other causes","","2018/09/08 00:00:00+00","251","1529","3","B","34.47916","-79.37191","PRIVATE","SC","Dillon County","45033","Dillon County"
"-68.590800092","44.793890802","2065216","400321800","SFO-2018MEMES12018130","NONFED","ST-NASF","ST/C&L","USMEMES","Maine Forest Service","MEMES","Maine Forest Service","","12018130","","SQUIRREL LANE","","","","","","2018","2018/09/09 00:00:00+00","252","","Human","Other causes","","2018/09/09 00:00:00+00","252","","0.2","A","44.7939","-68.5908","PRIVATE","ME","Penobscot","23019","Penobscot County"
"-82.452381329","34.355313364","2065217","400321801","SFO-2018SCSCS19NF0030","NONFED","ST-NASF","ST/C&L","USSCSCS","South Carolina Forestry Commission","SCSCS","South Carolina Forestry Commission","","19NF0030","","","","","","","","2018","2018/09/11 00:00:00+00","254","0123","Human","Other causes","","2018/09/11 00:00:00+00","254","0240","0.1","A","34.35532","-82.452385","PRIVATE","SC","Abbeville County","45001","Abbeville County"
"-119.017585373","48.81679395","2065218","400321802","SFO-2018WADNR57206","NONFED","ST-NASF","ST/C&L","USWAWAS","Washington State Department of Natural Resources Headquarters","WADNR","Washington Department of Natural Resources","","57206","","BONAPARTE LAKE","","","","","","2018","2018/09/07 00:00:00+00","250","2050","Human","Other causes","","2018/09/12 00:00:00+00","255","1053","0.1","A","48.8168","-119.0176","PRIVATE","WA","Okanogan County","53047","Okanogan County"
"-122.348985266","46.912154422","2065219","400321803","SFO-2018WADNR57193","NONFED","ST-NASF","ST/C&L","USWAWAS","Washington State Department of Natural Resources Headquarters","WADNR","Washington Department of Natural Resources","","57193","","58TH AVE CT E","","","","","","2018","2018/09/05 00:00:00+00","248","1330","Human","Other causes","","2018/09/12 00:00:00+00","255","1500","0.25","A","46.91216","-122.349","PRIVATE","WA","Pierce County","53053","Pierce County"
"-79.716664181","33.499993456","2065220","400321804","SFO-2018SCSCS19FF0098","NONFED","ST-NASF","ST/C&L","USSCSCS","South Carolina Forestry Commission","SCSCS","South Carolina Forestry Commission","","19FF0098","","","","","","","","2018","2018/09/13 00:00:00+00","256","0013","Human","Other causes","","2018/09/13 00:00:00+00","256","0150","0.3","B","33.5","-79.716667","PRIVATE","SC","Williamsburg County","45089","Williamsburg County"
