"ï»¿X","Y","OBJECTID","FOD_ID","FPA_ID","SOURCE_SYSTEM_TYPE","SOURCE_SYSTEM","NWCG_REPORTING_AGENCY","NWCG_REPORTING_UNIT_ID","NWCG_REPORTING_UNIT_NAME","SOURCE_REPORTING_UNIT","SOURCE_REPORTING_UNIT_NAME","LOCAL_FIRE_REPORT_ID","LOCAL_INCIDENT_ID","FIRE_CODE","FIRE_NAME","ICS_209_PLUS_INCIDENT_JOIN_ID","ICS_209_PLUS_COMPLEX_JOIN_ID","MTBS_ID","MTBS_FIRE_NAME","COMPLEX_NAME","FIRE_YEAR","DISCOVERY_DATE","DISCOVERY_DOY","DISCOVERY_TIME","NWCG_CAUSE_CLASSIFICATION","NWCG_GENERAL_CAUSE","NWCG_CAUSE_AGE_CATEGORY","CONT_DATE","CONT_DOY","CONT_TIME","FIRE_SIZE","FIRE_SIZE_CLASS","LATITUDE","LONGITUDE","OWNER_DESCR","STATE","COUNTY","FIPS_CODE","FIPS_NAME"
"-120.251375011","44.450549921","20001","20104","FS-1450391","FED","FS-FIRESTAT","FS","USOROCF","Ochoco National Forest","0607","Ochoco National Forest","7","1-004","C66H","0200","","","","","","2007","2007/06/01 00:00:00+00","152","1600","Natural","Natural","","2007/06/02 00:00:00+00","153","1147","0.1","A","44.45055556","-120.25138889","USFS","OR","69","41069","Wheeler County"
"-79.649441659","33.11832687","20002","20105","FS-1450392","FED","FS-FIRESTAT","FS","USSCFMF","Francis Marion & Sumter National Forests","0812","Francis Marion-Sumter National Forest","35","25","DH0B","POWER","","","","","","2007","2007/06/09 00:00:00+00","160","1655","Human","Arson/incendiarism","","2007/06/11 00:00:00+00","162","1630","5.5","B","33.11833333","-79.64944444","USFS","SC","15","45015","Berkeley County"
"-79.785552738","33.126104652","20003","20106","FS-1450393","FED","FS-FIRESTAT","FS","USSCFMF","Francis Marion & Sumter National Forests","0812","Francis Marion-Sumter National Forest","36","26","DJ0E","IRISH","","","","","","2007","2007/06/20 00:00:00+00","171","0700","Human","Arson/incendiarism","","2007/06/22 00:00:00+00","173","1230","4.3","B","33.12611111","-79.78555556","USFS","SC","15","45015","Berkeley County"
"-79.712219413","33.283326835","20004","20107","FS-1450394","FED","FS-FIRESTAT","FS","USSCFMF","Francis Marion & Sumter National Forests","0812","Francis Marion-Sumter National Forest","39","29","DS6D","BRICK HOUSE","","","","","","2007","2007/07/23 00:00:00+00","204","1620","Human","Arson/incendiarism","","2007/07/30 00:00:00+00","211","0800","3.7","B","33.28333333","-79.71222222","STATE OR PRIVATE","SC","15","45015","Berkeley County"
"-79.591663906","33.124993536","20005","20108","FS-1450395","FED","FS-FIRESTAT","FS","USSCFMF","Francis Marion & Sumter National Forests","0812","Francis Marion-Sumter National Forest","38","28","DS53","BUZZY","","","","","","2007","2007/07/21 00:00:00+00","202","1045","Human","Power generation/transmission/distribution","","2007/07/21 00:00:00+00","202","1300","0.1","A","33.125","-79.59166667","USFS","SC","19","45019","Charleston County"
"-120.212764643","39.88999471","20006","20109","FS-1450397","FED","FS-FIRESTAT","FS","USCAPNF","Plumas National Forest","0511","Plumas National Forest","73","438","C66A","COTTONWOOD","","","","","","2007","2007/07/10 00:00:00+00","191","1800","Natural","Natural","","2007/07/10 00:00:00+00","191","1820","0.1","A","39.89","-120.21277778","USFS","CA","63","06063","Plumas County"
"-103.438323006","44.070270676","20007","20110","FS-1450398","FED","FS-FIRESTAT","FS","USSDBKF","Black Hills National Forest","0203","Black Hills National Forest","68","19","C63Y","THRALL MOUNTAIN","","","","","","2007","2007/08/03 00:00:00+00","215","2109","Natural","Natural","","2007/08/04 00:00:00+00","216","0323","0.1","A","44.07027778","-103.43833333","USFS","SD","103","46103","Pennington County"
"-115.636653431","45.429160508","20008","20111","FS-1450399","FED","FS-FIRESTAT","FS","USIDNCF","Nez Perce - Clearwater National Forests","0117","Nezperce National Forest","17","D8 - 04","DQT8","RATTLESNAKE","2007_ID-NPF-000017_RATTLESNAKE","","ID4554811559420070713","RATTLESNAKE","","2007","2007/07/13 00:00:00+00","194","2114","Natural","Natural","","2007/11/19 00:00:00+00","323","1700","102000","G","45.42916667","-115.63666667","USFS","ID","49","16049","Idaho County"
"-118.769986403","44.29360534","20009","20112","FS-1450400","FED","FS-FIRESTAT","FS","USORMAF","Malheur National Forest","0604","Malheur National Forest","43","011","C66T","OR-MAF-181","","","","","","2007","2007/07/24 00:00:00+00","205","1005","Natural","Natural","","2007/07/24 00:00:00+00","205","1100","0.1","A","44.29361111","-118.77","USFS","OR","23","41023","Grant County"
"-118.308875393","44.190827524","20010","20113","FS-1450401","FED","FS-FIRESTAT","FS","USORMAF","Malheur National Forest","0604","Malheur National Forest","47","015","C66T","OR-MAF-186","","","","","","2007","2007/07/24 00:00:00+00","205","1212","Natural","Natural","","2007/07/24 00:00:00+00","205","1730","0.25","A","44.19083333","-118.30888889","USFS","OR","23","41023","Grant County"
"-115.65637563","45.514993833","20011","20114","FS-1450402","FED","FS-FIRESTAT","FS","USIDNCF","Nez Perce - Clearwater National Forests","0117","Nezperce National Forest","26","07","C6WZ","WEST FORK","2007_ID-NPF-000026_WEST FORK","","","","","2007","2007/07/15 00:00:00+00","196","1600","Natural","Natural","","2007/07/30 00:00:00+00","211","1800","0.1","A","45.515","-115.65638889","USFS","ID","49","16049","Idaho County"
"-109.939156027","34.129994675","20012","20115","FS-1450403","FED","FS-FIRESTAT","FS","USAZASF","Apache-Sitgreaves National Forest","0301","Apache-Sitgreaves National Forest","37","8","3C64","BILLY","","","","","","2007","2007/05/30 00:00:00+00","150","1445","Human","Missing data/not specified/undetermined","","2007/05/31 00:00:00+00","151","1400","0.25","A","34.13","-109.93916667","USFS","AZ","17","04017","Navajo County"
"-115.734708929","45.595549394","20013","20116","FS-1450404","FED","FS-FIRESTAT","FS","USIDNCF","Nez Perce - Clearwater National Forests","0117","Nezperce National Forest","22","D8 - 06","DQT8","CONCORD","2007_ID-NPF-000022_CONCORD","","ID4554811559420070713","RATTLESNAKE","","2007","2007/07/14 00:00:00+00","195","1205","Natural","Natural","","2007/08/13 00:00:00+00","225","2000","1500","F","45.59555556","-115.73472222","USFS","ID","49","16049","Idaho County"
"-119.65720836","44.876660943","20014","20117","FS-1450405","FED","FS-FIRESTAT","FS","USORUMF","Umatilla National Forest","0614","Umatilla National Forest","22","","C66L","TAMARACK","","","","","","2007","2007/07/13 00:00:00+00","194","0700","Natural","Natural","","2007/07/13 00:00:00+00","194","1800","0.75","B","44.87666667","-119.65722222","USFS","OR","23","41023","Grant County"
"-109.931656022","34.206661334","20015","20118","FS-1450407","FED","FS-FIRESTAT","FS","USAZASF","Apache-Sitgreaves National Forest","0301","Apache-Sitgreaves National Forest","85","16","3C64","TWIN","","","","","","2007","2007/06/26 00:00:00+00","177","1030","Human","Recreation and ceremony","","2007/06/26 00:00:00+00","177","1230","0.1","A","34.20666667","-109.93166667","USFS","AZ","17","04017","Navajo County"
"-109.956378243","34.138605784","20016","20119","FS-1450408","FED","FS-FIRESTAT","FS","USAZASF","Apache-Sitgreaves National Forest","0301","Apache-Sitgreaves National Forest","55","13","364R","WALNUT","","","","","","2007","2007/06/26 00:00:00+00","177","1645","Human","Missing data/not specified/undetermined","","2007/06/27 00:00:00+00","178","1600","0.2","A","34.13861111","-109.95638889","USFS","AZ","17","04017","Navajo County"
"-109.956378243","34.138605784","20017","20120","FS-1450409","FED","FS-FIRESTAT","FS","USAZASF","Apache-Sitgreaves National Forest","0301","Apache-Sitgreaves National Forest","56","14","364R","ADAIR","","","","","","2007","2007/06/26 00:00:00+00","177","1145","Human","Missing data/not specified/undetermined","","2007/06/26 00:00:00+00","177","1530","0.1","A","34.13861111","-109.95638889","USFS","AZ","17","04017","Navajo County"
"-118.399987635","35.76249497","20018","20121","FS-1450410","FED","FS-FIRESTAT","FS","USCASQF","Sequoia National Forest","0513","Sequoia National Forest","4","01","DD39","JAMES","2007_CA-SQF-000818_JAMES","","CA3574911839820070429","JAMES","","2007","2007/07/29 00:00:00+00","210","1446","Human","Recreation and ceremony","","2007/08/02 00:00:00+00","214","1900","4200","F","35.7625","-118.4","USFS","CA","29","06029","Kern County"
"-116.563041372","48.898604785","20019","20122","FS-1450411","FED","FS-FIRESTAT","FS","USIDIPF","Idaho Panhandle National Forest","0104","Idaho Panhandle National Forest","62","7011","C63F","PARKER RIDGE","","","","","","2007","2007/07/29 00:00:00+00","210","1010","Natural","Natural","","2007/07/30 00:00:00+00","211","0430","0.2","A","48.89861111","-116.56305556","USFS","ID","21","16021","Boundary County"
"-108.699989668","33.401939156","20020","20123","FS-1450412","FED","FS-FIRESTAT","FS","USNMGNF","Gila National Forest","0306","Gila National Forest","145","19","C64K","COONEY","","","","","","2007","2007/07/21 00:00:00+00","202","0900","Natural","Natural","","2007/08/05 00:00:00+00","217","0800","0.1","A","33.40194444","-108.7","USFS","NM","3","35003","Catron County"
"-115.113041927","47.770826931","20021","20124","FS-1450413","FED","FS-FIRESTAT","FS","USMTLNF","Lolo National Forest","0116","Lolo National Forest","93","014","572","BEATRICE #2","","","","","","2007","2007/07/18 00:00:00+00","199","1430","Natural","Natural","","2007/07/18 00:00:00+00","199","2225","1.5","B","47.77083333","-115.11305556","STATE OR PRIVATE","MT","89","30089","Sanders County"
"-109.953600463","34.142772454","20022","20125","FS-1450414","FED","FS-FIRESTAT","FS","USAZASF","Apache-Sitgreaves National Forest","0301","Apache-Sitgreaves National Forest","58","15","3C64","CREEK","","","","","","2007","2007/06/28 00:00:00+00","179","1200","Human","Missing data/not specified/undetermined","","2007/06/28 00:00:00+00","179","1400","0.1","A","34.14277778","-109.95361111","MISSING/NOT SPECIFIED","AZ","17","04017","Navajo County"
"-115.023875322","47.565549167","20023","20126","FS-1450415","FED","FS-FIRESTAT","FS","USMTLNF","Lolo National Forest","0116","Lolo National Forest","101","015","577","BIG DIEHL","","","","","","2007","2007/07/18 00:00:00+00","199","2130","Natural","Natural","","2007/07/20 00:00:00+00","201","1045","0.1","A","47.56555556","-115.02388889","USFS","MT","89","30089","Sanders County"
"-109.018600697","33.600272483","20024","20127","FS-1450416","FED","FS-FIRESTAT","FS","USNMGNF","Gila National Forest","0306","Gila National Forest","144","20","C64K","MIDNIGHT","","","","","","2007","2007/07/21 00:00:00+00","202","0800","Natural","Natural","","2007/08/05 00:00:00+00","217","0800","0.1","A","33.60027778","-109.01861111","USFS","NM","3","35003","Catron County"
"-115.001653121","47.49777139","20025","20128","FS-1450417","FED","FS-FIRESTAT","FS","USMTLNF","Lolo National Forest","0116","Lolo National Forest","102","016","579","SHEEP GAP","","","","","","2007","2007/07/19 00:00:00+00","200","0515","Natural","Natural","","2007/07/19 00:00:00+00","200","1147","0.1","A","47.49777778","-115.00166667","USFS","MT","89","30089","Sanders County"
"-117.513043386","35.32999496","20026","20129","FS-1450418","FED","FS-FIRESTAT","FS","USCABDF","San Bernardino National Forest","0512","San Bernardino National Forest","2","bdf-169","C66B","138 FIRE","","","","","","2007","2007/01/05 00:00:00+00","5","2003","Human","Equipment and vehicle use","","2007/01/06 00:00:00+00","6","0154","8","B","35.33","-117.51305556","USFS","CA","71","06071","San Bernardino County"
"-114.788875424","47.315271382","20027","20130","FS-1450419","FED","FS-FIRESTAT","FS","USMTLNF","Lolo National Forest","0116","Lolo National Forest","104","017","574","CAMP BIGHORN #1","","","","","","2007","2007/07/19 00:00:00+00","200","0930","Natural","Natural","","2007/07/19 00:00:00+00","200","1200","0.1","A","47.31527778","-114.78888889","USFS","MT","89","30089","Sanders County"
"-114.806930847","47.864715782","20028","20131","FS-1450422","FED","FS-FIRESTAT","FS","USMTLNF","Lolo National Forest","0116","Lolo National Forest","106","018","576","BASSOO","","","","","","2007","2007/07/18 00:00:00+00","199","2200","Natural","Natural","","2007/07/19 00:00:00+00","200","1800","0.1","A","47.86472222","-114.80694444","USFS","MT","89","30089","Sanders County"
"-110.08554488","34.213328001","20029","20132","FS-1450424","FED","FS-FIRESTAT","FS","USAZASF","Apache-Sitgreaves National Forest","0301","Apache-Sitgreaves National Forest","93","17","3C64","FOOL","","","","","","2007","2007/07/02 00:00:00+00","183","0910","Human","Recreation and ceremony","","2007/07/02 00:00:00+00","183","0944","0.1","A","34.21333333","-110.08555556","USFS","AZ","17","04017","Navajo County"
"-114.799430891","47.677771355","20030","20133","FS-1450426","FED","FS-FIRESTAT","FS","USMTLNF","Lolo National Forest","0116","Lolo National Forest","108","019","C63U","FOOL HEN","","","","","","2007","2007/07/19 00:00:00+00","200","0900","Natural","Natural","","2007/07/19 00:00:00+00","200","1800","0.1","A","47.67777778","-114.79944444","USFS","MT","89","30089","Sanders County"
"-110.094155989","34.208328002","20031","20134","FS-1450428","FED","FS-FIRESTAT","FS","USAZASF","Apache-Sitgreaves National Forest","0301","Apache-Sitgreaves National Forest","96","18","3C64","HANSEN","","","","","","2007","2007/07/04 00:00:00+00","185","0800","Human","Missing data/not specified/undetermined","","2007/07/04 00:00:00+00","185","1130","0.3","B","34.20833333","-110.09416667","USFS","AZ","17","04017","Navajo County"
"-117.565543468","34.294995078","20032","20135","FS-1450435","FED","FS-FIRESTAT","FS","USCABDF","San Bernardino National Forest","0512","San Bernardino National Forest","28","bdf-4790","C66B","LYTLE","","","","","","2007","2007/04/03 00:00:00+00","93","1048","Human","Recreation and ceremony","","2007/04/13 00:00:00+00","103","1700","2","B","34.295","-117.56555556","USFS","CA","71","06071","San Bernardino County"
"-117.475543479","34.346661737","20033","20136","FS-1450440","FED","FS-FIRESTAT","FS","USCABDF","San Bernardino National Forest","0512","San Bernardino National Forest","25","bdf-4423","C66B","MANZANITA","","","","","","2007","2007/04/06 00:00:00+00","96","0856","Human","Equipment and vehicle use","","2007/04/06 00:00:00+00","96","0920","0.1","A","34.34666667","-117.47555556","USFS","CA","71","06071","San Bernardino County"
"-108.7583225","38.713327309","20034","20137","FS-1450441","FED","FS-FIRESTAT","FS","USCOGMF","Grand Mesa, Uncompahgre and Gunnison National Forests","0204","Grand Mesa, Uncompahgre and Gunnison National Forests","25","","C63Z","BIG CREEK","","","","","","2007","2007/07/21 00:00:00+00","202","1525","Natural","Natural","","2007/07/26 00:00:00+00","207","2000","0.5","B","38.71333333","-108.75833333","USFS","CO","77","08077","Mesa County"
"-110.149433745","34.24693911","20035","20138","FS-1450442","FED","FS-FIRESTAT","FS","USAZASF","Apache-Sitgreaves National Forest","0301","Apache-Sitgreaves National Forest","164","26","3C64","BLAH","","","","","","2007","2007/07/16 00:00:00+00","197","1600","Natural","Natural","","2007/07/17 00:00:00+00","198","1400","0.1","A","34.24694444","-110.14944444","USFS","AZ","17","04017","Navajo County"
"-105.500823174","39.123327031","20036","20139","FS-1450443","FED","FS-FIRESTAT","FS","USCOPSF","Pike and San Isabel National Forest","0212","Pike San Isabel National Forest","28","8","DL0D","WEBER","","","","","","2007","2007/06/30 00:00:00+00","181","2145","Human","Recreation and ceremony","","2007/07/01 00:00:00+00","182","1320","0.1","A","39.12333333","-105.50083333","USFS","CO","","",""
"-115.795264701","44.418327268","20037","20140","FS-1450450","FED","FS-FIRESTAT","FS","USIDBOF","Boise National Forest","0402","Boise National Forest","67","633","C64Y","LAKE CREEK","","","","","","2007","2007/07/18 00:00:00+00","199","1400","Natural","Natural","","2007/07/20 00:00:00+00","201","1400","0.1","A","44.41833333","-115.79527778","USFS","ID","85","16085","Valley County"
"-85.906383477","43.610547317","20038","20141","FS-1450451","FED","FS-FIRESTAT","FS","USMIHMF","Huron-Manistee National Forest","0904","Huron-Manistee National Forest","81","081","C68A","BACKDOWN","","","","","","2007","2007/08/03 00:00:00+00","215","1710","Human","Missing data/not specified/undetermined","","2007/08/03 00:00:00+00","215","1730","0.25","A","43.61055556","-85.90638889","STATE OR PRIVATE","MI","123","26123","Newaygo County"
"-84.223606105","44.623880386","20039","20142","FS-1450452","FED","FS-FIRESTAT","FS","USMIHMF","Huron-Manistee National Forest","0904","Huron-Manistee National Forest","61","061","C68A","COUPLAND RD","","","","","","2007","2007/06/07 00:00:00+00","158","1734","Human","Power generation/transmission/distribution","","2007/06/07 00:00:00+00","158","1800","0.25","A","44.62388889","-84.22361111","USFS","MI","135","26135","Oscoda County"
"-83.719161859","44.276935966","20040","20143","FS-1450453","FED","FS-FIRESTAT","FS","USMIHMF","Huron-Manistee National Forest","0904","Huron-Manistee National Forest","78","078","C68A","LOOK","","","","","","2007","2007/08/01 00:00:00+00","213","1815","Human","Missing data/not specified/undetermined","","2007/08/01 00:00:00+00","213","1900","0.1","A","44.27694444","-83.71916667","STATE OR PRIVATE","MI","69","26069","Iosco County"
"-103.475823013","43.968326242","20041","20144","FS-1450454","FED","FS-FIRESTAT","FS","USSDBKF","Black Hills National Forest","0203","Black Hills National Forest","66","18","DT85","SMOKY LOOP","","","","","","2007","2007/07/29 00:00:00+00","210","1700","Human","Missing data/not specified/undetermined","","2007/07/29 00:00:00+00","210","1808","0.1","A","43.96833333","-103.47583333","USFS","SD","103","46103","Pennington County"
"-105.424711939","40.348326859","20042","20145","FS-1450455","FED","FS-FIRESTAT","FS","USCOARF","Arapaho and Roosevelt National Forests and Pawnee National Grassland","0210","Arapaho-Roosevelt National Forest","23","007078","C64D","JELLYSTONE FIRE","","","","","","2007","2007/08/03 00:00:00+00","215","0430","Natural","Natural","","2007/08/03 00:00:00+00","215","0530","0.01","A","40.34833333","-105.42472222","USFS","CO","69","08069","Larimer County"
"-103.407767497","43.852492921","20043","20146","FS-1450456","FED","FS-FIRESTAT","FS","USSDBKF","Black Hills National Forest","0203","Black Hills National Forest","59","18","C63Y","LAKOTA LAKE","","","","","","2007","2007/07/18 00:00:00+00","199","2040","Natural","Natural","","2007/07/19 00:00:00+00","200","0057","0.1","A","43.8525","-103.40777778","USFS","SD","33","46033","Custer County"
"-123.533875107","40.835550473","20044","20147","FS-1450457","FED","FS-FIRESTAT","FS","USCASRF","Six Rivers National Forest","0510","Six Rivers National Forest","26","53-06","DR1V","HENNESSY","","","","","","2007","2007/07/17 00:00:00+00","198","1936","Human","Recreation and ceremony","","2007/07/17 00:00:00+00","198","2140","0.1","A","40.83555556","-123.53388889","USFS","CA","105","06105","Trinity County"
"-120.126931321","39.857216926","20045","20148","FS-1450458","FED","FS-FIRESTAT","FS","USCAPNF","Plumas National Forest","0511","Plumas National Forest","72","435","C66A","GUIDICI","","","","","","2007","2007/07/10 00:00:00+00","191","1800","Natural","Natural","","2007/07/10 00:00:00+00","191","2100","0.3","B","39.85722222","-120.12694444","USFS","CA","63","06063","Plumas County"
"-116.948319051","48.965827042","20046","20149","FS-1450459","FED","FS-FIRESTAT","FS","USIDIPF","Idaho Panhandle National Forest","0104","Idaho Panhandle National Forest","58","8010","C63F","ROCK CREEK 23","","","","","","2007","2007/07/26 00:00:00+00","207","1500","Natural","Natural","","2007/07/26 00:00:00+00","207","2130","0.25","A","48.96583333","-116.94833333","USFS","ID","21","16021","Boundary County"
"-120.647486786","39.94221696","20047","20150","FS-1450460","FED","FS-FIRESTAT","FS","USCAPNF","Plumas National Forest","0511","Plumas National Forest","34","229","C66A","SUMMIT","","","","","","2007","2007/06/01 00:00:00+00","152","1100","Natural","Natural","","2007/06/01 00:00:00+00","152","1400","0.1","A","39.94222222","-120.6475","USFS","CA","63","06063","Plumas County"
"-117.038041305","48.801938173","20048","20151","FS-1450464","FED","FS-FIRESTAT","FS","USIDIPF","Idaho Panhandle National Forest","0104","Idaho Panhandle National Forest","60","8011","C63F","HEMLOCK","","","","","","2007","2007/07/27 00:00:00+00","208","1348","Natural","Natural","","2007/07/27 00:00:00+00","208","1900","0.5","B","48.80194444","-117.03805556","USFS","WA","51","53051","Pend Oreille County"
"-119.291654042","36.906383803","20049","20152","FS-1450465","FED","FS-FIRESTAT","FS","USCASNF","Sierra National Forest","0515","Sierra National Forest","6","001","DF9N","TRIMMER","2007_CA-SNF-525_TRIMMER","","","","","2007","2007/05/25 00:00:00+00","145","1200","Human","Missing data/not specified/undetermined","","2007/05/26 00:00:00+00","146","0300","186","D","36.90638889","-119.29166667","USFS","CA","19","06019","Fresno County"
"-120.054153558","39.895828027","20050","20153","FS-1450467","FED","FS-FIRESTAT","FS","USCAPNF","Plumas National Forest","0511","Plumas National Forest","71","432","C66A","RED","","","","","","2007","2007/07/10 00:00:00+00","191","1720","Natural","Natural","","2007/07/11 00:00:00+00","192","1545","4.2","B","39.89583333","-120.05416667","USFS","CA","35","06035","Lassen County"
"-117.496376813","34.258883968","20051","20154","FS-1450469","FED","FS-FIRESTAT","FS","USCABDF","San Bernardino National Forest","0512","San Bernardino National Forest","15","bdf-3052","C66B","APPLEWHITE","","","","","","2007","2007/02/26 00:00:00+00","57","1452","Human","Equipment and vehicle use","","2007/02/26 00:00:00+00","57","1600","0.1","A","34.25888889","-117.49638889","USFS","CA","71","06071","San Bernardino County"
"-120.459709021","40.049716936","20052","20155","FS-1450472","FED","FS-FIRESTAT","FS","USCAPNF","Plumas National Forest","0511","Plumas National Forest","36","PNF 232","C66A","JENKINS","","","","","","2007","2007/06/01 00:00:00+00","152","1756","Natural","Natural","","2007/06/01 00:00:00+00","152","2000","0.1","A","40.04972222","-120.45972222","USFS","CA","63","06063","Plumas County"
"-120.68776383","44.443049964","20053","20156","FS-1450473","FED","FS-FIRESTAT","FS","USOROCF","Ochoco National Forest","0607","Ochoco National Forest","9","1-006","C66H","0219","","","","","","2007","2007/06/02 00:00:00+00","153","1344","Natural","Natural","","2007/06/02 00:00:00+00","153","1800","0.1","A","44.44305556","-120.68777778","USFS","OR","13","41013","Crook County"
"-120.156653541","39.894716925","20054","20157","FS-1450478","FED","FS-FIRESTAT","FS","USCAPNF","Plumas National Forest","0511","Plumas National Forest","75","PNF 453","C66A","COVE","","","","","","2007","2007/07/12 00:00:00+00","193","1250","Natural","Natural","","2007/07/12 00:00:00+00","193","1513","1","B","39.89472222","-120.15666667","USFS","CA","63","06063","Plumas County"
"-85.93888341","44.133880563","20055","20158","FS-1450479","FED","FS-FIRESTAT","FS","USMIHMF","Huron-Manistee National Forest","0904","Huron-Manistee National Forest","74","074","C68A","PETERSON","","","","","","2007","2007/07/21 00:00:00+00","202","1555","Human","Debris and open burning","","2007/07/21 00:00:00+00","202","1720","2.5","B","44.13388889","-85.93888889","STATE OR PRIVATE","MI","85","26085","Lake County"
"-120.603597165","44.489161063","20056","20159","FS-1450480","FED","FS-FIRESTAT","FS","USOROCF","Ochoco National Forest","0607","Ochoco National Forest","8","1-005","C66H","0217","","","","","","2007","2007/06/02 00:00:00+00","153","1301","Natural","Natural","","2007/06/03 00:00:00+00","154","1955","0.1","A","44.48916667","-120.60361111","USFS","OR","13","41013","Crook County"
"-117.559432346","34.324161745","20057","20160","FS-1450481","FED","FS-FIRESTAT","FS","USCABDF","San Bernardino National Forest","0512","San Bernardino National Forest","24","bdf-4298","DBN7","LONEPINE","","","","","","2007","2007/04/03 00:00:00+00","93","0410","Human","Arson/incendiarism","","2007/04/03 00:00:00+00","93","0830","1.5","B","34.32416667","-117.55944444","STATE OR PRIVATE","CA","71","06071","San Bernardino County"
"-118.061098916","34.504439524","20058","20161","FS-1450482","FED","FS-FIRESTAT","FS","USCAANF","Angeles National Forest","0501","Angeles National Forest","83","052","DP3Q","SMALL","","","","","","2007","2007/07/11 00:00:00+00","192","1613","Human","Arson/incendiarism","","2007/07/11 00:00:00+00","192","1632","0.1","A","34.50444444","-118.06111111","MISSING/NOT SPECIFIED","CA","37","06037","Los Angeles County"
"-119.884153627","39.58527249","20059","20162","FS-1450483","FED","FS-FIRESTAT","FS","USNVHTF","Humboldt-Toiyabe National Forest","0417","Humboldt-Toiyabe National Forest","1","401","C9HQ","HORIZON HILLS","","","","","","2007","2007/01/30 00:00:00+00","30","1446","Human","Debris and open burning","","2007/01/30 00:00:00+00","30","1530","0.1","A","39.58527778","-119.88416667","USFS","NV","31","32031","Washoe County"
"-117.534987914","34.279995078","20060","20163","FS-1450484","FED","FS-FIRESTAT","FS","USCABDF","San Bernardino National Forest","0512","San Bernardino National Forest","23","bdf-4297","C66B","ROAD","","","","","","2007","2007/04/02 00:00:00+00","92","2029","Human","Recreation and ceremony","","2007/04/03 00:00:00+00","93","0422","0.25","A","34.28","-117.535","USFS","CA","71","06071","San Bernardino County"
"-115.485541625","48.735826899","20061","20164","FS-1450486","FED","FS-FIRESTAT","FS","USMTKNF","Kootenai National Forest","0114","Kootenai National Forest","83","17","C63S","COPELAND # 2","","","","","","2007","2007/07/20 00:00:00+00","201","1338","Natural","Natural","","2007/07/20 00:00:00+00","201","1550","0.25","A","48.73583333","-115.48555556","USFS","MT","53","30053","Lincoln County"
"-122.407208235","43.136939096","20062","20165","FS-1450487","FED","FS-FIRESTAT","FS","USORUPF","Umpqua National Forest","0615","Umpqua National Forest","43","3024","C66M","QUARTZ","","","","","","2007","2007/07/14 00:00:00+00","195","1700","Natural","Natural","","2007/07/15 00:00:00+00","196","1531","0.1","A","43.13694444","-122.40722222","USFS","OR","19","41019","Douglas County"
"-118.287487769","34.492772878","20063","20166","FS-1450489","FED","FS-FIRESTAT","FS","USCAANF","Angeles National Forest","0501","Angeles National Forest","82","051","C7AB","CELICA","","","","","","2007","2007/07/08 00:00:00+00","189","1626","Human","Equipment and vehicle use","","2007/07/08 00:00:00+00","189","1645","0.1","A","34.49277778","-118.2875","MISSING/NOT SPECIFIED","CA","37","06037","Los Angeles County"
"-119.853320308","39.464994718","20064","20167","FS-1450490","FED","FS-FIRESTAT","FS","USNVHTF","Humboldt-Toiyabe National Forest","0417","Humboldt-Toiyabe National Forest","2","402","CPJ6","HUNTER CREEK","","","","","","2007","2007/02/07 00:00:00+00","38","1704","Human","Debris and open burning","","2007/02/07 00:00:00+00","38","1830","0.1","A","39.465","-119.85333333","USFS","NV","31","32031","Washoe County"
"-123.49359724","41.450272648","20065","20168","FS-1450491","FED","FS-FIRESTAT","FS","USCASRF","Six Rivers National Forest","0510","Six Rivers National Forest","8","58-01","DJC8","BRIDGE","","","","","","2007","2007/06/16 00:00:00+00","167","2229","Human","Arson/incendiarism","","2007/06/17 00:00:00+00","168","1931","9","B","41.45027778","-123.49361111","USFS","CA","93","06093","Siskiyou County"
"-123.528875036","41.30860599","20066","20169","FS-1450492","FED","FS-FIRESTAT","FS","USCASRF","Six Rivers National Forest","0510","Six Rivers National Forest","18","52-05","C65Z","HIGHWAY","","","","","","2007","2007/07/11 00:00:00+00","192","0040","Human","Arson/incendiarism","","2007/07/12 00:00:00+00","193","0906","1","B","41.30861111","-123.52888889","STATE OR PRIVATE","CA","23","06023","Humboldt County"
"-114.775264318","47.310271381","20067","20170","FS-1450493","FED","FS-FIRESTAT","FS","USMTLNF","Lolo National Forest","0116","Lolo National Forest","109","020","C63U","CAMP BIGHORN #2","","","","","","2007","2007/07/19 00:00:00+00","200","0945","Natural","Natural","","2007/07/20 00:00:00+00","201","0940","0.1","A","47.31027778","-114.77527778","USFS","MT","89","30089","Sanders County"
"-123.402486139","41.478050418","20068","20171","FS-1450494","FED","FS-FIRESTAT","FS","USCASRF","Six Rivers National Forest","0510","Six Rivers National Forest","28","58-03","DTW9","TRAIL HEAD","","","","","","2007","2007/07/25 00:00:00+00","206","1500","Human","Arson/incendiarism","","2007/07/26 00:00:00+00","207","1235","0.1","A","41.47805556","-123.4025","USFS","CA","93","06093","Siskiyou County"
"-115.59248631","47.604993663","20069","20172","FS-1450495","FED","FS-FIRESTAT","FS","USMTLNF","Lolo National Forest","0116","Lolo National Forest","110","021","C63U","UPPER CLEAR","","","","","","2007","2007/07/19 00:00:00+00","200","1145","Natural","Natural","","2007/07/20 00:00:00+00","201","0915","0.1","A","47.605","-115.5925","USFS","MT","89","30089","Sanders County"
"-115.287208324","48.735271328","20070","20173","FS-1450497","FED","FS-FIRESTAT","FS","USMTKNF","Kootenai National Forest","0114","Kootenai National Forest","29","09","C63S","INCH MOUNTAIN","","","","","","2007","2007/07/01 00:00:00+00","182","1515","Natural","Natural","","2007/07/04 00:00:00+00","185","1045","2.5","B","48.73527778","-115.28722222","USFS","MT","53","30053","Lincoln County"
"-115.38693078","47.654715858","20071","20174","FS-1450498","FED","FS-FIRESTAT","FS","USMTLNF","Lolo National Forest","0116","Lolo National Forest","113","022","DSG1","HARLOW","","","","","","2007","2007/07/20 00:00:00+00","201","0815","Human","Debris and open burning","","2007/07/20 00:00:00+00","201","0955","0.1","A","47.65472222","-115.38694444","STATE OR PRIVATE","MT","89","30089","Sanders County"
"-121.091375607","39.927216998","20072","20175","FS-1450499","FED","FS-FIRESTAT","FS","USCAPNF","Plumas National Forest","0511","Plumas National Forest","87","PNF-0538","DU12","SILVER","","","","","","2007","2007/07/26 00:00:00+00","207","1500","Human","Equipment and vehicle use","","2007/07/26 00:00:00+00","207","1630","0.1","A","39.92722222","-121.09138889","USFS","CA","63","06063","Plumas County"
"-115.157486384","47.658882504","20073","20176","FS-1450500","FED","FS-FIRESTAT","FS","USMTLNF","Lolo National Forest","0116","Lolo National Forest","114","023","595","WEST FORK","","","","","","2007","2007/07/20 00:00:00+00","201","0930","Natural","Natural","","2007/07/20 00:00:00+00","201","1830","0.1","A","47.65888889","-115.1575","USFS","MT","89","30089","Sanders County"
"-115.558599178","36.413050276","20074","20177","FS-1450501","FED","FS-FIRESTAT","FS","USNVHTF","Humboldt-Toiyabe National Forest","0417","Humboldt-Toiyabe National Forest","56","P4DP16","DP16","MILE 9","","","","","","2007","2007/07/11 00:00:00+00","192","1119","Natural","Natural","","2007/07/11 00:00:00+00","192","1900","6.5","B","36.41305556","-115.55861111","USFS","NV","3","32003","Clark County"
"-121.303041596","43.981938935","20075","20178","FS-1450502","FED","FS-FIRESTAT","FS","USORDEF","Deschutes National Forest","0601","Deschutes National Forest","10","1-007","DC1K","0086","","","","","","2007","2007/04/19 00:00:00+00","109","1100","Human","Arson/incendiarism","","2007/04/19 00:00:00+00","109","1110","0.1","A","43.98194444","-121.30305556","USFS","OR","17","41017","Deschutes County"
"-121.079986719","39.924716997","20076","20179","FS-1450503","FED","FS-FIRESTAT","FS","USCAPNF","Plumas National Forest","0511","Plumas National Forest","86","PNF-0532","DU13","SILVER2","","","","","","2007","2007/07/30 00:00:00+00","211","1235","Human","Equipment and vehicle use","","2007/07/30 00:00:00+00","211","1430","0.1","A","39.92472222","-121.08","USFS","CA","63","06063","Plumas County"
"-106.88026751","37.270827381","20077","20180","FS-1450504","FED","FS-FIRESTAT","FS","USCOSJF","San Juan National Forest","0213","San Juan National Forest","21","IAR  096","DJ72","NIPPLE MTN CAMPFIRE","","","","","","2007","2007/06/22 00:00:00+00","173","1524","Human","Recreation and ceremony","","2007/06/22 00:00:00+00","173","1610","0.1","A","37.27083333","-106.88027778","USFS","CO","7","08007","Archuleta County"
"-114.827208743","47.330549165","20078","20181","FS-1450505","FED","FS-FIRESTAT","FS","USMTLNF","Lolo National Forest","0116","Lolo National Forest","118","024","566","PAT'S KNOB","","","","","","2007","2007/07/21 00:00:00+00","202","1420","Natural","Natural","","2007/07/22 00:00:00+00","203","1215","0.1","A","47.33055556","-114.82722222","USFS","MT","89","30089","Sanders County"
"-122.268319666","41.299994771","20079","20182","FS-1450506","FED","FS-FIRESTAT","FS","USCASHF","Shasta-Trinity National Forest","0514","Shasta-Trinity National Forest","68","13","DU5M","OLD","","","","","","2007","2007/08/03 00:00:00+00","215","1624","Human","Recreation and ceremony","","2007/08/03 00:00:00+00","215","1650","0.01","A","41.3","-122.26833333","USFS","CA","93","06093","Siskiyou County"
"-106.961100831","37.179994068","20080","20183","FS-1450508","FED","FS-FIRESTAT","FS","USCOSJF","San Juan National Forest","0213","San Juan National Forest","13","IAR 050","DG9S","EIGHTMILE MESA","","","","","","2007","2007/06/04 00:00:00+00","155","1130","Human","Recreation and ceremony","","2007/06/04 00:00:00+00","155","1350","0.1","A","37.18","-106.96111111","USFS","CO","7","08007","Archuleta County"
"-106.905267511","37.205827391","20081","20184","FS-1450509","FED","FS-FIRESTAT","FS","USCOSJF","San Juan National Forest","0213","San Juan National Forest","27","IAR 113","DLQ5","ANNIVERSARY","","","","","","2007","2007/06/30 00:00:00+00","181","1237","Natural","Natural","","2007/07/01 00:00:00+00","182","1500","5","B","37.20583333","-106.90527778","STATE OR PRIVATE","CO","7","08007","Archuleta County"
"-121.597763725","44.221661178","20082","20185","FS-1450510","FED","FS-FIRESTAT","FS","USORDEF","Deschutes National Forest","0601","Deschutes National Forest","54","5-017","DH81","0298","","","","","","2007","2007/06/15 00:00:00+00","166","1529","Human","Recreation and ceremony","","2007/06/15 00:00:00+00","166","1600","0.1","A","44.22166667","-121.59777778","USFS","OR","17","41017","Deschutes County"
"-118.22165445","34.489995095","20083","20186","FS-1450511","FED","FS-FIRESTAT","FS","USCAANF","Angeles National Forest","0501","Angeles National Forest","85","053","C7AB","HISEY","","","","","","2007","2007/07/12 00:00:00+00","193","1636","Human","Equipment and vehicle use","","2007/07/12 00:00:00+00","193","1650","0.1","A","34.49","-118.22166667","MISSING/NOT SPECIFIED","CA","37","06037","Los Angeles County"
"-122.602208192","43.20916134","20084","20187","FS-1450512","FED","FS-FIRESTAT","FS","USORUPF","Umpqua National Forest","0615","Umpqua National Forest","47","3026","DZ0T","COPELAND CONNECT","","","","","","2007","2007/07/16 00:00:00+00","197","1840","Natural","Natural","","2007/07/17 00:00:00+00","198","1629","0.25","A","43.20916667","-122.60222222","USFS","OR","19","41019","Douglas County"
"-118.233043328","34.604439523","20085","20188","FS-1450513","FED","FS-FIRESTAT","FS","USCAANF","Angeles National Forest","0501","Angeles National Forest","57","038","DHY6","HACIENDA","","","","","","2007","2007/06/09 00:00:00+00","160","0921","Human","Equipment and vehicle use","","2007/06/09 00:00:00+00","160","1035","2.3","B","34.60444444","-118.23305556","MISSING/NOT SPECIFIED","CA","37","06037","Los Angeles County"
"-121.852208281","43.362216809","20086","20189","FS-1450514","FED","FS-FIRESTAT","FS","USORDEF","Deschutes National Forest","0601","Deschutes National Forest","63","2-008","DN3G","0421","","","","","","2007","2007/07/07 00:00:00+00","188","1229","Human","Fireworks","","2007/07/08 00:00:00+00","189","1653","2.1","B","43.36222222","-121.85222222","USFS","OR","35","41035","Klamath County"
"-121.208874824","44.608050004","20087","20190","FS-1450515","FED","FS-FIRESTAT","FS","USOROCF","Ochoco National Forest","0607","Ochoco National Forest","13","5-004","DJ57","0317","","","","","","2007","2007/06/21 00:00:00+00","172","1933","Human","Recreation and ceremony","","2007/06/22 00:00:00+00","173","1200","1.5","B","44.60805556","-121.20888889","USFS","OR","31","41031","Jefferson County"
"-121.813874927","43.531939014","20088","20191","FS-1450516","FED","FS-FIRESTAT","FS","USORDEF","Deschutes National Forest","0601","Deschutes National Forest","65","2-009","DP03","0440","","","","","","2007","2007/07/10 00:00:00+00","191","0909","Human","Smoking","","2007/07/10 00:00:00+00","191","1239","0.1","A","43.53194444","-121.81388889","USFS","OR","35","41035","Klamath County"
"-103.004434425","42.697215258","20089","20192","FS-1450517","FED","FS-FIRESTAT","FS","USNENBF","Nebraska National Forest","0207","Nebraska National Forest","5","3","DE26","RED CLOUD #2","","","","","","2007","2007/05/09 00:00:00+00","129","1000","Human","Recreation and ceremony","","2007/05/09 00:00:00+00","129","1015","0.1","A","42.69722222","-103.00444444","USFS","NE","45","31045","Dawes County"
"-108.746377022","45.791382046","20090","20193","FS-1450518","FED","FS-FIRESTAT","FS","USMTCGF","Custer Gallatin National Forest","0108","Custer National Forest","29","02-07-07","DUW6","CLOUDY DAY ASSIST","","","","","","2007","2007/08/01 00:00:00+00","213","1352","Human","Missing data/not specified/undetermined","","2007/08/04 00:00:00+00","216","1800","172","D","45.79138889","-108.74638889","MISSING/NOT SPECIFIED","MT","111","30111","Yellowstone County"
"-118.196097481","44.996938561","20091","20194","FS-1450520","FED","FS-FIRESTAT","FS","USORWWF","Wallowa-Whitman National Forest","0616","Wallowa-Whitman National Forest","20","365","C66N","BEAR BUTTE","","","","","","2007","2007/07/13 00:00:00+00","194","1530","Natural","Natural","","2007/07/14 00:00:00+00","195","1244","0.1","A","44.99694444","-118.19611111","USFS","OR","1","41001","Baker County"
"-118.262764172","44.827216361","20092","20195","FS-1450521","FED","FS-FIRESTAT","FS","USORWWF","Wallowa-Whitman National Forest","0616","Wallowa-Whitman National Forest","21","368","C66N","UMPQUA GULCH","","","","","","2007","2007/07/13 00:00:00+00","194","1734","Natural","Natural","","2007/07/14 00:00:00+00","195","1532","0.25","A","44.82722222","-118.26277778","USFS","OR","1","41001","Baker County"
"-118.325541982","44.612771943","20093","20196","FS-1450522","FED","FS-FIRESTAT","FS","USORWWF","Wallowa-Whitman National Forest","0616","Wallowa-Whitman National Forest","22","387","C66N","MOSQUITO CREEK","","","","","","2007","2007/07/14 00:00:00+00","195","1455","Natural","Natural","","2007/07/15 00:00:00+00","196","1250","0.2","A","44.61277778","-118.32555556","USFS","OR","1","41001","Baker County"
"-115.79332026","44.370271722","20094","20197","FS-1450523","FED","FS-FIRESTAT","FS","USIDBOF","Boise National Forest","0402","Boise National Forest","40","582","C64Y","SILVER CREEK LOOKOUT","","","","","","2007","2007/07/17 00:00:00+00","198","1940","Natural","Natural","","2007/07/18 00:00:00+00","199","1517","0.1","A","44.37027778","-115.79333333","USFS","ID","85","16085","Valley County"
"-111.382209995","44.588882406","20095","20198","FS-1450524","FED","FS-FIRESTAT","FS","USIDCTF","Caribou-Targhee National Forest","0415","Caribou-Targhee National Forest","43","52-11","C65H","POWERLINE #1","","","","","","2007","2007/08/04 00:00:00+00","216","1619","Human","Power generation/transmission/distribution","","2007/08/04 00:00:00+00","216","1800","0.1","A","44.58888889","-111.38222222","USFS","ID","43","16043","Fremont County"
"-118.106653103","44.755827461","20096","20199","FS-1450525","FED","FS-FIRESTAT","FS","USORWWF","Wallowa-Whitman National Forest","0616","Wallowa-Whitman National Forest","23","396","C66N","DEER CREEK","","","","","","2007","2007/07/14 00:00:00+00","195","1836","Natural","Natural","","2007/07/16 00:00:00+00","197","1305","0.1","A","44.75583333","-118.10666667","USFS","OR","1","41001","Baker County"
"-123.526375165","40.446383829","20097","20200","FS-1450526","FED","FS-FIRESTAT","FS","USCASRF","Six Rivers National Forest","0510","Six Rivers National Forest","34","54-003","DUH4","MOBILE","","","","","","2007","2007/07/30 00:00:00+00","211","2115","Human","Other causes","","2007/07/31 00:00:00+00","212","0200","0.25","A","40.44638889","-123.52638889","MISSING/NOT SPECIFIED","CA","105","06105","Trinity County"
"-105.53832299","40.613882392","20098","20201","FS-1450527","FED","FS-FIRESTAT","FS","USCOARF","Arapaho and Roosevelt National Forests and Pawnee National Grassland","0210","Arapaho-Roosevelt National Forest","4","CO-ARF-033","C64D","COMMANCHE FISH","","","","","","2007","2007/06/16 00:00:00+00","167","1530","Natural","Natural","","2007/06/17 00:00:00+00","168","1300","0.7","B","40.61388889","-105.53833333","USFS","CO","69","08069","Larimer County"
"-117.978042034","44.659994126","20099","20202","FS-1450528","FED","FS-FIRESTAT","FS","USORWWF","Wallowa-Whitman National Forest","0616","Wallowa-Whitman National Forest","24","397","C66N","MASON DAM","","","","","","2007","2007/07/14 00:00:00+00","195","1844","Natural","Natural","","2007/07/15 00:00:00+00","196","1200","2.5","B","44.66","-117.97805556","USFS","OR","1","41001","Baker County"
"-109.943043496","45.414159973","20100","20203","FS-1450529","FED","FS-FIRESTAT","FS","USMTCGF","Custer Gallatin National Forest","0108","Custer National Forest","19","02-07-05","C63N","INITIAL CREEK","","","","","","2007","2007/07/19 00:00:00+00","200","0900","Natural","Natural","","2007/07/24 00:00:00+00","205","1800","16.5","C","45.41416667","-109.94305556","USFS","MT","97","30097","Sweet Grass County"
"-111.249432322","44.13304911","20101","20204","FS-1450530","FED","FS-FIRESTAT","FS","USIDCTF","Caribou-Targhee National Forest","0415","Caribou-Targhee National Forest","31","52-04","C65H","ROBINSON","","","","","","2007","2007/07/29 00:00:00+00","210","1125","Human","Recreation and ceremony","","2007/07/29 00:00:00+00","210","2000","1.5","B","44.13305556","-111.24944444","USFS","ID","43","16043","Fremont County"
"-120.200264814","38.573328153","20102","20205","FS-1450531","FED","FS-FIRESTAT","FS","USCAENF","Eldorado National Forest","0503","Eldorado National Forest","15","7","C65S","UPPER","","","","","","2007","2007/07/10 00:00:00+00","191","1730","Natural","Natural","","2007/07/10 00:00:00+00","191","2000","0.01","A","38.57333333","-120.20027778","USFS","CA","5","06005","Amador County"
"-103.863323075","42.917215295","20103","20206","FS-1450532","FED","FS-FIRESTAT","FS","USNENBF","Nebraska National Forest","0207","Nebraska National Forest","15","9","C64A","CONES","","","","","","2007","2007/07/26 00:00:00+00","207","1530","Natural","Natural","","2007/07/31 00:00:00+00","212","1530","71","C","42.91722222","-103.86333333","USFS","NE","45","31045","Dawes County"
"-120.016375937","38.709161467","20104","20207","FS-1450533","FED","FS-FIRESTAT","FS","USCAENF","Eldorado National Forest","0503","Eldorado National Forest","20","8","C65S","WOODS","","","","","","2007","2007/07/11 00:00:00+00","192","0700","Natural","Natural","","2007/07/11 00:00:00+00","192","1400","0.01","A","38.70916667","-120.01638889","USFS","CA","3","06003","Alpine County"
"-118.335264238","44.407771959","20105","20208","FS-1450534","FED","FS-FIRESTAT","FS","USORWWF","Wallowa-Whitman National Forest","0616","Wallowa-Whitman National Forest","25","448","C66N","MAMMOTH SPRING","","","","","","2007","2007/07/24 00:00:00+00","205","0914","Natural","Natural","","2007/07/24 00:00:00+00","205","1446","0.1","A","44.40777778","-118.33527778","USFS","OR","1","41001","Baker County"
"-115.944986911","44.318049521","20106","20209","FS-1450535","FED","FS-FIRESTAT","FS","USIDBOF","Boise National Forest","0402","Boise National Forest","38","578","DR50","SIX MILE","2007_ID-BOF-000642_MIDDLE FORK COMPLEX","2007_ID-BOF-000642_MIDDLE FORK COMPLEX","","","MIDDLE FORK COMPLEX","2007","2007/07/17 00:00:00+00","198","1816","Natural","Natural","","2007/07/21 00:00:00+00","202","1630","3","B","44.31805556","-115.945","USFS","ID","15","16015","Boise County"
"-118.317764243","44.396105289","20107","20210","FS-1450536","FED","FS-FIRESTAT","FS","USORWWF","Wallowa-Whitman National Forest","0616","Wallowa-Whitman National Forest","26","449","C66N","STEVENS CREEK","","","","","","2007","2007/07/24 00:00:00+00","205","1031","Natural","Natural","","2007/07/24 00:00:00+00","205","1946","0.25","A","44.39611111","-118.31777778","USFS","OR","1","41001","Baker County"
"-118.390819819","44.190271982","20108","20211","FS-1450537","FED","FS-FIRESTAT","FS","USORMAF","Malheur National Forest","0604","Malheur National Forest","46","014","C66T","OR-MAF-184","","","","","","2007","2007/07/24 00:00:00+00","205","1140","Natural","Natural","","2007/07/25 00:00:00+00","206","1545","1.4","B","44.19027778","-118.39083333","USFS","OR","23","41023","Grant County"
"-107.338045201","37.150827426","20109","20212","FS-1450538","FED","FS-FIRESTAT","FS","USCOSJF","San Juan National Forest","0213","San Juan National Forest","36","IAR 142","C63W","GALLEGOS","","","","","","2007","2007/07/05 00:00:00+00","186","1604","Natural","Natural","","2007/07/05 00:00:00+00","186","1748","0.1","A","37.15083333","-107.33805556","USFS","CO","7","08007","Archuleta County"
"-116.177209083","44.3422162","20110","20213","FS-1450539","FED","FS-FIRESTAT","FS","USIDBOF","Boise National Forest","0402","Boise National Forest","81","732","DTU0","JOES CREEK","","","","","","2007","2007/07/25 00:00:00+00","206","1910","Human","Recreation and ceremony","","2007/07/26 00:00:00+00","207","1520","0.1","A","44.34222222","-116.17722222","USFS","ID","45","16045","Gem County"
"-115.666654742","36.17499475","20111","20214","FS-1450541","FED","FS-FIRESTAT","FS","USNVHTF","Humboldt-Toiyabe National Forest","0417","Humboldt-Toiyabe National Forest","62","P4C65J","C65J","HILL","","","","","","2007","2007/07/30 00:00:00+00","211","2300","Natural","Natural","","2007/07/31 00:00:00+00","212","1500","0.1","A","36.175","-115.66666667","USFS","NV","3","32003","Clark County"
"-100.354434894","44.056659325","20112","20215","FS-1450542","FED","FS-FIRESTAT","FS","USNENBF","Nebraska National Forest","0207","Nebraska National Forest","14","2","C64A","WINTER","","","","","","2007","2007/07/22 00:00:00+00","203","1130","Natural","Natural","","2007/07/22 00:00:00+00","203","1140","0.2","A","44.05666667","-100.35444444","USFS","SD","85","46085","Lyman County"
"-115.537210311","36.225272516","20113","20216","FS-1450543","FED","FS-FIRESTAT","FS","USNVHTF","Humboldt-Toiyabe National Forest","0417","Humboldt-Toiyabe National Forest","58","P4C65J","C65J","PINION","","","","","","2007","2007/07/11 00:00:00+00","192","1200","Natural","Natural","","2007/07/11 00:00:00+00","192","1500","0.1","A","36.22527778","-115.53722222","USFS","NV","3","32003","Clark County"
"-115.739986942","44.360827268","20114","20217","FS-1450544","FED","FS-FIRESTAT","FS","USIDBOF","Boise National Forest","0402","Boise National Forest","82","742","C64Y","TRANQUIL","","","","","","2007","2007/07/26 00:00:00+00","207","1800","Natural","Natural","","2007/07/27 00:00:00+00","208","1830","0.1","A","44.36083333","-115.74","USFS","ID","85","16085","Valley County"
"-118.390264166","44.740827489","20115","20218","FS-1450545","FED","FS-FIRESTAT","FS","USORWWF","Wallowa-Whitman National Forest","0616","Wallowa-Whitman National Forest","27","452","C66N","CAMP CREEK","","","","","","2007","2007/07/24 00:00:00+00","205","1258","Natural","Natural","","2007/07/26 00:00:00+00","207","1218","0.5","B","44.74083333","-118.39027778","USFS","OR","23","41023","Grant County"
"-118.404709858","35.721383864","20116","20219","FS-1450547","FED","FS-FIRESTAT","FS","USCASQF","Sequoia National Forest","0513","Sequoia National Forest","5","02","DE8P","WOFFORD","2007_CA-BBD-920_WOFFORD","","","","","2007","2007/05/13 00:00:00+00","133","1407","Human","Power generation/transmission/distribution","","2007/05/16 00:00:00+00","136","1900","567","E","35.72138889","-118.40472222","USFS","CA","29","06029","Kern County"
"-108.455267137","37.573883","20117","20220","FS-1450548","FED","FS-FIRESTAT","FS","USCOSJF","San Juan National Forest","0213","San Juan National Forest","38","IAR 156","C63W","HOUSE CREEK","","","","","","2007","2007/07/06 00:00:00+00","187","1400","Natural","Natural","","2007/07/06 00:00:00+00","187","2000","0.1","A","37.57388889","-108.45527778","USFS","CO","83","08083","Montezuma County"
"-118.240819701","44.953327459","20118","20221","FS-1450549","FED","FS-FIRESTAT","FS","USORWWF","Wallowa-Whitman National Forest","0616","Wallowa-Whitman National Forest","29","467","C66N","SKI RUN","","","","","","2007","2007/07/26 00:00:00+00","207","1430","Natural","Natural","","2007/07/29 00:00:00+00","210","1402","0.25","A","44.95333333","-118.24083333","USFS","OR","1","41001","Baker County"
"-108.714155958","37.714994108","20119","20222","FS-1450550","FED","FS-FIRESTAT","FS","USCOSJF","San Juan National Forest","0213","San Juan National Forest","40","IAR 176","C63W","DOE","","","","","","2007","2007/07/08 00:00:00+00","189","1635","Natural","Natural","","2007/07/09 00:00:00+00","190","1200","0.1","A","37.715","-108.71416667","USFS","CO","33","08033","Dolores County"
"-118.374986395","44.70804972","20120","20223","FS-1450551","FED","FS-FIRESTAT","FS","USORWWF","Wallowa-Whitman National Forest","0616","Wallowa-Whitman National Forest","30","473","C66N","GOLDEN BOY","","","","","","2007","2007/07/26 00:00:00+00","207","1359","Natural","Natural","","2007/07/27 00:00:00+00","208","1445","0.1","A","44.70805556","-118.375","USFS","OR","1","41001","Baker County"
"-119.338320677","37.06860601","20121","20224","FS-1450552","FED","FS-FIRESTAT","FS","USCASNF","Sierra National Forest","0515","Sierra National Forest","31","12","C7LE","FAWN LILY","","","","","","2007","2007/08/04 00:00:00+00","216","0800","Human","Smoking","","2007/08/04 00:00:00+00","216","1630","0.1","A","37.06861111","-119.33833333","STATE OR PRIVATE","CA","19","06019","Fresno County"
"-107.216934082","37.412494052","20122","20225","FS-1450553","FED","FS-FIRESTAT","FS","USCOSJF","San Juan National Forest","0213","San Juan National Forest","39","IAR 182","DN6Z","SALLY'S OVERLOOK","","","","","","2007","2007/07/08 00:00:00+00","189","1430","Human","Recreation and ceremony","","2007/07/08 00:00:00+00","189","1600","0.1","A","37.4125","-107.21694444","USFS","CO","7","08007","Archuleta County"
"-117.979153149","44.635271908","20123","20226","FS-1450554","FED","FS-FIRESTAT","FS","USORWWF","Wallowa-Whitman National Forest","0616","Wallowa-Whitman National Forest","28","454","C66N","BLACK SHEEP","","","","","","2007","2007/07/24 00:00:00+00","205","1410","Natural","Natural","","2007/07/25 00:00:00+00","206","1414","0.1","A","44.63527778","-117.97916667","USFS","OR","1","41001","Baker County"
"-118.338875313","44.592771946","20124","20227","FS-1450555","FED","FS-FIRESTAT","FS","USORMAF","Malheur National Forest","0604","Malheur National Forest","28","BM014","C66T","OR-MAF-116","","","","","","2007","2007/07/13 00:00:00+00","194","1500","Natural","Natural","","2007/07/14 00:00:00+00","195","1240","0.25","A","44.59277778","-118.33888889","USFS","OR","23","41023","Grant County"
"-115.368041625","48.83082688","20125","20228","FS-1450557","FED","FS-FIRESTAT","FS","USMTKNF","Kootenai National Forest","0114","Kootenai National Forest","71","14","C63S","THIRSTY","","","","","","2007","2007/07/19 00:00:00+00","200","1055","Natural","Natural","","2007/07/20 00:00:00+00","201","1124","0.1","A","48.83083333","-115.36805556","USFS","MT","53","30053","Lincoln County"
"-107.372489622","37.275271861","20126","20229","FS-1450558","FED","FS-FIRESTAT","FS","USCOSJF","San Juan National Forest","0213","San Juan National Forest","41","038","C63W","DRY LAKE","","","","","","2007","2007/07/09 00:00:00+00","190","1400","Natural","Natural","","2007/07/10 00:00:00+00","191","1400","0.1","A","37.27527778","-107.3725","USFS","CO","7","08007","Archuleta County"
"-111.377209998","44.577215737","20127","20230","FS-1450559","FED","FS-FIRESTAT","FS","USIDCTF","Caribou-Targhee National Forest","0415","Caribou-Targhee National Forest","36","52-05","C65H","JACK","","","","","","2007","2007/08/02 00:00:00+00","214","1130","Human","Missing data/not specified/undetermined","","2007/08/02 00:00:00+00","214","1245","0.1","A","44.57722222","-111.37722222","USFS","ID","43","16043","Fremont County"
"-114.928319571","48.467493529","20128","20231","FS-1450561","FED","FS-FIRESTAT","FS","USMTKNF","Kootenai National Forest","0114","Kootenai National Forest","67","06","C63S","UPPER ELK","","","","","","2007","2007/07/19 00:00:00+00","200","0700","Natural","Natural","","2007/07/21 00:00:00+00","202","1530","0.1","A","48.4675","-114.92833333","USFS","MT","53","30053","Lincoln County"
"-118.354708636","44.613883056","20129","20232","FS-1450562","FED","FS-FIRESTAT","FS","USORMAF","Malheur National Forest","0604","Malheur National Forest","29","BM015","C66T","OR-MAF-117","","","","","","2007","2007/07/13 00:00:00+00","194","1505","Natural","Natural","","2007/07/14 00:00:00+00","195","1215","0.1","A","44.61388889","-118.35472222","USFS","OR","23","41023","Grant County"
"-121.622763785","43.876661203","20130","20233","FS-1450563","FED","FS-FIRESTAT","FS","USORDEF","Deschutes National Forest","0601","Deschutes National Forest","47","1-027","C66Q","0259","","","","","","2007","2007/06/03 00:00:00+00","154","1412","Natural","Natural","","2007/06/03 00:00:00+00","154","1830","0.3","B","43.87666667","-121.62277778","USFS","OR","17","41017","Deschutes County"
"-111.23582135","43.318882523","20131","20234","FS-1450564","FED","FS-FIRESTAT","FS","USIDCTF","Caribou-Targhee National Forest","0415","Caribou-Targhee National Forest","27","54-05","C65H","TAG ALDER 2","","","","","","2007","2007/07/25 00:00:00+00","206","0800","Natural","Natural","","2007/07/25 00:00:00+00","206","1615","0.1","A","43.31888889","-111.23583333","USFS","ID","19","16019","Bonneville County"
"-115.483597174","48.738326899","20132","20235","FS-1450565","FED","FS-FIRESTAT","FS","USMTKNF","Kootenai National Forest","0114","Kootenai National Forest","72","16","C63S","COPELAND CREEK","","","","","","2007","2007/07/19 00:00:00+00","200","1248","Natural","Natural","","2007/07/19 00:00:00+00","200","2000","0.25","A","48.73833333","-115.48361111","USFS","MT","53","30053","Lincoln County"
"-104.033600618","44.215548486","20133","20236","FS-1450566","FED","FS-FIRESTAT","FS","USSDBKF","Black Hills National Forest","0203","Black Hills National Forest","67","NH-07-06","C63Y","RIFLE PIT","","","","","","2007","2007/08/01 00:00:00+00","213","1430","Natural","Natural","","2007/08/01 00:00:00+00","213","1515","0.1","A","44.21555556","-104.03361111","USFS","SD","81","46081","Lawrence County"
"-121.457763794","43.971661181","20134","20237","FS-1450567","FED","FS-FIRESTAT","FS","USORDEF","Deschutes National Forest","0601","Deschutes National Forest","77","1-046","DQ1A","0544","","","","","","2007","2007/07/15 00:00:00+00","196","0706","Human","Recreation and ceremony","","2007/07/15 00:00:00+00","196","1945","2.2","B","43.97166667","-121.45777778","USFS","OR","17","41017","Deschutes County"
"-121.584708714","40.951105848","20135","20238","FS-1450568","FED","FS-FIRESTAT","FS","USCALNF","Lassen National Forest","0506","Lassen National Forest","35","018","C65V","89","","","","","","2007","2007/08/05 00:00:00+00","217","2130","Human","Missing data/not specified/undetermined","","2007/08/05 00:00:00+00","217","2200","0.1","A","40.95111111","-121.58472222","USFS","CA","89","06089","Shasta County"
"-120.322208343","44.379438813","20136","20239","FS-1450569","FED","FS-FIRESTAT","FS","USOROCF","Ochoco National Forest","0607","Ochoco National Forest","18","1-010","C66H","0500","","","","","","2007","2007/07/13 00:00:00+00","194","0744","Natural","Natural","","2007/07/14 00:00:00+00","195","1209","0.1","A","44.37944444","-120.32222222","USFS","OR","13","41013","Crook County"
"-117.254153224","44.928327365","20137","20240","FS-1450570","FED","FS-FIRESTAT","FS","USORWWF","Wallowa-Whitman National Forest","0616","Wallowa-Whitman National Forest","4","228","C66N","FIZZ SPRINGS","","","","","","2007","2007/06/20 00:00:00+00","171","1817","Natural","Natural","","2007/06/21 00:00:00+00","172","1240","0.1","A","44.92833333","-117.25416667","USFS","OR","1","41001","Baker County"
"-120.216652799","44.441938798","20138","20241","FS-1450571","FED","FS-FIRESTAT","FS","USOROCF","Ochoco National Forest","0607","Ochoco National Forest","21","1-012","C66H","0507","","","","","","2007","2007/07/13 00:00:00+00","194","0930","Natural","Natural","","2007/07/13 00:00:00+00","194","0940","0.1","A","44.44194444","-120.21666667","USFS","OR","69","41069","Wheeler County"
"-117.292764317","44.983605145","20139","20242","FS-1450572","FED","FS-FIRESTAT","FS","USORWWF","Wallowa-Whitman National Forest","0616","Wallowa-Whitman National Forest","31","333","C66N","LOST CABIN CREEK","","","","","","2007","2007/07/07 00:00:00+00","188","1823","Natural","Natural","","2007/07/08 00:00:00+00","189","1652","0.1","A","44.98361111","-117.29277778","USFS","OR","1","41001","Baker County"
"-117.137208767","45.079994012","20140","20243","FS-1450574","FED","FS-FIRESTAT","FS","USORWWF","Wallowa-Whitman National Forest","0616","Wallowa-Whitman National Forest","32","373","C66N","SUGAR LOAF","","","","","","2007","2007/07/13 00:00:00+00","194","1839","Natural","Natural","","2007/07/16 00:00:00+00","197","1400","0.5","B","45.08","-117.13722222","USFS","OR","1","41001","Baker County"
"-118.234708591","44.960827458","20141","20244","FS-1450575","FED","FS-FIRESTAT","FS","USORWWF","Wallowa-Whitman National Forest","0616","Wallowa-Whitman National Forest","33","509","C66N","BOW SHOOT","","","","","","2007","2007/07/31 00:00:00+00","212","1245","Human","Missing data/not specified/undetermined","","2007/07/31 00:00:00+00","212","1851","0.1","A","44.96083333","-118.23472222","USFS","OR","1","41001","Baker County"
"-111.344710004","44.580549074","20142","20245","FS-1450576","FED","FS-FIRESTAT","FS","USIDCTF","Caribou-Targhee National Forest","0415","Caribou-Targhee National Forest","48","52-13","DM1P","BOOT","","","","","","2007","2007/07/05 00:00:00+00","186","1100","Human","Missing data/not specified/undetermined","","2007/07/05 00:00:00+00","186","1245","0.1","A","44.58055556","-111.34472222","STATE OR PRIVATE","ID","43","16043","Fremont County"
"-111.393321127","44.450271311","20143","20246","FS-1450577","FED","FS-FIRESTAT","FS","USIDCTF","Caribou-Targhee National Forest","0415","Caribou-Targhee National Forest","49","52-14","DM31","BUTTERMILK","","","","","","2007","2007/07/05 00:00:00+00","186","1417","Human","Misuse of fire by a minor","Minor","2007/07/05 00:00:00+00","186","1600","0.5","B","44.45027778","-111.39333333","STATE OR PRIVATE","ID","43","16043","Fremont County"
"-106.644433818","40.844715773","20144","20247","FS-1450578","FED","FS-FIRESTAT","FS","USWYMRF","Medicine Bow-Routt National Forests, Thunder Basin National Grassland","0211","Routt National Forest","488","CO-RTF-488","C64H","FRYING PAN BASIN","","","","","","2007","2007/08/03 00:00:00+00","215","1030","Natural","Natural","","2007/08/03 00:00:00+00","215","1800","0.1","A","40.84472222","-106.64444444","USFS","CO","57","08057","Jackson County"
"-111.479154458","44.395826874","20145","20248","FS-1450579","FED","FS-FIRESTAT","FS","USIDCTF","Caribou-Targhee National Forest","0415","Caribou-Targhee National Forest","12","52-02","C65H","THURMON","","","","","","2007","2007/07/07 00:00:00+00","188","1149","Natural","Natural","","2007/07/07 00:00:00+00","188","1900","0.1","A","44.39583333","-111.47916667","USFS","ID","43","16043","Fremont County"
"-86.961105114","45.854713681","20146","20249","FS-1450580","FED","FS-FIRESTAT","FS","USMIHIF","Hiawatha National Forest","0910","Hiawatha National Forest","12","MI-HIF-023","DVF5","EAST POINT","","","","","","2007","2007/08/06 00:00:00+00","218","1604","Human","Missing data/not specified/undetermined","","2007/08/09 00:00:00+00","221","0825","3","B","45.85472222","-86.96111111","USFS","MI","41","26041","Delta County"
"-120.346098156","38.284439299","20147","20250","FS-1450581","FED","FS-FIRESTAT","FS","USCASTF","Stanislaus National Forest","0516","Stanislaus National Forest","3","1","DFR4","SUMMIT","","","","","","2007","2007/05/17 00:00:00+00","137","1102","Human","Recreation and ceremony","","2007/05/17 00:00:00+00","137","1517","0.1","A","38.28444444","-120.34611111","USFS","CA","9","06009","Calaveras County"
"-86.774438466","46.138046966","20148","20251","FS-1450582","FED","FS-FIRESTAT","FS","USMIHIF","Hiawatha National Forest","0910","Hiawatha National Forest","13","mi-hif 023","C67R","POLE FIRE","","","","","","2007","2007/08/05 00:00:00+00","217","1030","Human","Fireworks","","2007/08/05 00:00:00+00","217","1500","3","B","46.13805556","-86.77444444","USFS","MI","41","26041","Delta County"
"-118.116375305","44.843049685","20149","20252","FS-1450584","FED","FS-FIRESTAT","FS","USORWWF","Wallowa-Whitman National Forest","0616","Wallowa-Whitman National Forest","34","542","C66N","COUGAR","","","","","","2007","2007/08/05 00:00:00+00","217","1941","Natural","Natural","","2007/08/07 00:00:00+00","219","0923","0.1","A","44.84305556","-118.11638889","USFS","OR","1","41001","Baker County"
"-107.329711856","37.221382976","20150","20253","FS-1450585","FED","FS-FIRESTAT","FS","USCOSJF","San Juan National Forest","0213","San Juan National Forest","42","IAR 189","C63W","DEVIL","","","","","","2007","2007/07/09 00:00:00+00","190","1502","Natural","Natural","","2007/07/10 00:00:00+00","191","1300","1","B","37.22138889","-107.32972222","USFS","CO","7","08007","Archuleta County"
"-114.935819568","48.47443797","20151","20254","FS-1450586","FED","FS-FIRESTAT","FS","USMTKNF","Kootenai National Forest","0114","Kootenai National Forest","68","07","C63S","LOWER ELK","","","","","","2007","2007/07/19 00:00:00+00","200","0850","Natural","Natural","","2007/07/19 00:00:00+00","200","1100","0.1","A","48.47444444","-114.93583333","USFS","MT","53","30053","Lincoln County"
"-118.421375316","44.499160851","20152","20255","FS-1450587","FED","FS-FIRESTAT","FS","USORMAF","Malheur National Forest","0604","Malheur National Forest","49","016","C66T","OR-MAF-192","","","","","","2007","2007/07/26 00:00:00+00","207","1447","Natural","Natural","","2007/07/26 00:00:00+00","207","1900","0.1","A","44.49916667","-118.42138889","USFS","OR","23","41023","Grant County"
"-118.379986411","44.619716388","20153","20256","FS-1450588","FED","FS-FIRESTAT","FS","USORMAF","Malheur National Forest","0604","Malheur National Forest","34","BM019","C66T","OR-MAF-148","","","","","","2007","2007/07/15 00:00:00+00","196","0753","Natural","Natural","","2007/07/16 00:00:00+00","197","1456","0.75","B","44.61972222","-118.38","USFS","OR","23","41023","Grant County"
"-120.129709278","38.475272606","20154","20257","FS-1450589","FED","FS-FIRESTAT","FS","USCASTF","Stanislaus National Forest","0516","Stanislaus National Forest","20","6","C65M","MATTLEY","","","","","","2007","2007/07/11 00:00:00+00","192","1036","Natural","Natural","","2007/07/11 00:00:00+00","192","1701","0.2","A","38.47527778","-120.12972222","USFS","CA","9","06009","Calaveras County"
"-119.216653902","38.266939218","20155","20258","FS-1450590","FED","FS-FIRESTAT","FS","USNVHTF","Humboldt-Toiyabe National Forest","0417","Humboldt-Toiyabe National Forest","50","D2-09-2007","C665","PARADISE","","","","","","2007","2007/07/15 00:00:00+00","196","1800","Natural","Natural","","2007/07/15 00:00:00+00","196","1815","0.1","A","38.26694444","-119.21666667","STATE OR PRIVATE","CA","51","06051","Mono County"
"-107.383600735","37.211938531","20156","20259","FS-1450591","FED","FS-FIRESTAT","FS","USCOSJF","San Juan National Forest","0213","San Juan National Forest","44","IAR 192","C63W","FOSSETT GULCH","","","","","","2007","2007/07/09 00:00:00+00","190","2000","Natural","Natural","","2007/07/11 00:00:00+00","192","1115","0.5","B","37.21194444","-107.38361111","USFS","CO","7","08007","Archuleta County"
"-115.059430611","48.64888242","20157","20260","FS-1450592","FED","FS-FIRESTAT","FS","USMTKNF","Kootenai National Forest","0114","Kootenai National Forest","69","08","C63S","CAYUSE HUCKLEBERRY","","","","","","2007","2007/07/19 00:00:00+00","200","1138","Natural","Natural","","2007/07/19 00:00:00+00","200","1530","0.1","A","48.64888889","-115.05944444","USFS","MT","53","30053","Lincoln County"
"-107.818322834","37.480271861","20158","20261","FS-1450594","FED","FS-FIRESTAT","FS","USCOSJF","San Juan National Forest","0213","San Juan National Forest","46","IAR  197","C63W","ENGLISH","","","","","","2007","2007/07/13 00:00:00+00","194","1530","Natural","Natural","","","","","0.1","A","37.48027778","-107.81833333","USFS","CO","67","08067","La Plata County"
"-118.262764152","44.929160803","20159","20262","FS-1450595","FED","FS-FIRESTAT","FS","USORWWF","Wallowa-Whitman National Forest","0616","Wallowa-Whitman National Forest","35","554","C66N","CRAWFISH","","","","","","2007","2007/08/06 00:00:00+00","218","1618","Natural","Natural","","2007/08/07 00:00:00+00","219","1004","0.1","A","44.92916667","-118.26277778","USFS","OR","1","41001","Baker County"
"-120.554430515","44.426383282","20160","20263","FS-1450596","FED","FS-FIRESTAT","FS","USOROCF","Ochoco National Forest","0607","Ochoco National Forest","12","1-009","C66H","0264","","","","","","2007","2007/06/03 00:00:00+00","154","1507","Natural","Natural","","2007/06/04 00:00:00+00","155","0730","0.1","A","44.42638889","-120.55444444","USFS","OR","17","41017","Deschutes County"
"-119.803598241","38.305272597","20161","20264","FS-1450597","FED","FS-FIRESTAT","FS","USCASTF","Stanislaus National Forest","0516","Stanislaus National Forest","31","10","C65M","RHODES","","","","","","2007","2007/07/25 00:00:00+00","206","1030","Natural","Natural","","2007/07/25 00:00:00+00","206","1527","0.1","A","38.30527778","-119.80361111","USFS","CA","9","06009","Calaveras County"
"-109.308600625","33.764994694","20162","20265","FS-1450598","FED","FS-FIRESTAT","FS","USAZASF","Apache-Sitgreaves National Forest","0301","Apache-Sitgreaves National Forest","32","04","C64R","JOHNS CANYON","","","","","","2007","2007/05/24 00:00:00+00","144","1000","Natural","Natural","","2007/05/24 00:00:00+00","144","1550","26","C","33.765","-109.30861111","USFS","AZ","11","04011","Greenlee County"
"-111.1835991","43.573604712","20163","20266","FS-1450599","FED","FS-FIRESTAT","FS","USIDCTF","Caribou-Targhee National Forest","0415","Caribou-Targhee National Forest","37","56-03","C65H","PINE CREEK","","","","","","2007","2007/08/03 00:00:00+00","215","1730","Human","Equipment and vehicle use","","2007/08/03 00:00:00+00","215","1745","0.1","A","43.57361111","-111.18361111","USFS","ID","81","16081","Teton County"
"-107.195545222","37.253327403","20164","20267","FS-1450600","FED","FS-FIRESTAT","FS","USCOSJF","San Juan National Forest","0213","San Juan National Forest","47","IAR 214","C63W","SNOW","","","","","","2007","2007/07/17 00:00:00+00","198","1749","Natural","Natural","","2007/07/18 00:00:00+00","199","1200","0.1","A","37.25333333","-107.19555556","USFS","CO","7","08007","Archuleta County"
"-109.250545076","33.90999467","20165","20268","FS-1450602","FED","FS-FIRESTAT","FS","USAZASF","Apache-Sitgreaves National Forest","0301","Apache-Sitgreaves National Forest","59","09","C64R","COLTER","","","","","","2007","2007/06/28 00:00:00+00","179","1450","Natural","Natural","","2007/06/28 00:00:00+00","179","1745","0.1","A","33.91","-109.25055556","USFS","AZ","1","04001","Apache County"
"-107.305267423","37.204438527","20166","20269","FS-1450607","FED","FS-FIRESTAT","FS","USCOSJF","San Juan National Forest","0213","San Juan National Forest","48","IAR 216","C63W","PUKSTA","","","","","","2007","2007/07/17 00:00:00+00","198","2200","Natural","Natural","","2007/07/18 00:00:00+00","199","1305","0.1","A","37.20444444","-107.30527778","USFS","CO","7","08007","Archuleta County"
"-121.418597115","44.053605611","20167","20270","FS-1450609","FED","FS-FIRESTAT","FS","USORDEF","Deschutes National Forest","0601","Deschutes National Forest","81","1-049","DT23","0583","","","","","","2007","2007/07/27 00:00:00+00","208","1308","Human","Recreation and ceremony","","2007/07/27 00:00:00+00","208","1350","0.1","A","44.05361111","-121.41861111","USFS","OR","17","41017","Deschutes County"
"-107.834711732","37.367494098","20168","20271","FS-1450611","FED","FS-FIRESTAT","FS","USCOSJF","San Juan National Forest","0213","San Juan National Forest","52","IAR 239","C63W","HAFLIN","","","","","","2007","2007/07/22 00:00:00+00","203","0900","Natural","Natural","","2007/07/22 00:00:00+00","203","1600","0.1","A","37.3675","-107.83472222","USFS","CO","67","08067","La Plata County"
"-107.864433765","39.048882764","20169","20272","FS-1450612","FED","FS-FIRESTAT","FS","USCOGMF","Grand Mesa, Uncompahgre and Gunnison National Forests","0204","Grand Mesa, Uncompahgre and Gunnison National Forests","26","","DV58","132","","","","","","2007","2007/08/11 00:00:00+00","223","1400","Human","Recreation and ceremony","","2007/08/11 00:00:00+00","223","1725","0.1","A","39.04888889","-107.86444444","USFS","CO","29","08029","Delta County"
"-107.452211828","37.239438531","20170","20273","FS-1450613","FED","FS-FIRESTAT","FS","USCOSJF","San Juan National Forest","0213","San Juan National Forest","57","IAR 246","C63W","VANCE","","","","","","2007","2007/07/24 00:00:00+00","205","1405","Natural","Natural","","2007/07/24 00:00:00+00","205","1850","0.1","A","37.23944444","-107.45222222","USFS","CO","7","08007","Archuleta County"
"-114.942764016","48.47582686","20171","20274","FS-1450614","FED","FS-FIRESTAT","FS","USMTKNF","Kootenai National Forest","0114","Kootenai National Forest","78","09","C63S","WAPATI TOP","","","","","","2007","2007/07/19 00:00:00+00","200","1730","Natural","Natural","","2007/07/19 00:00:00+00","200","2005","0.1","A","48.47583333","-114.94277778","USFS","MT","53","30053","Lincoln County"
"-118.6769308","44.609438637","20172","20275","FS-1450615","FED","FS-FIRESTAT","FS","USORMAF","Malheur National Forest","0604","Malheur National Forest","37","BM021","C66T","OR-MAF-159","","","","","","2007","2007/07/18 00:00:00+00","199","0909","Natural","Natural","","2007/07/18 00:00:00+00","199","1400","0.1","A","44.60944444","-118.67694444","USFS","OR","23","41023","Grant County"
"-108.68415634","33.423883602","20173","20276","FS-1450616","FED","FS-FIRESTAT","FS","USNMGNF","Gila National Forest","0306","Gila National Forest","101","11","C64K","PARK","","","","","","2007","2007/07/08 00:00:00+00","189","1307","Natural","Natural","","2007/07/10 00:00:00+00","191","1400","2.25","B","33.42388889","-108.68416667","USFS","NM","3","35003","Catron County"
"-119.184987233","38.300828102","20174","20277","FS-1450617","FED","FS-FIRESTAT","FS","USNVHTF","Humboldt-Toiyabe National Forest","0417","Humboldt-Toiyabe National Forest","51","D2-10-2007","C65J","OLD MASONIC","","","","","","2007","2007/07/15 00:00:00+00","196","1755","Natural","Natural","","2007/07/15 00:00:00+00","196","1900","0.1","A","38.30083333","-119.185","OTHER FEDERAL","CA","51","06051","Mono County"
"-107.488878471","37.423605178","20175","20278","FS-1450618","FED","FS-FIRESTAT","FS","USCOSJF","San Juan National Forest","0213","San Juan National Forest","61","IAR  254","C63W","TEELAWUKET","","","","","","2007","2007/07/26 00:00:00+00","207","0800","Natural","Natural","","2007/07/26 00:00:00+00","207","1715","0.1","A","37.42361111","-107.48888889","USFS","CO","67","08067","La Plata County"
"-119.173320569","38.268050334","20176","20279","FS-1450620","FED","FS-FIRESTAT","FS","USNVHTF","Humboldt-Toiyabe National Forest","0417","Humboldt-Toiyabe National Forest","52","D2-12-2007","C65J","AURORA","","","","","","2007","2007/07/15 00:00:00+00","196","1930","Natural","Natural","","2007/07/16 00:00:00+00","197","1000","0.1","A","38.26805556","-119.17333333","USFS","CA","51","06051","Mono County"
"-103.053323218","43.291104074","20177","20280","FS-1450621","FED","FS-FIRESTAT","FS","USNENBF","Nebraska National Forest","0207","Nebraska National Forest","17","04","C64A","DOG TOWN","","","","","","2007","2007/08/07 00:00:00+00","219","1405","Natural","Natural","","2007/08/07 00:00:00+00","219","1600","7.6","B","43.29111111","-103.05333333","USFS","SD","47","46047","Fall River County"
"-110.166655972","34.241105781","20178","20281","FS-1450622","FED","FS-FIRESTAT","FS","USAZASF","Apache-Sitgreaves National Forest","0301","Apache-Sitgreaves National Forest","165","27","C64R","BLAM","","","","","","2007","2007/07/16 00:00:00+00","197","1530","Natural","Natural","","2007/07/17 00:00:00+00","198","1400","0.1","A","34.24111111","-110.16666667","USFS","AZ","17","04017","Navajo County"
"-119.321931665","38.176105904","20179","20282","FS-1450623","FED","FS-FIRESTAT","FS","USNVHTF","Humboldt-Toiyabe National Forest","0417","Humboldt-Toiyabe National Forest","53","D2-14-2007","DS9R","CRAIG","","","","","","2007","2007/07/24 00:00:00+00","205","1300","Human","Recreation and ceremony","","2007/07/24 00:00:00+00","205","1345","0.1","A","38.17611111","-119.32194444","USFS","CA","51","06051","Mono County"
"-109.290545074","33.822216905","20180","20283","FS-1450624","FED","FS-FIRESTAT","FS","USAZASF","Apache-Sitgreaves National Forest","0301","Apache-Sitgreaves National Forest","60","10","C64R","COYOTE","","","","","","2007","2007/06/28 00:00:00+00","179","1530","Natural","Natural","","2007/06/28 00:00:00+00","179","1741","0.1","A","33.82222222","-109.29055556","USFS","AZ","1","04001","Apache County"
"-121.382208238","44.010550061","20181","20284","FS-1450625","FED","FS-FIRESTAT","FS","USORDEF","Deschutes National Forest","0601","Deschutes National Forest","79","1-048","DTY9","0579","","","","","","2007","2007/07/26 00:00:00+00","207","0655","Human","Recreation and ceremony","","2007/07/26 00:00:00+00","207","1235","0.1","A","44.01055556","-121.38222222","USFS","OR","17","41017","Deschutes County"
"-109.122211784","33.619161375","20182","20285","FS-1450626","FED","FS-FIRESTAT","FS","USAZASF","Apache-Sitgreaves National Forest","0301","Apache-Sitgreaves National Forest","61","11","C64R","FOOTE","","","","","","2007","2007/06/28 00:00:00+00","179","1610","Natural","Natural","","2007/06/28 00:00:00+00","179","1900","0.1","A","33.61916667","-109.12222222","USFS","AZ","11","04011","Greenlee County"
"-114.758041728","48.909715699","20183","20286","FS-1450627","FED","FS-FIRESTAT","FS","USMTKNF","Kootenai National Forest","0114","Kootenai National Forest","88","11","C63S","MOTHER OF REST","","","","","","2007","2007/07/19 00:00:00+00","200","1700","Natural","Natural","","2007/07/20 00:00:00+00","201","1700","0.1","A","48.90972222","-114.75805556","USFS","MT","53","30053","Lincoln County"
"-109.341656172","33.846661354","20184","20287","FS-1450628","FED","FS-FIRESTAT","FS","USAZASF","Apache-Sitgreaves National Forest","0301","Apache-Sitgreaves National Forest","66","12","C64R","DRAW","","","","","","2007","2007/06/29 00:00:00+00","180","0930","Natural","Natural","","2007/06/29 00:00:00+00","180","1228","0.2","A","33.84666667","-109.34166667","USFS","AZ","1","04001","Apache County"
"-110.861098807","45.622493367","20185","20288","FS-1450629","FED","FS-FIRESTAT","FS","USMTCGF","Custer Gallatin National Forest","0111","Gallatin National Forest","13","007","C63L","MEADOW","","","","","","2007","2007/07/07 00:00:00+00","188","1700","Human","Debris and open burning","","2007/07/07 00:00:00+00","188","2030","0.1","A","45.6225","-110.86111111","STATE OR PRIVATE","MT","31","30031","Gallatin County"
"-109.44471172","33.577494728","20186","20289","FS-1450630","FED","FS-FIRESTAT","FS","USAZASF","Apache-Sitgreaves National Forest","0301","Apache-Sitgreaves National Forest","69","13","C64R","BALDY BILL","","","","","","2007","2007/06/28 00:00:00+00","179","1900","Natural","Natural","","2007/06/29 00:00:00+00","180","0900","1","B","33.5775","-109.44472222","USFS","AZ","1","04001","Apache County"
"-114.929986382","47.866382464","20187","20290","FS-1450631","FED","FS-FIRESTAT","FS","USMTLNF","Lolo National Forest","0116","Lolo National Forest","125","026","C63U","CHIPPY ROCK","","","","","","2007","2007/07/23 00:00:00+00","204","1940","Natural","Natural","","2007/07/24 00:00:00+00","205","1720","1.2","B","47.86638889","-114.93","USFS","MT","89","30089","Sanders County"
"-115.293597461","47.686104736","20188","20291","FS-1450632","FED","FS-FIRESTAT","FS","USMTLNF","Lolo National Forest","0116","Lolo National Forest","137","027","611","CUBE IRON MOUNTAIN","","","","","","2007","2007/07/26 00:00:00+00","207","1717","Natural","Natural","","2007/07/28 00:00:00+00","209","0916","0.5","B","47.68611111","-115.29361111","USFS","MT","89","30089","Sanders County"
"-121.403597118","44.04693894","20189","20292","FS-1450633","FED","FS-FIRESTAT","FS","USORDEF","Deschutes National Forest","0601","Deschutes National Forest","84","1-052","DT8D","0592","","","","","","2007","2007/07/29 00:00:00+00","210","1315","Human","Recreation and ceremony","","2007/07/29 00:00:00+00","210","1405","0.1","A","44.04694444","-121.40361111","USFS","OR","17","41017","Deschutes County"
"-115.275541908","47.713326952","20190","20293","FS-1450634","FED","FS-FIRESTAT","FS","USMTLNF","Lolo National Forest","0116","Lolo National Forest","138","028","C63U","PORKY CABIN","","","","","","2007","2007/07/26 00:00:00+00","207","1740","Natural","Natural","","2007/07/27 00:00:00+00","208","1500","0.1","A","47.71333333","-115.27555556","USFS","MT","89","30089","Sanders County"
"-121.704430448","43.787772327","20191","20294","FS-1450635","FED","FS-FIRESTAT","FS","USORDEF","Deschutes National Forest","0601","Deschutes National Forest","25","1-016","C66Q","0197","","","","","","2007","2007/06/01 00:00:00+00","152","1518","Natural","Natural","","2007/06/01 00:00:00+00","152","2000","0.1","A","43.78777778","-121.70444444","USFS","OR","17","41017","Deschutes County"
"-121.421930456","43.986938946","20192","20295","FS-1450640","FED","FS-FIRESTAT","FS","USORDEF","Deschutes National Forest","0601","Deschutes National Forest","67","1-040","DPZ6","0447","","","","","","2007","2007/07/10 00:00:00+00","191","1734","Human","Recreation and ceremony","","2007/07/10 00:00:00+00","191","1753","0.1","A","43.98694444","-121.42194444","USFS","OR","17","41017","Deschutes County"
"-121.052763932","43.56832783","20193","20296","FS-1450641","FED","FS-FIRESTAT","FS","USORDEF","Deschutes National Forest","0601","Deschutes National Forest","16","1-011","C66Q","0124","","","","","","2007","2007/05/11 00:00:00+00","131","0745","Natural","Natural","","2007/05/11 00:00:00+00","131","0803","0.1","A","43.56833333","-121.05277778","USFS","OR","37","41037","Lake County"
"-121.420819347","43.986938946","20194","20297","FS-1450642","FED","FS-FIRESTAT","FS","USORDEF","Deschutes National Forest","0601","Deschutes National Forest","69","1-043","DQV6","0536","","","","","","2007","2007/07/14 00:00:00+00","195","1048","Human","Recreation and ceremony","","2007/07/14 00:00:00+00","195","1114","0.1","A","43.98694444","-121.42083333","USFS","OR","17","41017","Deschutes County"
"-120.897208366","43.742494473","20195","20298","FS-1450643","FED","FS-FIRESTAT","FS","USORDEF","Deschutes National Forest","0601","Deschutes National Forest","61","1-036","C66Q","0397","","","","","","2007","2007/07/06 00:00:00+00","187","1720","Natural","Natural","","2007/07/07 00:00:00+00","188","1341","0.7","B","43.7425","-120.89722222","USFS","OR","17","41017","Deschutes County"
"-120.226930604","44.243327703","20196","20299","FS-1450644","FED","FS-FIRESTAT","FS","USOROCF","Ochoco National Forest","0607","Ochoco National Forest","20","1-011","C66H","0505","","","","","","2007","2007/07/13 00:00:00+00","194","0836","Natural","Natural","","2007/07/13 00:00:00+00","194","1400","0.1","A","44.24333333","-120.22694444","USFS","OR","13","41013","Crook County"
"-121.404986011","44.029716722","20197","20300","FS-1450646","FED","FS-FIRESTAT","FS","USORDEF","Deschutes National Forest","0601","Deschutes National Forest","75","1-044","DTW8","0578","","","","","","2007","2007/07/25 00:00:00+00","206","1918","Human","Debris and open burning","","2007/07/25 00:00:00+00","206","2040","0.1","A","44.02972222","-121.405","USFS","OR","17","41017","Deschutes County"
"-109.392767288","33.621383609","20198","20301","FS-1450647","FED","FS-FIRESTAT","FS","USAZASF","Apache-Sitgreaves National Forest","0301","Apache-Sitgreaves National Forest","73","14","C64R","SLAUGHTER","","","","","","2007","2007/06/29 00:00:00+00","180","0700","Natural","Natural","","2007/06/29 00:00:00+00","180","1500","0.1","A","33.62138889","-109.39277778","USFS","AZ","11","04011","Greenlee County"
"-109.310545079","33.698050264","20199","20302","FS-1450648","FED","FS-FIRESTAT","FS","USAZASF","Apache-Sitgreaves National Forest","0301","Apache-Sitgreaves National Forest","74","15","C64R","HORTON","","","","","","2007","2007/06/29 00:00:00+00","180","0730","Natural","Natural","","2007/06/29 00:00:00+00","180","1440","0.3","B","33.69805556","-109.31055556","USFS","AZ","11","04011","Greenlee County"
"-109.339989508","33.763883586","20200","20303","FS-1450649","FED","FS-FIRESTAT","FS","USAZASF","Apache-Sitgreaves National Forest","0301","Apache-Sitgreaves National Forest","75","16","C64R","SPRUCEDALE","","","","","","2007","2007/06/29 00:00:00+00","180","0830","Natural","Natural","","2007/06/29 00:00:00+00","180","1530","0.1","A","33.76388889","-109.34","USFS","AZ","11","04011","Greenlee County"
"-121.251930573","43.493327854","20201","20304","FS-1450650","FED","FS-FIRESTAT","FS","USORDEF","Deschutes National Forest","0601","Deschutes National Forest","15","1-010","C66Q","0123","","","","","","2007","2007/05/10 00:00:00+00","130","1430","Natural","Natural","","2007/05/12 00:00:00+00","132","1425","6.2","B","43.49333333","-121.25194444","USFS","OR","17","41017","Deschutes County"
"-109.239156212","33.589994716","20202","20305","FS-1450651","FED","FS-FIRESTAT","FS","USAZASF","Apache-Sitgreaves National Forest","0301","Apache-Sitgreaves National Forest","76","17","C64R","MUD SPRINGS","","","","","","2007","2007/06/29 00:00:00+00","180","0930","Natural","Natural","","2007/08/06 00:00:00+00","218","1500","0.1","A","33.59","-109.23916667","USFS","AZ","11","04011","Greenlee County"
"-109.256378405","33.897216892","20203","20306","FS-1450652","FED","FS-FIRESTAT","FS","USAZASF","Apache-Sitgreaves National Forest","0301","Apache-Sitgreaves National Forest","77","18","C64R","WILLIAMS","","","","","","2007","2007/06/29 00:00:00+00","180","1030","Natural","Natural","","2007/07/01 00:00:00+00","182","0910","0.25","A","33.89722222","-109.25638889","USFS","AZ","1","04001","Apache County"
"-109.274156188","33.819716904","20204","20307","FS-1450653","FED","FS-FIRESTAT","FS","USAZASF","Apache-Sitgreaves National Forest","0301","Apache-Sitgreaves National Forest","79","19","C64R","BOTTOM","","","","","","2007","2007/06/29 00:00:00+00","180","1730","Natural","Natural","","2007/06/29 00:00:00+00","180","1930","0.25","A","33.81972222","-109.27416667","USFS","AZ","1","04001","Apache County"
"-104.420267102","44.788326219","20205","20308","FS-1450654","FED","FS-FIRESTAT","FS","USSDBKF","Black Hills National Forest","0203","Black Hills National Forest","69","BL-07-05","C63Y","HARDING GULCH","","","","","","2007","2007/08/04 00:00:00+00","216","2315","Natural","Natural","","2007/08/05 00:00:00+00","217","0430","0.1","A","44.78833333","-104.42027778","USFS","WY","11","56011","Crook County"
"-114.958041789","48.49471575","20206","20309","FS-1450657","FED","FS-FIRESTAT","FS","USMTKNF","Kootenai National Forest","0114","Kootenai National Forest","89","12","C63S","WAPATIN","","","","","","2007","2007/07/20 00:00:00+00","201","1723","Natural","Natural","","2007/07/20 00:00:00+00","201","1910","0.1","A","48.49472222","-114.95805556","USFS","MT","53","30053","Lincoln County"
"-114.957764014","48.475271312","20207","20310","FS-1450658","FED","FS-FIRESTAT","FS","USMTKNF","Kootenai National Forest","0114","Kootenai National Forest","91","14","C63S","ROCKY WAPATI","","","","","","2007","2007/07/19 00:00:00+00","200","1750","Natural","Natural","","2007/07/20 00:00:00+00","201","2100","0.1","A","48.47527778","-114.95777778","USFS","MT","53","30053","Lincoln County"
"-109.085822906","33.563605822","20208","20311","FS-1450659","FED","FS-FIRESTAT","FS","USAZASF","Apache-Sitgreaves National Forest","0301","Apache-Sitgreaves National Forest","82","20","DMH4","LAMPHERE","2007_AZ-ASF-070240_LAMPHERE","","","","","2007","2007/06/29 00:00:00+00","180","1620","Natural","Natural","","2007/08/06 00:00:00+00","218","1500","1257","F","33.56361111","-109.08583333","USFS","AZ","11","04011","Greenlee County"
"-111.756377792","35.212216849","20209","20312","FS-1450660","FED","FS-FIRESTAT","FS","USAZCOF","Coconino National Forest","0304","Coconino National Forest","119","50","C64U","ELK","","","","","","2007","2007/07/06 00:00:00+00","187","1753","Natural","Natural","","2007/07/06 00:00:00+00","187","1940","0.1","A","35.21222222","-111.75638889","USFS","AZ","5","04005","Coconino County"
"-111.983322194","35.125550214","20210","20313","FS-1450661","FED","FS-FIRESTAT","FS","USAZCOF","Coconino National Forest","0304","Coconino National Forest","245","96","C64U","POISON","","","","","","2007","2007/07/21 00:00:00+00","202","1618","Natural","Natural","","2007/07/21 00:00:00+00","202","2118","0.2","A","35.12555556","-111.98333333","USFS","AZ","5","04005","Coconino County"
"-71.269443657","44.358879854","20211","20314","FS-1450662","FED","FS-FIRESTAT","FS","USNHWMF","White Mountain National Forest","0922","White Mountain National Forest","1","","C68D","HITCHCOCK FALLS","","","","","","2007","2007/08/05 00:00:00+00","217","0900","Human","Recreation and ceremony","","2007/08/05 00:00:00+00","217","1800","0.2","A","44.35888889","-71.26944444","USFS","NH","7","33007","Coos County"
"-114.800541785","48.641937943","20212","20315","FS-1450663","FED","FS-FIRESTAT","FS","USMTKNF","Kootenai National Forest","0114","Kootenai National Forest","96","15","C63S","LOUIS BALD","","","","","","2007","2007/07/22 00:00:00+00","203","1829","Natural","Natural","","2007/07/22 00:00:00+00","203","2011","0.1","A","48.64194444","-114.80055556","USFS","MT","53","30053","Lincoln County"
"-111.756377792","35.212216849","20213","20316","FS-1450664","FED","FS-FIRESTAT","FS","USAZCOF","Coconino National Forest","0304","Coconino National Forest","116","49","C64U","ALPHA","","","","","","2007","2007/07/06 00:00:00+00","187","1557","Natural","Natural","","2007/07/06 00:00:00+00","187","1730","0.1","A","35.21222222","-111.75638889","USFS","AZ","5","04005","Coconino County"
"-109.338877968","38.428605166","20214","20317","FS-1450665","FED","FS-FIRESTAT","FS","USUTMLF","Manti-Lasal National Forest","0410","Manti-Lasal National Forest","27","UTMLF7192","C65C","BROWNELL 2","","","","","","2007","2007/07/24 00:00:00+00","205","1500","Natural","Natural","","2007/07/24 00:00:00+00","205","1715","0.1","A","38.42861111","-109.33888889","USFS","UT","37","49037","San Juan County"
"-111.703322238","35.264161289","20215","20318","FS-1450666","FED","FS-FIRESTAT","FS","USAZCOF","Coconino National Forest","0304","Coconino National Forest","102","45","C64U","DOT","","","","","","2007","2007/07/05 00:00:00+00","186","1038","Human","Missing data/not specified/undetermined","","2007/07/05 00:00:00+00","186","1200","0.1","A","35.26416667","-111.70333333","USFS","AZ","5","04005","Coconino County"
"-111.69304447","35.263050178","20216","20319","FS-1450667","FED","FS-FIRESTAT","FS","USAZCOF","Coconino National Forest","0304","Coconino National Forest","110","48","C64U","WHISKEY","","","","","","2007","2007/07/06 00:00:00+00","187","1455","Natural","Natural","","2007/07/06 00:00:00+00","187","1725","0.25","A","35.26305556","-111.69305556","USFS","AZ","5","04005","Coconino County"
"-111.797766663","35.334439055","20217","20320","FS-1450668","FED","FS-FIRESTAT","FS","USAZCOF","Coconino National Forest","0304","Coconino National Forest","108","46","C64U","PORCUPINE","","","","","","2007","2007/07/06 00:00:00+00","187","1357","Natural","Natural","","2007/07/06 00:00:00+00","187","1848","0.2","A","35.33444444","-111.79777778","USFS","AZ","5","04005","Coconino County"
"-111.772211117","35.233605737","20218","20321","FS-1450669","FED","FS-FIRESTAT","FS","USAZCOF","Coconino National Forest","0304","Coconino National Forest","127","54","C64U","BRANDY","","","","","","2007","2007/07/07 00:00:00+00","188","1018","Natural","Natural","","2007/07/07 00:00:00+00","188","1400","0.25","A","35.23361111","-111.77222222","USFS","AZ","5","04005","Coconino County"
"-109.863321295","45.348048863","20219","20322","FS-1450670","FED","FS-FIRESTAT","FS","USMTCGF","Custer Gallatin National Forest","0108","Custer National Forest","31","02-07-08","C63N","WOODBINE","","","","","","2007","2007/08/07 00:00:00+00","219","2100","Natural","Natural","","2007/08/09 00:00:00+00","221","1000","0.1","A","45.34805556","-109.86333333","USFS","MT","9","30009","Carbon County"
"-114.978319522","48.631382413","20220","20323","FS-1450671","FED","FS-FIRESTAT","FS","USMTKNF","Kootenai National Forest","0114","Kootenai National Forest","103","16","C63S","LONE BEAVER","","","","","","2007","2007/07/23 00:00:00+00","204","2015","Natural","Natural","","2007/07/23 00:00:00+00","204","2300","0.25","A","48.63138889","-114.97833333","USFS","MT","53","30053","Lincoln County"
"-114.934152847","48.729993511","20221","20324","FS-1450672","FED","FS-FIRESTAT","FS","USMTKNF","Kootenai National Forest","0114","Kootenai National Forest","109","17","C63S","LOON LAKE","","","","","","2007","2007/07/24 00:00:00+00","205","1439","Natural","Natural","","2007/07/24 00:00:00+00","205","2129","0.1","A","48.73","-114.93416667","STATE OR PRIVATE","MT","53","30053","Lincoln County"
"-115.035263961","48.629993529","20222","20325","FS-1450673","FED","FS-FIRESTAT","FS","USMTKNF","Kootenai National Forest","0114","Kootenai National Forest","110","18","C63S","X MARKS THE PONY","","","","","","2007","2007/07/24 00:00:00+00","205","1712","Natural","Natural","","2007/07/24 00:00:00+00","205","2030","0.1","A","48.63","-115.03527778","USFS","MT","53","30053","Lincoln County"
"-115.448597253","48.444993586","20223","20326","FS-1450674","FED","FS-FIRESTAT","FS","USMTKNF","Kootenai National Forest","0114","Kootenai National Forest","108","36","C63S","RAINY RIDGE","","","","","","2007","2007/07/24 00:00:00+00","205","1600","Natural","Natural","","2007/07/24 00:00:00+00","205","2200","0.25","A","48.445","-115.44861111","USFS","MT","53","30053","Lincoln County"
"-103.58082297","44.082492906","20224","20327","FS-1450675","FED","FS-FIRESTAT","FS","USSDBKF","Black Hills National Forest","0203","Black Hills National Forest","74","20","C63Y","SILVER CITY","","","","","","2007","2007/08/05 00:00:00+00","217","1315","Natural","Natural","","2007/08/05 00:00:00+00","217","2015","0.66","B","44.0825","-103.58083333","USFS","SD","103","46103","Pennington County"
"-115.354708405","48.345549143","20225","20328","FS-1450676","FED","FS-FIRESTAT","FS","USMTKNF","Kootenai National Forest","0114","Kootenai National Forest","87","30","C63S","TONY PEAK","","","","","","2007","2007/07/20 00:00:00+00","201","1700","Natural","Natural","","2007/07/20 00:00:00+00","201","2200","0.1","A","48.34555556","-115.35472222","USFS","MT","53","30053","Lincoln County"
"-115.361652847","48.374715802","20226","20329","FS-1450680","FED","FS-FIRESTAT","FS","USMTKNF","Kootenai National Forest","0114","Kootenai National Forest","48","19","C63S","REINSHAGEN FIRE","","","","","","2007","2007/07/17 00:00:00+00","198","1930","Natural","Natural","","2007/07/18 00:00:00+00","199","1540","0.1","A","48.37472222","-115.36166667","USFS","MT","53","30053","Lincoln County"
"-111.309987737","44.88860459","20227","20330","FS-1450681","FED","FS-FIRESTAT","FS","USMTCGF","Custer Gallatin National Forest","0111","Gallatin National Forest","16","05","C63L","CABIN CREEK","","","","","","2007","2007/07/14 00:00:00+00","195","2030","Natural","Natural","","2007/07/16 00:00:00+00","197","1710","0.5","B","44.88861111","-111.31","USFS","MT","31","30031","Gallatin County"
"-121.471097111","44.029438948","20228","20331","FS-1450682","FED","FS-FIRESTAT","FS","USORDEF","Deschutes National Forest","0601","Deschutes National Forest","87","1-054","DU7D","0626","","","","","","2007","2007/08/04 00:00:00+00","216","1155","Human","Recreation and ceremony","","2007/08/04 00:00:00+00","216","1442","0.1","A","44.02944444","-121.47111111","USFS","OR","17","41017","Deschutes County"
"-115.334152827","48.481660241","20229","20332","FS-1450683","FED","FS-FIRESTAT","FS","USMTKNF","Kootenai National Forest","0114","Kootenai National Forest","115","38","C63S","JACKSON JEAN","","","","","","2007","2007/07/27 00:00:00+00","208","0845","Natural","Natural","","2007/07/27 00:00:00+00","208","1200","0.1","A","48.48166667","-115.33416667","STATE OR PRIVATE","MT","53","30053","Lincoln County"
"-115.464430657","48.120271392","20230","20333","FS-1450684","FED","FS-FIRESTAT","FS","USMTKNF","Kootenai National Forest","0114","Kootenai National Forest","118","41","DT5G","CAMPFIRE SCHRIEBER","","","","","","2007","2007/07/27 00:00:00+00","208","1400","Human","Recreation and ceremony","","2007/07/27 00:00:00+00","208","1900","0.1","A","48.12027778","-115.46444444","USFS","MT","53","30053","Lincoln County"
"-114.90665289","48.575826849","20231","20334","FS-1450685","FED","FS-FIRESTAT","FS","USMTKNF","Kootenai National Forest","0114","Kootenai National Forest","122","19","C63S","SOGGY BOTTOM","","","","","","2007","2007/07/27 00:00:00+00","208","0650","Natural","Natural","","2007/07/27 00:00:00+00","208","1200","0.2","A","48.57583333","-114.90666667","USFS","MT","53","30053","Lincoln County"
"-115.358597282","48.3972158","20232","20335","FS-1450686","FED","FS-FIRESTAT","FS","USMTKNF","Kootenai National Forest","0114","Kootenai National Forest","129","42","C63S","GULCH RIDGE","","","","","","2007","2007/07/28 00:00:00+00","209","1750","Natural","Natural","","2007/07/29 00:00:00+00","210","1445","0.1","A","48.39722222","-115.35861111","USFS","MT","53","30053","Lincoln County"
"-121.77609695","44.621938939","20233","20336","FS-1450687","FED","FS-FIRESTAT","FS","USORDEF","Deschutes National Forest","0601","Deschutes National Forest","70","5-017","C66Q","0469","","","","","","2007","2007/07/12 00:00:00+00","193","1706","Natural","Natural","","2007/07/13 00:00:00+00","194","1500","0.1","A","44.62194444","-121.77611111","USFS","OR","31","41031","Jefferson County"
"-115.399430582","48.487493578","20234","20337","FS-1450688","FED","FS-FIRESTAT","FS","USMTKNF","Kootenai National Forest","0114","Kootenai National Forest","81","28","C63S","LOST JACKSON","","","","","","2007","2007/07/20 00:00:00+00","201","0800","Natural","Natural","","2007/07/20 00:00:00+00","201","2030","0.1","A","48.4875","-115.39944444","USFS","MT","53","30053","Lincoln County"
"-114.876930665","48.578049076","20235","20338","FS-1450689","FED","FS-FIRESTAT","FS","USMTKNF","Kootenai National Forest","0114","Kootenai National Forest","123","20","C63S","JIM CREEK 2","","","","","","2007","2007/07/27 00:00:00+00","208","0810","Natural","Natural","","2007/07/27 00:00:00+00","208","1045","0.1","A","48.57805556","-114.87694444","USFS","MT","29","30029","Flathead County"
"-115.279986343","47.733049181","20236","20339","FS-1450690","FED","FS-FIRESTAT","FS","USMTLNF","Lolo National Forest","0116","Lolo National Forest","157","030","C63U","GRAVES CABIN","","","","","","2007","2007/08/08 00:00:00+00","220","1225","Natural","Natural","","2007/08/09 00:00:00+00","221","0800","0.3","B","47.73305556","-115.28","USFS","MT","89","30089","Sanders County"
"-115.515263908","48.451660263","20237","20340","FS-1450691","FED","FS-FIRESTAT","FS","USMTKNF","Kootenai National Forest","0114","Kootenai National Forest","79","26","C63S","MICHAELS YANSSARR","","","","","","2007","2007/07/19 00:00:00+00","200","0800","Natural","Natural","","2007/07/19 00:00:00+00","200","2000","0.1","A","48.45166667","-115.51527778","USFS","MT","53","30053","Lincoln County"
"-115.56998634","47.491938109","20238","20341","FS-1450692","FED","FS-FIRESTAT","FS","USMTLNF","Lolo National Forest","0116","Lolo National Forest","154","029","DU7E","CROW CREEK","","","","","","2007","2007/08/04 00:00:00+00","216","1532","Human","Power generation/transmission/distribution","","2007/08/05 00:00:00+00","217","1930","3.9","B","47.49194444","-115.57","USFS","MT","89","30089","Sanders County"
"-121.428041576","43.981661177","20239","20342","FS-1450693","FED","FS-FIRESTAT","FS","USORDEF","Deschutes National Forest","0601","Deschutes National Forest","82","1-050","DT5L","0587","","","","","","2007","2007/07/28 00:00:00+00","209","1131","Human","Recreation and ceremony","","2007/07/28 00:00:00+00","209","1215","0.1","A","43.98166667","-121.42805556","USFS","OR","17","41017","Deschutes County"
"-115.423041725","48.372771369","20240","20343","FS-1450694","FED","FS-FIRESTAT","FS","USMTKNF","Kootenai National Forest","0114","Kootenai National Forest","46","17","C63S","OSPREY CLIFFS","","","","","","2007","2007/07/17 00:00:00+00","198","2000","Natural","Natural","","2007/07/18 00:00:00+00","199","1200","0.1","A","48.37277778","-115.42305556","USFS","MT","53","30053","Lincoln County"
"-115.429152988","47.711938078","20241","20344","FS-1450695","FED","FS-FIRESTAT","FS","USMTLNF","Lolo National Forest","0116","Lolo National Forest","161","031","DV2C","FINLEY FLATS","","","","","","2007","2007/08/10 00:00:00+00","222","1315","Human","Recreation and ceremony","","2007/08/10 00:00:00+00","222","1415","0.1","A","47.71194444","-115.42916667","STATE OR PRIVATE","MT","89","30089","Sanders County"
"-115.432208377","48.399160258","20242","20345","FS-1450696","FED","FS-FIRESTAT","FS","USMTKNF","Kootenai National Forest","0114","Kootenai National Forest","44","15","C63S","KENNEDY GULCH","","","","","","2007","2007/07/17 00:00:00+00","198","1900","Natural","Natural","","2007/07/18 00:00:00+00","199","1150","0.1","A","48.39916667","-115.43222222","STATE OR PRIVATE","MT","53","30053","Lincoln County"
"-109.154156212","33.831939116","20243","20346","FS-1450697","FED","FS-FIRESTAT","FS","USAZASF","Apache-Sitgreaves National Forest","0301","Apache-Sitgreaves National Forest","83","21","C64R","COPPER MOUNTAIN ROAD","","","","","","2007","2007/06/25 00:00:00+00","176","1000","Human","Missing data/not specified/undetermined","","2007/06/25 00:00:00+00","176","1200","0.1","A","33.83194444","-109.15416667","STATE OR PRIVATE","AZ","1","04001","Apache County"
"-121.014708387","43.51610561","20244","20347","FS-1450700","FED","FS-FIRESTAT","FS","USORDEF","Deschutes National Forest","0601","Deschutes National Forest","62","1-037","C66Q","0398","","","","","","2007","2007/07/06 00:00:00+00","187","1747","Natural","Natural","","2007/07/07 00:00:00+00","188","1226","0.1","A","43.51611111","-121.01472222","USFS","OR","37","41037","Lake County"
"-122.011930721","41.905828035","20245","20348","FS-1450702","FED","FS-FIRESTAT","FS","USCAKNF","Klamath National Forest","0505","Klamath National Forest","38","09","C65U","SAM","","","","","","2007","2007/07/10 00:00:00+00","191","1930","Natural","Natural","","2007/07/10 00:00:00+00","191","2010","1.3","B","41.90583333","-122.01194444","USFS","CA","93","06093","Siskiyou County"
"-121.392763803","43.979161174","20246","20349","FS-1450703","FED","FS-FIRESTAT","FS","USORDEF","Deschutes National Forest","0601","Deschutes National Forest","76","1-045","DQX4","0542","","","","","","2007","2007/07/14 00:00:00+00","195","1908","Human","Recreation and ceremony","","2007/07/15 00:00:00+00","196","1028","0.3","B","43.97916667","-121.39277778","USFS","OR","17","41017","Deschutes County"
