"ï»¿X","Y","OBJECTID","FOD_ID","FPA_ID","SOURCE_SYSTEM_TYPE","SOURCE_SYSTEM","NWCG_REPORTING_AGENCY","NWCG_REPORTING_UNIT_ID","NWCG_REPORTING_UNIT_NAME","SOURCE_REPORTING_UNIT","SOURCE_REPORTING_UNIT_NAME","LOCAL_FIRE_REPORT_ID","LOCAL_INCIDENT_ID","FIRE_CODE","FIRE_NAME","ICS_209_PLUS_INCIDENT_JOIN_ID","ICS_209_PLUS_COMPLEX_JOIN_ID","MTBS_ID","MTBS_FIRE_NAME","COMPLEX_NAME","FIRE_YEAR","DISCOVERY_DATE","DISCOVERY_DOY","DISCOVERY_TIME","NWCG_CAUSE_CLASSIFICATION","NWCG_GENERAL_CAUSE","NWCG_CAUSE_AGE_CATEGORY","CONT_DATE","CONT_DOY","CONT_TIME","FIRE_SIZE","FIRE_SIZE_CLASS","LATITUDE","LONGITUDE","OWNER_DESCR","STATE","COUNTY","FIPS_CODE","FIPS_NAME"
"-94.949992823","34.758049368","85001","85975","FS-310790","FED","FS-FIRESTAT","FS","USAROUF","Ouachita National Forest","0809","Ouachita National Forest","64","","","HUNTER ROAD #3","","","","","","1996","1996/02/22 00:00:00+00","53","1705","Human","Arson/incendiarism","","1996/02/22 00:00:00+00","53","1800","3","B","34.75805556","-94.95","USFS","OK","","",""
"-94.396659634","34.809993772","85002","85976","FS-310791","FED","FS-FIRESTAT","FS","USAROUF","Ouachita National Forest","0809","Ouachita National Forest","65","","","32 BEAUCHAMP","","","","","","1996","1996/02/22 00:00:00+00","53","1830","Human","Arson/incendiarism","","1996/02/22 00:00:00+00","53","2145","12","C","34.81","-94.39666667","USFS","AR","","",""
"-94.256659668","34.851382648","85003","85977","FS-310792","FED","FS-FIRESTAT","FS","USAROUF","Ouachita National Forest","0809","Ouachita National Forest","69","","","LAKE HINKLE DAM","","","","","","1996","1996/02/24 00:00:00+00","55","1815","Human","Recreation and ceremony","","1996/02/24 00:00:00+00","55","1900","0.2","A","34.85138889","-94.25666667","USFS","AR","","",""
"-94.749992938","33.816660646","85004","85978","FS-310793","FED","FS-FIRESTAT","FS","USAROUF","Ouachita National Forest","0809","Ouachita National Forest","79","","","KULLI #2","","","","","","1996","1996/03/05 00:00:00+00","65","1400","Human","Arson/incendiarism","","1996/03/05 00:00:00+00","65","1545","80","C","33.81666667","-94.75","STATE OR PRIVATE","OK","","",""
"-93.70165981","34.918327049","85005","85979","FS-310794","FED","FS-FIRESTAT","FS","USAROUF","Ouachita National Forest","0809","Ouachita National Forest","80","","","MARKWELL","","","","","","1996","1996/03/07 00:00:00+00","67","1930","Natural","Natural","","1996/03/07 00:00:00+00","67","2200","0.2","A","34.91833333","-93.70166667","USFS","AR","","",""
"-92.784993392","34.808327028","85006","85980","FS-310795","FED","FS-FIRESTAT","FS","USAROUF","Ouachita National Forest","0809","Ouachita National Forest","81","","","PIPELINE","","","","","","1996","1996/03/08 00:00:00+00","68","1300","Natural","Natural","","1996/03/08 00:00:00+00","68","1500","50","C","34.80833333","-92.785","STATE OR PRIVATE","AR","","",""
"-94.912492835","34.726104922","85007","85981","FS-310796","FED","FS-FIRESTAT","FS","USAROUF","Ouachita National Forest","0809","Ouachita National Forest","91","","","BOHANNON CREEK","","","","","","1996","1996/03/12 00:00:00+00","72","1535","Human","Arson/incendiarism","","1996/03/12 00:00:00+00","72","1700","20","C","34.72611111","-94.9125","STATE OR PRIVATE","OK","","",""
"-94.541659615","34.533327161","85008","85982","FS-310797","FED","FS-FIRESTAT","FS","USAROUF","Ouachita National Forest","0809","Ouachita National Forest","103","","","OWENS","","","","","","1996","1996/03/23 00:00:00+00","83","1415","Human","Arson/incendiarism","","1996/03/23 00:00:00+00","83","1500","10","C","34.53333333","-94.54166667","USFS","OK","","",""
"-93.161659952","34.94193813","85009","85983","FS-310798","FED","FS-FIRESTAT","FS","USAROUF","Ouachita National Forest","0809","Ouachita National Forest","112","","","HIDEN VALLEY","","","","","","1996","1996/04/03 00:00:00+00","94","1315","Human","Debris and open burning","","1996/04/03 00:00:00+00","94","1600","15","C","34.94194444","-93.16166667","USFS","AR","","",""
"-93.721659837","34.44249381","85010","85984","FS-310799","FED","FS-FIRESTAT","FS","USAROUF","Ouachita National Forest","0809","Ouachita National Forest","124","","","MILLER","","","","","","1996","1996/04/10 00:00:00+00","101","1435","Human","Debris and open burning","","1996/04/10 00:00:00+00","101","2100","35","C","34.4425","-93.72166667","STATE OR PRIVATE","AR","","",""
"-93.86999313","34.411660493","85011","85985","FS-310800","FED","FS-FIRESTAT","FS","USAROUF","Ouachita National Forest","0809","Ouachita National Forest","131","","","SHERMAN MTN.","","","","","","1996","1996/04/14 00:00:00+00","105","1940","Natural","Natural","","1996/04/15 00:00:00+00","106","1600","53","C","34.41166667","-93.87","USFS","AR","","",""
"-94.583326306","33.891660624","85012","85986","FS-310801","FED","FS-FIRESTAT","FS","USAROUF","Ouachita National Forest","0809","Ouachita National Forest","153","","","SHINROCK","","","","","","1996","1996/05/10 00:00:00+00","131","1800","Human","Arson/incendiarism","","1996/05/10 00:00:00+00","131","2230","85","C","33.89166667","-94.58333333","USFS","OK","","",""
"-94.286659655","34.923327076","85013","85987","FS-310802","FED","FS-FIRESTAT","FS","USAROUF","Ouachita National Forest","0809","Ouachita National Forest","33","","","28 HON","","","","","","1996","1996/02/13 00:00:00+00","44","1310","Human","Arson/incendiarism","","1996/02/13 00:00:00+00","44","1700","48","C","34.92333333","-94.28666667","STATE OR PRIVATE","AR","","",""
"-94.558326321","33.766660647","85014","85988","FS-310803","FED","FS-FIRESTAT","FS","USAROUF","Ouachita National Forest","0809","Ouachita National Forest","53","","","RED BARN","","","","","","1996","1996/02/19 00:00:00+00","50","1000","Human","Arson/incendiarism","","1996/02/19 00:00:00+00","50","1200","6","B","33.76666667","-94.55833333","USFS","OK","","",""
"-94.73332627","33.849993969","85015","85989","FS-310804","FED","FS-FIRESTAT","FS","USAROUF","Ouachita National Forest","0809","Ouachita National Forest","70","","","DR. HOWARD","","","","","","1996","1996/02/25 00:00:00+00","56","1300","Human","Arson/incendiarism","","1996/02/25 00:00:00+00","56","1445","60","C","33.85","-94.73333333","STATE OR PRIVATE","OK","","",""
"-94.538326257","34.80499378","85016","85990","FS-310805","FED","FS-FIRESTAT","FS","USAROUF","Ouachita National Forest","0809","Ouachita National Forest","74","","","CARCASS","","","","","","1996","1996/03/01 00:00:00+00","61","1530","Human","Arson/incendiarism","","1996/03/01 00:00:00+00","61","1800","4","B","34.805","-94.53833333","USFS","OK","","",""
"-94.538326263","34.724993795","85017","85991","FS-310806","FED","FS-FIRESTAT","FS","USAROUF","Ouachita National Forest","0809","Ouachita National Forest","95","","","OVERPASS","","","","","","1996","1996/03/15 00:00:00+00","75","1130","Human","Arson/incendiarism","","1996/03/15 00:00:00+00","75","1400","1","B","34.725","-94.53833333","STATE OR PRIVATE","OK","","",""
"-93.386659887","35.014993686","85018","85992","FS-310807","FED","FS-FIRESTAT","FS","USAROUF","Ouachita National Forest","0809","Ouachita National Forest","107","","","PEELER GAP","","","","","","1996","1996/03/23 00:00:00+00","83","2111","Human","Arson/incendiarism","","1996/03/23 00:00:00+00","83","2200","0.3","B","35.015","-93.38666667","USFS","AR","","",""
"-93.323326569","34.949160366","85019","85993","FS-310808","FED","FS-FIRESTAT","FS","USAROUF","Ouachita National Forest","0809","Ouachita National Forest","78","","","CABIN","","","","","","1996","1996/03/04 00:00:00+00","64","1335","Human","Debris and open burning","","1996/03/04 00:00:00+00","64","1800","20","C","34.94916667","-93.32333333","MISSING/NOT SPECIFIED","AR","","",""
"-111.458322355","34.441661385","85020","85994","FS-310809","FED","FS-FIRESTAT","FS","USAZCOF","Coconino National Forest","0304","Coconino National Forest","9","","","SEVEN","","","","","","1996","1996/02/15 00:00:00+00","46","1155","Human","Recreation and ceremony","","1996/02/15 00:00:00+00","46","1220","0.1","A","34.44166667","-111.45833333","USFS","AZ","","",""
"-93.14166019","30.954994479","85021","85995","FS-310810","FED","FS-FIRESTAT","FS","USLAKIF","Kisatchie National Forest","0806","Kisatchie National Forest","97","","","097 STATE PLANE","","","","","","1996","1996/07/15 00:00:00+00","197","1330","Human","Arson/incendiarism","","1996/07/15 00:00:00+00","197","1430","25","C","30.955","-93.14166667","USFS","LA","","",""
"-120.884153218","41.333883539","85022","85996","FS-310811","FED","FS-FIRESTAT","FS","USCAMDF","Modoc National Forest","0509","Modoc National Forest","2","","","JOHNSON CREEK","","","","","","1996","1996/06/10 00:00:00+00","162","1638","Human","Debris and open burning","","1996/06/10 00:00:00+00","162","1800","0.1","A","41.33388889","-120.88416667","USFS","CA","","",""
"-121.151375374","41.469161332","85023","85997","FS-310812","FED","FS-FIRESTAT","FS","USCAMDF","Modoc National Forest","0509","Modoc National Forest","3","","","MUD","","","","","","1996","1996/06/11 00:00:00+00","163","1415","Human","Equipment and vehicle use","","1996/06/11 00:00:00+00","163","1425","0.1","A","41.46916667","-121.15138889","USFS","CA","","",""
"-120.271375568","41.126383503","85024","85998","FS-310813","FED","FS-FIRESTAT","FS","USCAMDF","Modoc National Forest","0509","Modoc National Forest","4","","","MAHOGANY","","","","","","1996","1996/06/12 00:00:00+00","164","1600","Human","Recreation and ceremony","","1996/06/12 00:00:00+00","164","1615","0.1","A","41.12638889","-120.27138889","USFS","CA","","",""
"-120.731930936","41.829439037","85025","85999","FS-310814","FED","FS-FIRESTAT","FS","USCAMDF","Modoc National Forest","0509","Modoc National Forest","5","","","DEER (BSFMU)","","","","","","1996","1996/06/26 00:00:00+00","178","1518","Natural","Natural","","1996/06/26 00:00:00+00","178","1600","0.1","A","41.82944444","-120.73194444","USFS","CA","","",""
"-120.635264293","41.81499459","85026","86000","FS-310815","FED","FS-FIRESTAT","FS","USCAMDF","Modoc National Forest","0509","Modoc National Forest","6","","","LONG MEADOW (BSFMU)","","","","","","1996","1996/07/01 00:00:00+00","183","1417","Natural","Natural","","1996/07/01 00:00:00+00","183","1502","0.1","A","41.815","-120.63527778","USFS","CA","","",""
"-111.401655701","34.514994702","85027","86001","FS-310816","FED","FS-FIRESTAT","FS","USAZCOF","Coconino National Forest","0304","Coconino National Forest","133","","","RENTAL","","","","","","1996","1996/06/30 00:00:00+00","182","1600","Natural","Natural","","1996/06/30 00:00:00+00","182","1900","0.1","A","34.515","-111.40166667","USFS","AZ","","",""
"-111.451655677","34.688328011","85028","86002","FS-310817","FED","FS-FIRESTAT","FS","USAZCOF","Coconino National Forest","0304","Coconino National Forest","16","","","BUCK","","","","","","1996","1996/03/27 00:00:00+00","87","1535","Human","Equipment and vehicle use","","1996/03/27 00:00:00+00","87","1605","6","B","34.68833333","-111.45166667","USFS","AZ","","",""
"-111.471655674","34.673328014","85029","86003","FS-310818","FED","FS-FIRESTAT","FS","USAZCOF","Coconino National Forest","0304","Coconino National Forest","31","","","BRADY","","","","","","1996","1996/04/11 00:00:00+00","102","1315","Natural","Natural","","1996/04/11 00:00:00+00","102","2000","2","B","34.67333333","-111.47166667","USFS","AZ","","",""
"-111.329989038","34.601661356","85030","86004","FS-310819","FED","FS-FIRESTAT","FS","USAZCOF","Coconino National Forest","0304","Coconino National Forest","54","","","IRON","","","","","","1996","1996/04/27 00:00:00+00","118","0200","Human","Recreation and ceremony","","1996/04/27 00:00:00+00","118","1200","3","B","34.60166667","-111.33","USFS","AZ","","",""
"-111.474989021","34.454994714","85031","86005","FS-310820","FED","FS-FIRESTAT","FS","USAZCOF","Coconino National Forest","0304","Coconino National Forest","60","","","BAKER","","","","","","1996","1996/04/29 00:00:00+00","120","0600","Human","Recreation and ceremony","","1996/04/29 00:00:00+00","120","1700","5","B","34.455","-111.475","USFS","AZ","","",""
"-111.453322353","34.486661378","85032","86006","FS-310821","FED","FS-FIRESTAT","FS","USAZCOF","Coconino National Forest","0304","Coconino National Forest","75","","","MILE","","","","","","1996","1996/05/06 00:00:00+00","127","1525","Human","Recreation and ceremony","","1996/05/06 00:00:00+00","127","1900","4","B","34.48666667","-111.45333333","USFS","AZ","","",""
"-111.386655687","34.721661343","85033","86007","FS-310822","FED","FS-FIRESTAT","FS","USAZCOF","Coconino National Forest","0304","Coconino National Forest","82","","","MACK","","","","","","1996","1996/05/21 00:00:00+00","142","1000","Human","Missing data/not specified/undetermined","","1996/05/21 00:00:00+00","142","1230","0.5","B","34.72166667","-111.38666667","USFS","AZ","","",""
"-111.41332234","34.739994672","85034","86008","FS-310823","FED","FS-FIRESTAT","FS","USAZCOF","Coconino National Forest","0304","Coconino National Forest","84","","","EAST","","","","","","1996","1996/05/29 00:00:00+00","150","0900","Human","Smoking","","1996/05/29 00:00:00+00","150","1200","0.5","B","34.74","-111.41333333","USFS","AZ","","",""
"-111.294989044","34.614994682","85035","86009","FS-310824","FED","FS-FIRESTAT","FS","USAZCOF","Coconino National Forest","0304","Coconino National Forest","88","","","PHONE","","","","","","1996","1996/06/06 00:00:00+00","158","1100","Human","Missing data/not specified/undetermined","","1996/06/06 00:00:00+00","158","1300","0.3","B","34.615","-111.295","USFS","AZ","","",""
"-111.34832235","34.773327994","85036","86010","FS-310825","FED","FS-FIRESTAT","FS","USAZCOF","Coconino National Forest","0304","Coconino National Forest","91","","","PINE","","","","","","1996","1996/06/07 00:00:00+00","159","1500","Natural","Natural","","1996/06/07 00:00:00+00","159","1830","2","B","34.77333333","-111.34833333","USFS","AZ","","",""
"-111.383322354","34.644994683","85037","86011","FS-310826","FED","FS-FIRESTAT","FS","USAZCOF","Coconino National Forest","0304","Coconino National Forest","92","","","BOONDOCK","","","","","","1996","1996/06/07 00:00:00+00","159","1430","Natural","Natural","","1996/06/08 00:00:00+00","160","1500","7","B","34.645","-111.38333333","USFS","AZ","","",""
"-111.364989018","34.759994667","85038","86012","FS-310827","FED","FS-FIRESTAT","FS","USAZCOF","Coconino National Forest","0304","Coconino National Forest","110","","","MAHAN","","","","","","1996","1996/06/12 00:00:00+00","164","1430","Human","Missing data/not specified/undetermined","","1996/06/12 00:00:00+00","164","1900","2","B","34.76","-111.365","USFS","AZ","","",""
"-111.453322354","34.47166138","85039","86013","FS-310828","FED","FS-FIRESTAT","FS","USAZCOF","Coconino National Forest","0304","Coconino National Forest","112","","","NINE","","","","","","1996","1996/06/15 00:00:00+00","167","1700","Natural","Natural","","1996/06/15 00:00:00+00","167","1930","0.3","B","34.47166667","-111.45333333","USFS","AZ","","",""
"-111.401655696","34.571661364","85040","86014","FS-310829","FED","FS-FIRESTAT","FS","USAZCOF","Coconino National Forest","0304","Coconino National Forest","125","","","POT","","","AZ3460711136919960621","POT","","1996","1996/06/21 00:00:00+00","173","1345","Natural","Natural","","1996/06/27 00:00:00+00","179","1200","7000","G","34.57166667","-111.40166667","USFS","AZ","","",""
"-101.833323438","43.849992797","85041","86015","FS-310830","FED","FS-FIRESTAT","FS","USNENBF","Nebraska National Forest","0207","Nebraska National Forest","1","","","HOLCOMB","","","","","","1996","1996/02/23 00:00:00+00","54","1245","Human","Power generation/transmission/distribution","","1996/02/23 00:00:00+00","54","1315","6","B","43.85","-101.83333333","USFS","SD","","",""
"-83.608329109","37.788326033","85042","86016","FS-310831","FED","FS-FIRESTAT","FS","USKYDBF","Daniel Boone National Forest","0802","Daniel Boone National Forest","2","","","UK #1","","","","","","1996","1996/02/24 00:00:00+00","55","1900","Human","Arson/incendiarism","","1996/02/25 00:00:00+00","56","1200","2","B","37.78833333","-83.60833333","USFS","KY","","",""
"-84.488328916","36.811659605","85043","86017","FS-310832","FED","FS-FIRESTAT","FS","USKYDBF","Daniel Boone National Forest","0802","Daniel Boone National Forest","3","","","5 O'CLOCK","","","","","","1996","1996/02/26 00:00:00+00","57","0501","Human","Arson/incendiarism","","1996/02/26 00:00:00+00","57","0601","0.1","A","36.81166667","-84.48833333","USFS","KY","","",""
"-83.471662533","37.151659493","85044","86018","FS-310833","FED","FS-FIRESTAT","FS","USKYDBF","Daniel Boone National Forest","0802","Daniel Boone National Forest","4","","","STACY","","","","","","1996","1996/02/26 00:00:00+00","57","0730","Human","Arson/incendiarism","","1996/02/26 00:00:00+00","57","0926","17","C","37.15166667","-83.47166667","USFS","KY","","",""
"-83.604995836","36.959992868","85045","86019","FS-310834","FED","FS-FIRESTAT","FS","USKYDBF","Daniel Boone National Forest","0802","Daniel Boone National Forest","5","","","DARBS","","","","","","1996","1996/03/01 00:00:00+00","61","1500","Human","Equipment and vehicle use","","1996/03/02 00:00:00+00","62","0800","5","B","36.96","-83.605","STATE OR PRIVATE","KY","","",""
"-83.968329018","37.573326091","85046","86020","FS-310835","FED","FS-FIRESTAT","FS","USKYDBF","Daniel Boone National Forest","0802","Daniel Boone National Forest","6","","","LLOYD'S LAMB","","","","","","1996","1996/03/01 00:00:00+00","61","1801","Human","Arson/incendiarism","","1996/03/01 00:00:00+00","61","2056","1","B","37.57333333","-83.96833333","USFS","KY","","",""
"-84.254995652","36.846659588","85047","86021","FS-310836","FED","FS-FIRESTAT","FS","USKYDBF","Daniel Boone National Forest","0802","Daniel Boone National Forest","7","","","SPICE MORTAR","","","","","","1996","1996/03/02 00:00:00+00","62","1930","Human","Debris and open burning","","1996/03/02 00:00:00+00","62","2045","0.5","B","36.84666667","-84.255","USFS","KY","","",""
"-83.686662469","37.153326162","85048","86022","FS-310837","FED","FS-FIRESTAT","FS","USKYDBF","Daniel Boone National Forest","0802","Daniel Boone National Forest","8","","","THORN","","","","","","1996","1996/03/04 00:00:00+00","64","1945","Human","Arson/incendiarism","","1996/03/05 00:00:00+00","65","1200","15","C","37.15333333","-83.68666667","USFS","KY","","",""
"-83.923329018","37.761659392","85049","86023","FS-310838","FED","FS-FIRESTAT","FS","USKYDBF","Daniel Boone National Forest","0802","Daniel Boone National Forest","9","","","HORSE RIDGE ROAD","","","","","","1996","1996/03/13 00:00:00+00","73","1608","Human","Arson/incendiarism","","1996/03/14 00:00:00+00","74","1030","5","B","37.76166667","-83.92333333","USFS","KY","","",""
"-84.038329009","37.401659468","85050","86024","FS-310839","FED","FS-FIRESTAT","FS","USKYDBF","Daniel Boone National Forest","0802","Daniel Boone National Forest","10","","","WHETSTONE","","","","","","1996","1996/03/14 00:00:00+00","74","1345","Human","Arson/incendiarism","","1996/03/14 00:00:00+00","74","1830","2","B","37.40166667","-84.03833333","STATE OR PRIVATE","KY","","",""
"-84.23999563","37.243326168","85051","86025","FS-310840","FED","FS-FIRESTAT","FS","USKYDBF","Daniel Boone National Forest","0802","Daniel Boone National Forest","11","","","LONG BRANCH","","","","","","1996","1996/03/24 00:00:00+00","84","1500","Human","Arson/incendiarism","","1996/03/24 00:00:00+00","84","1830","7","B","37.24333333","-84.24","USFS","KY","","",""
"-83.91499569","37.759992722","85052","86026","FS-310841","FED","FS-FIRESTAT","FS","USKYDBF","Daniel Boone National Forest","0802","Daniel Boone National Forest","12","","","COTTAGE FURANCE","","","","","","1996","1996/03/27 00:00:00+00","87","1540","Human","Arson/incendiarism","","1996/03/28 00:00:00+00","88","0900","3","B","37.76","-83.915","USFS","KY","","",""
"-84.486662259","36.769992943","85053","86027","FS-310842","FED","FS-FIRESTAT","FS","USKYDBF","Daniel Boone National Forest","0802","Daniel Boone National Forest","13","","","ALMOST","","","","","","1996","1996/04/03 00:00:00+00","94","1630","Human","Arson/incendiarism","","1996/04/03 00:00:00+00","94","1636","0.3","B","36.77","-84.48666667","USFS","KY","","",""
"-83.994995686","37.484992779","85054","86028","FS-310843","FED","FS-FIRESTAT","FS","USKYDBF","Daniel Boone National Forest","0802","Daniel Boone National Forest","14","","","LAKE CREEK","","","","","","1996","1996/04/04 00:00:00+00","95","1000","Human","Arson/incendiarism","","1996/04/04 00:00:00+00","95","1445","2","B","37.485","-83.995","USFS","KY","","",""
"-83.901662377","37.576659427","85055","86029","FS-310844","FED","FS-FIRESTAT","FS","USKYDBF","Daniel Boone National Forest","0802","Daniel Boone National Forest","15","","","FERGUSON","","","","","","1996","1996/03/27 00:00:00+00","87","1115","Human","Smoking","","1996/03/27 00:00:00+00","87","1215","0.1","A","37.57666667","-83.90166667","USFS","KY","","",""
"-83.57499579","37.774992704","85056","86030","FS-310845","FED","FS-FIRESTAT","FS","USKYDBF","Daniel Boone National Forest","0802","Daniel Boone National Forest","17","","","ROCK BRIDGE","","","","","","1996","1996/04/11 00:00:00+00","102","1500","Human","Recreation and ceremony","","1996/04/12 00:00:00+00","103","0830","4","B","37.775","-83.575","USFS","KY","","",""
"-83.706662418","37.82165937","85057","86031","FS-310846","FED","FS-FIRESTAT","FS","USKYDBF","Daniel Boone National Forest","0802","Daniel Boone National Forest","18","","","NADA ARCHES 3","","","","","","1996","1996/04/11 00:00:00+00","102","1840","Human","Arson/incendiarism","","1996/04/11 00:00:00+00","102","2015","2","B","37.82166667","-83.70666667","MISSING/NOT SPECIFIED","KY","","",""
"-84.146662346","36.96499289","85058","86032","FS-310847","FED","FS-FIRESTAT","FS","USKYDBF","Daniel Boone National Forest","0802","Daniel Boone National Forest","19","","","GRANNY'S ROCK","","","","","","1996","1996/04/12 00:00:00+00","103","0330","Human","Recreation and ceremony","","1996/04/13 00:00:00+00","104","1500","0.1","A","36.965","-84.14666667","USFS","KY","","",""
"-84.318328971","36.724992945","85059","86033","FS-310848","FED","FS-FIRESTAT","FS","USKYDBF","Daniel Boone National Forest","0802","Daniel Boone National Forest","22","","","DUCK RUN","","","","","","1996","1996/04/11 00:00:00+00","102","1345","Human","Arson/incendiarism","","1996/04/11 00:00:00+00","102","1400","5","B","36.725","-84.31833333","USFS","KY","","",""
"-84.273328976","36.854992917","85060","86034","FS-310849","FED","FS-FIRESTAT","FS","USKYDBF","Daniel Boone National Forest","0802","Daniel Boone National Forest","23","","","MIDDLE RIDGE","","","","","","1996","1996/04/12 00:00:00+00","103","1500","Human","Arson/incendiarism","","1996/04/13 00:00:00+00","104","1230","20","C","36.855","-84.27333333","USFS","KY","","",""
"-84.323328961","36.866659587","85061","86035","FS-310850","FED","FS-FIRESTAT","FS","USKYDBF","Daniel Boone National Forest","0802","Daniel Boone National Forest","25","","","EIGHTY EIGHT","","","","","","1996","1996/04/12 00:00:00+00","103","0600","Human","Arson/incendiarism","","1996/04/13 00:00:00+00","104","1200","4","B","36.86666667","-84.32333333","USFS","KY","","",""
"-84.376662293","36.744992943","85062","86036","FS-310851","FED","FS-FIRESTAT","FS","USKYDBF","Daniel Boone National Forest","0802","Daniel Boone National Forest","28","","","WINKLER","","","","","","1996","1996/04/12 00:00:00+00","103","2036","Human","Arson/incendiarism","","1996/04/12 00:00:00+00","103","2042","2","B","36.745","-84.37666667","USFS","KY","","",""
"-84.204995654","37.036659548","85063","86037","FS-310852","FED","FS-FIRESTAT","FS","USKYDBF","Daniel Boone National Forest","0802","Daniel Boone National Forest","29","","","WHITE'S GROCERY","","","","","","1996","1996/04/12 00:00:00+00","103","1800","Human","Arson/incendiarism","","1996/04/13 00:00:00+00","104","0800","4","B","37.03666667","-84.205","USFS","KY","","",""
"-84.304995644","36.739992941","85064","86038","FS-310853","FED","FS-FIRESTAT","FS","USKYDBF","Daniel Boone National Forest","0802","Daniel Boone National Forest","30","","","ANOTHER","","","","","","1996","1996/04/12 00:00:00+00","103","2223","Human","Arson/incendiarism","","1996/04/12 00:00:00+00","103","2330","1","B","36.74","-84.305","USFS","KY","","",""
"-84.471662271","36.654992966","85065","86039","FS-310854","FED","FS-FIRESTAT","FS","USKYDBF","Daniel Boone National Forest","0802","Daniel Boone National Forest","33","","","MURPHY","","","","","","1996","1996/04/17 00:00:00+00","108","1440","Human","Arson/incendiarism","","1996/04/18 00:00:00+00","109","1135","3","B","36.655","-84.47166667","USFS","KY","","",""
"-84.416662273","36.864992921","85066","86040","FS-310855","FED","FS-FIRESTAT","FS","USKYDBF","Daniel Boone National Forest","0802","Daniel Boone National Forest","34","","","PINEY GROVE","","","","","","1996","1996/04/18 00:00:00+00","109","1430","Human","Arson/incendiarism","","1996/04/18 00:00:00+00","109","1524","1","B","36.865","-84.41666667","USFS","KY","","",""
"-84.659995546","36.658326303","85067","86041","FS-310856","FED","FS-FIRESTAT","FS","USKYDBF","Daniel Boone National Forest","0802","Daniel Boone National Forest","36","","","CREEK","","","","","","1996","1996/04/18 00:00:00+00","109","1545","Human","Arson/incendiarism","","1996/04/18 00:00:00+00","109","1630","6","B","36.65833333","-84.66","USFS","KY","","",""
"-83.651662479","37.149992831","85068","86042","FS-310857","FED","FS-FIRESTAT","FS","USKYDBF","Daniel Boone National Forest","0802","Daniel Boone National Forest","38","","","PENSYL","","","","","","1996","1996/04/19 00:00:00+00","110","1702","Natural","Natural","","1996/04/20 00:00:00+00","111","0700","0.5","B","37.15","-83.65166667","STATE OR PRIVATE","KY","","",""
"-84.753328841","36.769992955","85069","86043","FS-310858","FED","FS-FIRESTAT","FS","USKYDBF","Daniel Boone National Forest","0802","Daniel Boone National Forest","42","","","4-H","","","","","","1996","1996/04/22 00:00:00+00","113","1445","Human","Arson/incendiarism","","1996/04/22 00:00:00+00","113","1745","3","B","36.77","-84.75333333","USFS","KY","","",""
"-84.308328983","36.59999297","85070","86044","FS-310859","FED","FS-FIRESTAT","FS","USKYDBF","Daniel Boone National Forest","0802","Daniel Boone National Forest","43","","","ANGEL MOUNTAIN","","","","","","1996","1996/04/22 00:00:00+00","113","2130","Human","Arson/incendiarism","","1996/04/22 00:00:00+00","113","2330","15","C","36.6","-84.30833333","USFS","KY","","",""
"-84.348328963","36.726659616","85071","86045","FS-310860","FED","FS-FIRESTAT","FS","USKYDBF","Daniel Boone National Forest","0802","Daniel Boone National Forest","45","","","INCLINE RD.","","","","","","1996","1996/04/27 00:00:00+00","118","1518","Human","Arson/incendiarism","","1996/04/27 00:00:00+00","118","1530","0.5","B","36.72666667","-84.34833333","USFS","KY","","",""
"-83.614995774","37.831659364","85072","86046","FS-310861","FED","FS-FIRESTAT","FS","USKYDBF","Daniel Boone National Forest","0802","Daniel Boone National Forest","46","","","TOWER ROCK","","","","","","1996","1996/04/27 00:00:00+00","118","2230","Human","Debris and open burning","","1996/04/28 00:00:00+00","119","1630","4","B","37.83166667","-83.615","USFS","KY","","",""
"-84.398328948","36.723326279","85073","86047","FS-310862","FED","FS-FIRESTAT","FS","USKYDBF","Daniel Boone National Forest","0802","Daniel Boone National Forest","47","","","SUNDAY NIGHT","","","","","","1996","1996/04/28 00:00:00+00","119","2100","Human","Arson/incendiarism","","1996/04/28 00:00:00+00","119","2227","1","B","36.72333333","-84.39833333","USFS","KY","","",""
"-83.639995813","37.143326162","85074","86048","FS-310863","FED","FS-FIRESTAT","FS","USKYDBF","Daniel Boone National Forest","0802","Daniel Boone National Forest","48","","","DEHALFWITT","","","","","","1996","1996/04/29 00:00:00+00","120","0745","Human","Arson/incendiarism","","1996/04/30 00:00:00+00","121","1630","45","C","37.14333333","-83.64","USFS","KY","","",""
"-84.414995597","36.963326231","85075","86049","FS-310864","FED","FS-FIRESTAT","FS","USKYDBF","Daniel Boone National Forest","0802","Daniel Boone National Forest","27","","","BEAVER RIDGE","","","","","","1996","1996/04/12 00:00:00+00","103","1900","Human","Arson/incendiarism","","1996/04/13 00:00:00+00","104","1200","5","B","36.96333333","-84.415","USFS","KY","","",""
"-83.619995773","37.821659367","85076","86050","FS-310865","FED","FS-FIRESTAT","FS","USKYDBF","Daniel Boone National Forest","0802","Daniel Boone National Forest","31","","","CHIMNEY ROCK","","","","","","1996","1996/04/13 00:00:00+00","104","0530","Human","Missing data/not specified/undetermined","","1996/04/13 00:00:00+00","104","1430","12","C","37.82166667","-83.62","USFS","KY","","",""
"-84.318328971","36.726659615","85077","86051","FS-310866","FED","FS-FIRESTAT","FS","USKYDBF","Daniel Boone National Forest","0802","Daniel Boone National Forest","32","","","SLOW QUACK","","","","","","1996","1996/04/15 00:00:00+00","106","1410","Human","Arson/incendiarism","","1996/04/15 00:00:00+00","106","1435","0.1","A","36.72666667","-84.31833333","USFS","KY","","",""
"-111.911655299","37.704994322","85078","86052","FS-310867","FED","FS-FIRESTAT","FS","USUTDIF","Dixie National Forest","0407","Dixie National Forest","12","","","HENDERSON CANYON","","","","","","1996","1996/06/07 00:00:00+00","159","0930","Natural","Natural","","1996/06/12 00:00:00+00","164","1200","180","D","37.705","-111.91166667","USFS","UT","","",""
"-111.799988634","37.869994294","85079","86053","FS-310868","FED","FS-FIRESTAT","FS","USUTDIF","Dixie National Forest","0407","Dixie National Forest","49","","","GRIFFIN POINT","","","","","","1996","1996/07/05 00:00:00+00","187","1630","Natural","Natural","","1996/07/05 00:00:00+00","187","2100","0.7","B","37.87","-111.8","USFS","UT","","",""
"-112.203321919","37.543327691","85080","86054","FS-310869","FED","FS-FIRESTAT","FS","USUTDIF","Dixie National Forest","0407","Dixie National Forest","51","","","NOON CANYON","","","","","","1996","1996/07/07 00:00:00+00","189","1430","Natural","Natural","","1996/07/07 00:00:00+00","189","2200","0.1","A","37.54333333","-112.20333333","USFS","UT","","",""
"-112.299988579","37.458327708","85081","86055","FS-310870","FED","FS-FIRESTAT","FS","USUTDIF","Dixie National Forest","0407","Dixie National Forest","28","","","SIELER MEADOW","","","","","","1996","1996/06/22 00:00:00+00","174","1700","Natural","Natural","","1996/06/24 00:00:00+00","176","1630","5","B","37.45833333","-112.3","USFS","UT","","",""
"-111.59498865","38.096660922","85082","86056","FS-310871","FED","FS-FIRESTAT","FS","USUTDIF","Dixie National Forest","0407","Dixie National Forest","42","","","DARK VALLEY","","","","","","1996","1996/06/30 00:00:00+00","182","2359","Natural","Natural","","1996/07/01 00:00:00+00","183","1300","0.2","A","38.09666667","-111.595","USFS","UT","","",""
"-112.156655203","38.138327616","85083","86057","FS-310872","FED","FS-FIRESTAT","FS","USUTDIF","Dixie National Forest","0407","Dixie National Forest","50","","","ROCKY FORD","","","","","","1996","1996/07/06 00:00:00+00","188","1230","Natural","Natural","","1996/07/08 00:00:00+00","190","1600","2","B","38.13833333","-112.15666667","USFS","UT","","",""
"-111.333322029","38.128327561","85084","86058","FS-310873","FED","FS-FIRESTAT","FS","USUTDIF","Dixie National Forest","0407","Dixie National Forest","52","","","CHOKECHERRY","","","","","","1996","1996/07/07 00:00:00+00","189","1600","Natural","Natural","","1996/07/07 00:00:00+00","189","1800","0.1","A","38.12833333","-111.33333333","USFS","UT","","",""
"-112.263321885","37.748327671","85085","86059","FS-310874","FED","FS-FIRESTAT","FS","USUTDIF","Dixie National Forest","0407","Dixie National Forest","53","","","CORRAL HOLLOW","","","","","","1996","1996/07/03 00:00:00+00","185","1600","Natural","Natural","","1996/07/03 00:00:00+00","185","1700","0.1","A","37.74833333","-112.26333333","USFS","UT","","",""
"-84.314995637","36.808326258","85086","86060","FS-310875","FED","FS-FIRESTAT","FS","USKYDBF","Daniel Boone National Forest","0802","Daniel Boone National Forest","21","","","SLICK SHOALS","","","","","","1996","1996/04/12 00:00:00+00","103","1230","Human","Arson/incendiarism","","1996/04/13 00:00:00+00","104","1335","0.5","B","36.80833333","-84.315","USFS","KY","","",""
"-89.461661112","32.309994061","85087","86061","FS-310876","FED","FS-FIRESTAT","FS","USMSMNF","National Forests in Mississippi","0807","National Forests in Mississippi","156","","","DESTROYERS FIRST","","","","","","1996","1996/06/12 00:00:00+00","164","0845","Human","Arson/incendiarism","","1996/06/12 00:00:00+00","164","1030","1","B","32.31","-89.46166667","USFS","MS","","",""
"-89.629994401","32.216660757","85088","86062","FS-310877","FED","FS-FIRESTAT","FS","USMSMNF","National Forests in Mississippi","0807","National Forests in Mississippi","157","","","INDEPENDENCE DAY","","","","","","1996","1996/07/04 00:00:00+00","186","2100","Human","Debris and open burning","","1996/07/04 00:00:00+00","186","2330","5","B","32.21666667","-89.63","STATE OR PRIVATE","MS","","",""
"-89.103327927","31.186660957","85089","86063","FS-310878","FED","FS-FIRESTAT","FS","USMSMNF","National Forests in Mississippi","0807","National Forests in Mississippi","151","","","POST OAK","","","","","","1996","1996/05/21 00:00:00+00","142","1639","Human","Arson/incendiarism","","1996/05/23 00:00:00+00","144","0911","55","C","31.18666667","-89.10333333","USFS","MS","","",""
"-88.966661335","30.519994426","85090","86064","FS-310879","FED","FS-FIRESTAT","FS","USMSMNF","National Forests in Mississippi","0807","National Forests in Mississippi","158","","","MURDER ROAD","","","","","","1996","1996/06/13 00:00:00+00","165","1930","Human","Arson/incendiarism","","1996/06/14 00:00:00+00","166","1000","42","C","30.52","-88.96666667","USFS","MS","","",""
"-89.171661251","31.113327635","85091","86065","FS-310880","FED","FS-FIRESTAT","FS","USMSMNF","National Forests in Mississippi","0807","National Forests in Mississippi","159","","","BRUSH PILE","","","","","","1996","1996/07/06 00:00:00+00","188","0930","Natural","Natural","","1996/07/07 00:00:00+00","189","0930","5","B","31.11333333","-89.17166667","USFS","MS","","",""
"-111.441377553","38.261383112","85092","86066","FS-310881","FED","FS-FIRESTAT","FS","USUTDIF","Dixie National Forest","0407","Dixie National Forest","43","","","PACE","","","","","","1996","1996/07/01 00:00:00+00","183","1100","Natural","Natural","","1996/07/01 00:00:00+00","183","1500","0.1","A","38.26138889","-111.44138889","MISSING/NOT SPECIFIED","UT","","",""
"-111.813321977","37.726660983","85093","86067","FS-310882","FED","FS-FIRESTAT","FS","USUTDIF","Dixie National Forest","0407","Dixie National Forest","45","","","LEFT HAND","","","","","","1996","1996/07/01 00:00:00+00","183","1800","Natural","Natural","","1996/07/01 00:00:00+00","183","2130","0.1","A","37.72666667","-111.81333333","USFS","UT","","",""
"-111.909988597","38.009994285","85094","86068","FS-310883","FED","FS-FIRESTAT","FS","USUTDIF","Dixie National Forest","0407","Dixie National Forest","47","","","MUD LAKE","","","","","","1996","1996/07/02 00:00:00+00","184","1540","Natural","Natural","","1996/07/03 00:00:00+00","185","1200","0.5","B","38.01","-111.91","USFS","UT","","",""
"-111.473321989","38.238327557","85095","86069","FS-310884","FED","FS-FIRESTAT","FS","USUTDIF","Dixie National Forest","0407","Dixie National Forest","44","","","BOULDER CREEK","","","","","","1996","1996/07/01 00:00:00+00","183","1330","Natural","Natural","","1996/07/01 00:00:00+00","183","1700","0.1","A","38.23833333","-111.47333333","USFS","UT","","",""
"-89.024994417","34.848326853","85096","86070","FS-310885","FED","FS-FIRESTAT","FS","USMSMNF","National Forests in Mississippi","0807","National Forests in Mississippi","160","","","PROGENY TEST","","","","","","1996","1996/06/17 00:00:00+00","169","1730","Human","Arson/incendiarism","","1996/06/17 00:00:00+00","169","1830","1","B","34.84833333","-89.025","USFS","MS","","",""
"-120.823320139","39.561661456","85097","86071","FS-310886","FED","FS-FIRESTAT","FS","USCATNF","Tahoe National Forest","0517","Tahoe National Forest","1","","","OXFORD","","","","","","1996","1996/04/06 00:00:00+00","97","1110","Human","Equipment and vehicle use","","1996/04/06 00:00:00+00","97","1200","0.2","A","39.56166667","-120.82333333","STATE OR PRIVATE","CA","","",""
"-111.558322279","35.1166613","85098","86072","FS-310887","FED","FS-FIRESTAT","FS","USAZCOF","Coconino National Forest","0304","Coconino National Forest","10","","","MARSHAL","","","","","","1996","1996/02/16 00:00:00+00","47","1200","Human","Recreation and ceremony","","1996/02/16 00:00:00+00","47","1400","0.1","A","35.11666667","-111.55833333","USFS","AZ","","",""
"-111.538322284","35.101661301","85099","86073","FS-310888","FED","FS-FIRESTAT","FS","USAZCOF","Coconino National Forest","0304","Coconino National Forest","24","","","ROAD","","","","","","1996","1996/04/10 00:00:00+00","101","1345","Human","Recreation and ceremony","","1996/04/10 00:00:00+00","101","1415","0.1","A","35.10166667","-111.53833333","USFS","AZ","","",""
"-111.65665561","34.998327981","85100","86074","FS-310889","FED","FS-FIRESTAT","FS","USAZCOF","Coconino National Forest","0304","Coconino National Forest","28","","","CLAUDE","","","","","","1996","1996/04/12 00:00:00+00","103","1130","Natural","Natural","","1996/04/12 00:00:00+00","103","1600","0.4","B","34.99833333","-111.65666667","USFS","AZ","","",""
"-111.448322322","34.871661326","85101","86075","FS-310890","FED","FS-FIRESTAT","FS","USAZCOF","Coconino National Forest","0304","Coconino National Forest","29","","","TEST","","","","","","1996","1996/04/12 00:00:00+00","103","1300","Natural","Natural","","1996/04/12 00:00:00+00","103","1730","0.5","B","34.87166667","-111.44833333","USFS","AZ","","",""
"-111.403322331","34.866661324","85102","86076","FS-310891","FED","FS-FIRESTAT","FS","USAZCOF","Coconino National Forest","0304","Coconino National Forest","34","","","MINT","","","","","","1996","1996/04/13 00:00:00+00","104","1500","Natural","Natural","","1996/04/13 00:00:00+00","104","2000","4","B","34.86666667","-111.40333333","USFS","AZ","","",""
"-111.64165562","34.918327991","85103","86077","FS-310892","FED","FS-FIRESTAT","FS","USAZCOF","Coconino National Forest","0304","Coconino National Forest","37","","","MEDIAN","","","","","","1996","1996/04/15 00:00:00+00","106","1630","Human","Smoking","","1996/04/15 00:00:00+00","106","1715","0.1","A","34.91833333","-111.64166667","USFS","AZ","","",""
"-111.621655605","35.134994631","85104","86078","FS-310893","FED","FS-FIRESTAT","FS","USAZCOF","Coconino National Forest","0304","Coconino National Forest","41","","","KEYSTONE","","","","","","1996","1996/04/19 00:00:00+00","110","0900","Human","Recreation and ceremony","","1996/04/19 00:00:00+00","110","0945","0.1","A","35.135","-111.62166667","USFS","AZ","","",""
"-111.558322282","35.083327964","85105","86079","FS-310894","FED","FS-FIRESTAT","FS","USAZCOF","Coconino National Forest","0304","Coconino National Forest","44","","","ELK","","","","","","1996","1996/04/20 00:00:00+00","111","1200","Human","Recreation and ceremony","","1996/04/20 00:00:00+00","111","1300","0.1","A","35.08333333","-111.55833333","USFS","AZ","","",""
"-111.629988935","35.118327964","85106","86080","FS-310895","FED","FS-FIRESTAT","FS","USAZCOF","Coconino National Forest","0304","Coconino National Forest","49","","","BOX","","","","","","1996","1996/04/21 00:00:00+00","112","0830","Human","Recreation and ceremony","","1996/04/21 00:00:00+00","112","0930","0.1","A","35.11833333","-111.63","USFS","AZ","","",""
"-111.686655596","35.084994642","85107","86081","FS-310896","FED","FS-FIRESTAT","FS","USAZCOF","Coconino National Forest","0304","Coconino National Forest","56","","","KELLY","","","","","","1996","1996/04/27 00:00:00+00","118","0700","Human","Recreation and ceremony","","1996/04/27 00:00:00+00","118","0745","0.1","A","35.085","-111.68666667","USFS","AZ","","",""
"-111.531655624","35.119994628","85108","86082","FS-310897","FED","FS-FIRESTAT","FS","USAZCOF","Coconino National Forest","0304","Coconino National Forest","59","","","FENCE","","","","","","1996","1996/04/28 00:00:00+00","119","1115","Human","Recreation and ceremony","","1996/04/28 00:00:00+00","119","1200","0.1","A","35.12","-111.53166667","USFS","AZ","","",""
"-111.638322262","35.126661303","85109","86083","FS-310898","FED","FS-FIRESTAT","FS","USAZCOF","Coconino National Forest","0304","Coconino National Forest","67","","","NAIL","","","","","","1996","1996/05/03 00:00:00+00","124","0930","Human","Recreation and ceremony","","1996/05/03 00:00:00+00","124","1000","0.1","A","35.12666667","-111.63833333","USFS","AZ","","",""
"-111.64832226","35.128327964","85110","86084","FS-310899","FED","FS-FIRESTAT","FS","USAZCOF","Coconino National Forest","0304","Coconino National Forest","68","","","HAMMER","","","","","","1996","1996/05/04 00:00:00+00","125","0930","Human","Recreation and ceremony","","1996/05/04 00:00:00+00","125","1000","0.1","A","35.12833333","-111.64833333","USFS","AZ","","",""
"-111.683322257","35.088327971","85111","86085","FS-310900","FED","FS-FIRESTAT","FS","USAZCOF","Coconino National Forest","0304","Coconino National Forest","77","","","BONE","","","","","","1996","1996/05/09 00:00:00+00","130","1415","Human","Missing data/not specified/undetermined","","1996/05/09 00:00:00+00","130","1500","0.1","A","35.08833333","-111.68333333","USFS","AZ","","",""
"-111.279989022","34.916661311","85112","86086","FS-310901","FED","FS-FIRESTAT","FS","USAZCOF","Coconino National Forest","0304","Coconino National Forest","89","","","YEAGER","","","","","","1996","1996/06/07 00:00:00+00","159","1500","Natural","Natural","","1996/06/07 00:00:00+00","159","1530","0.2","A","34.91666667","-111.28","USFS","AZ","","",""
"-111.326655685","34.889994647","85113","86087","FS-310902","FED","FS-FIRESTAT","FS","USAZCOF","Coconino National Forest","0304","Coconino National Forest","96","","","HILL","","","","","","1996","1996/06/07 00:00:00+00","159","1600","Natural","Natural","","1996/06/07 00:00:00+00","159","2130","0.5","B","34.89","-111.32666667","USFS","AZ","","",""
"-111.303322344","34.956661307","85114","86088","FS-310903","FED","FS-FIRESTAT","FS","USAZCOF","Coconino National Forest","0304","Coconino National Forest","97","","","FLYING","","","","","","1996","1996/06/07 00:00:00+00","159","1630","Natural","Natural","","1996/06/07 00:00:00+00","159","1700","0.3","B","34.95666667","-111.30333333","USFS","AZ","","",""
"-111.64165562","34.908327992","85115","86089","FS-310904","FED","FS-FIRESTAT","FS","USAZCOF","Coconino National Forest","0304","Coconino National Forest","113","","","SCHNEBLEY","","","","","","1996","1996/06/15 00:00:00+00","167","1745","Human","Equipment and vehicle use","","1996/06/15 00:00:00+00","167","1830","0.1","A","34.90833333","-111.64166667","USFS","AZ","","",""
"-111.638322264","35.106661306","85116","86090","FS-310905","FED","FS-FIRESTAT","FS","USAZCOF","Coconino National Forest","0304","Coconino National Forest","15","","","COMET","","","","","","1996","1996/03/26 00:00:00+00","86","1630","Human","Missing data/not specified/undetermined","","1996/03/26 00:00:00+00","86","2130","4","B","35.10666667","-111.63833333","USFS","AZ","","",""
"-111.606655632","34.851661338","85117","86091","FS-310906","FED","FS-FIRESTAT","FS","USAZCOF","Coconino National Forest","0304","Coconino National Forest","129","","","ROCKY","","","","","","1996","1996/06/28 00:00:00+00","180","1515","Human","Equipment and vehicle use","","1996/06/28 00:00:00+00","180","1600","0.1","A","34.85166667","-111.60666667","USFS","AZ","","",""
"-111.516655637","34.999994643","85118","86092","FS-310907","FED","FS-FIRESTAT","FS","USAZCOF","Coconino National Forest","0304","Coconino National Forest","152","","","QUIET","","","","","","1996","1996/07/04 00:00:00+00","186","1230","Natural","Natural","","1996/07/04 00:00:00+00","186","1530","0.5","B","35","-111.51666667","USFS","AZ","","",""
"-111.616655633","34.821661343","85119","86093","FS-310908","FED","FS-FIRESTAT","FS","USAZCOF","Coconino National Forest","0304","Coconino National Forest","156","","","HEAD","","","","","","1996","1996/07/04 00:00:00+00","186","1715","Natural","Natural","","1996/07/04 00:00:00+00","186","1945","0.5","B","34.82166667","-111.61666667","USFS","AZ","","",""
"-111.618322293","34.819994673","85120","86094","FS-310909","FED","FS-FIRESTAT","FS","USAZCOF","Coconino National Forest","0304","Coconino National Forest","163","","","VISTA","","","","","","1996","1996/07/04 00:00:00+00","186","1645","Natural","Natural","","1996/07/04 00:00:00+00","186","2100","0.1","A","34.82","-111.61833333","USFS","AZ","","",""
"-111.569988962","34.938327984","85121","86095","FS-310910","FED","FS-FIRESTAT","FS","USAZCOF","Coconino National Forest","0304","Coconino National Forest","164","","","INDEPENDANCE","","","","","","1996","1996/07/04 00:00:00+00","186","1800","Natural","Natural","","1996/07/04 00:00:00+00","186","2030","0.1","A","34.93833333","-111.57","USFS","AZ","","",""
"-111.323322335","35.01332796","85122","86096","FS-310911","FED","FS-FIRESTAT","FS","USAZCOF","Coconino National Forest","0304","Coconino National Forest","186","","","ELLIOT","","","","","","1996","1996/07/05 00:00:00+00","187","1730","Natural","Natural","","1996/07/05 00:00:00+00","187","1800","0.1","A","35.01333333","-111.32333333","USFS","AZ","","",""
"-111.534988968","34.949994651","85123","86097","FS-310912","FED","FS-FIRESTAT","FS","USAZCOF","Coconino National Forest","0304","Coconino National Forest","191","","","SEATTLE","","","","","","1996","1996/07/06 00:00:00+00","188","1215","Natural","Natural","","1996/07/06 00:00:00+00","188","1545","0.1","A","34.95","-111.535","USFS","AZ","","",""
"-111.483322307","34.968327975","85124","86098","FS-310913","FED","FS-FIRESTAT","FS","USAZCOF","Coconino National Forest","0304","Coconino National Forest","205","","","MAYFLOWER","","","","","","1996","1996/07/06 00:00:00+00","188","1600","Natural","Natural","","1996/07/06 00:00:00+00","188","1800","0.1","A","34.96833333","-111.48333333","USFS","AZ","","",""
"-111.631655614","35.006661319","85125","86099","FS-310914","FED","FS-FIRESTAT","FS","USAZCOF","Coconino National Forest","0304","Coconino National Forest","210","","","OUTCROP","","","","","","1996","1996/07/06 00:00:00+00","188","1700","Natural","Natural","","1996/07/07 00:00:00+00","189","1000","0.1","A","35.00666667","-111.63166667","USFS","AZ","","",""
"-120.436653598","39.121661463","85126","86100","FS-310915","FED","FS-FIRESTAT","FS","USCATNF","Tahoe National Forest","0517","Tahoe National Forest","19","","","POPPY","","","","","","1996","1996/07/16 00:00:00+00","198","1300","Human","Recreation and ceremony","","1996/07/16 00:00:00+00","198","1715","0.1","A","39.12166667","-120.43666667","USFS","CA","","",""
"-107.478323243","33.601661294","85127","86101","FS-310916","FED","FS-FIRESTAT","FS","USNMCIF","Cibola National Forest","0303","Cibola National Forest","24","","","COOK","","","","","","1996","1996/06/09 00:00:00+00","161","0638","Natural","Natural","","1996/06/16 00:00:00+00","168","1800","85","C","33.60166667","-107.47833333","USFS","NM","","",""
"-111.271655392","38.036660908","85128","86102","FS-310917","FED","FS-FIRESTAT","FS","USUTDIF","Dixie National Forest","0407","Dixie National Forest","46","","","TABLE TOP SIDE","","","","","","1996","1996/07/02 00:00:00+00","184","1400","Natural","Natural","","1996/07/03 00:00:00+00","185","1000","2","B","38.03666667","-111.27166667","USFS","UT","","",""
"-111.806655315","37.756660979","85129","86103","FS-310918","FED","FS-FIRESTAT","FS","USUTDIF","Dixie National Forest","0407","Dixie National Forest","48","","","HEAP'S CANYON","","","","","","1996","1996/07/05 00:00:00+00","187","1315","Natural","Natural","","1996/07/05 00:00:00+00","187","1930","0.1","A","37.75666667","-111.80666667","USFS","UT","","",""
"-112.169988576","37.726661007","85130","86104","FS-310919","FED","FS-FIRESTAT","FS","USUTDIF","Dixie National Forest","0407","Dixie National Forest","26","","","JOHN L.SWALE","","","","","","1996","1996/06/20 00:00:00+00","172","0900","Natural","Natural","","1996/06/20 00:00:00+00","172","1200","0.1","A","37.72666667","-112.17","USFS","UT","","",""
"-111.40665537","37.988327583","85131","86105","FS-310920","FED","FS-FIRESTAT","FS","USUTDIF","Dixie National Forest","0407","Dixie National Forest","21","","","LANE'S","","","","","","1996","1996/06/20 00:00:00+00","172","1500","Natural","Natural","","1996/06/20 00:00:00+00","172","1845","0.1","A","37.98833333","-111.40666667","USFS","UT","","",""
"-111.708321979","37.896660955","85132","86106","FS-310921","FED","FS-FIRESTAT","FS","USUTDIF","Dixie National Forest","0407","Dixie National Forest","22","","","BUCK POINT","","","","","","1996","1996/06/20 00:00:00+00","172","1800","Natural","Natural","","1996/06/20 00:00:00+00","172","2130","0.1","A","37.89666667","-111.70833333","USFS","UT","","",""
"-111.944988619","37.73832765","85133","86107","FS-310922","FED","FS-FIRESTAT","FS","USUTDIF","Dixie National Forest","0407","Dixie National Forest","14","","","CLAY CREEK","","","","","","1996","1996/06/07 00:00:00+00","159","1530","Natural","Natural","","1996/06/09 00:00:00+00","161","1200","4","B","37.73833333","-111.945","USFS","UT","","",""
"-111.481655356","37.97332759","85134","86108","FS-310923","FED","FS-FIRESTAT","FS","USUTDIF","Dixie National Forest","0407","Dixie National Forest","17","","","SWEETWATER 1","","","","","","1996","1996/06/14 00:00:00+00","166","1400","Natural","Natural","","1996/06/14 00:00:00+00","166","1915","0.1","A","37.97333333","-111.48166667","USFS","UT","","",""
"-112.673321829","37.521661066","85135","86109","FS-310924","FED","FS-FIRESTAT","FS","USUTDIF","Dixie National Forest","0407","Dixie National Forest","10","","","MOVIE RANCH","","","","","","1996","1996/06/06 00:00:00+00","158","1630","Natural","Natural","","1996/06/06 00:00:00+00","158","1900","0.1","A","37.52166667","-112.67333333","USFS","UT","","",""
"-111.264988721","38.059994234","85136","86110","FS-310925","FED","FS-FIRESTAT","FS","USUTDIF","Dixie National Forest","0407","Dixie National Forest","27","","","CON'S FLAT","","","","","","1996","1996/06/21 00:00:00+00","173","1130","Natural","Natural","","1996/06/21 00:00:00+00","173","1730","0.2","A","38.06","-111.265","USFS","UT","","",""
"-112.656655164","37.594994386","85137","86111","FS-310926","FED","FS-FIRESTAT","FS","USUTDIF","Dixie National Forest","0407","Dixie National Forest","13","","","HENRIE KNOLL","","","","","","1996","1996/06/07 00:00:00+00","159","1230","Natural","Natural","","1996/06/08 00:00:00+00","160","1000","22","C","37.595","-112.65666667","USFS","UT","","",""
"-107.188323266","34.133327858","85138","86112","FS-310927","FED","FS-FIRESTAT","FS","USNMCIF","Cibola National Forest","0303","Cibola National Forest","1","","","BEND","","","","","","1996","1996/02/05 00:00:00+00","36","1330","Human","Missing data/not specified/undetermined","","1996/02/05 00:00:00+00","36","1400","1","B","34.13333333","-107.18833333","USFS","NM","","",""
"-108.503322885","35.369994418","85139","86113","FS-310928","FED","FS-FIRESTAT","FS","USNMCIF","Cibola National Forest","0303","Cibola National Forest","2","","","LAKE","","","","","","1996","1996/02/18 00:00:00+00","49","0115","Human","Smoking","","1996/02/18 00:00:00+00","49","0150","0.1","A","35.37","-108.50333333","USFS","NM","","",""
"-107.723323077","35.064994418","85140","86114","FS-310929","FED","FS-FIRESTAT","FS","USNMCIF","Cibola National Forest","0303","Cibola National Forest","4","","","LA JARA","","","","","","1996","1996/04/07 00:00:00+00","98","1530","Human","Debris and open burning","","1996/04/09 00:00:00+00","100","1600","12","C","35.065","-107.72333333","STATE OR PRIVATE","NM","","",""
"-106.401656737","34.659994406","85141","86115","FS-310930","FED","FS-FIRESTAT","FS","USNMCIF","Cibola National Forest","0303","Cibola National Forest","5","","","CAPILLA","","","","","","1996","1996/04/12 00:00:00+00","103","1130","Natural","Natural","","1996/04/14 00:00:00+00","105","1800","30","C","34.66","-106.40166667","USFS","NM","","",""
"-107.501656551","33.96166124","85142","86116","FS-310931","FED","FS-FIRESTAT","FS","USNMCIF","Cibola National Forest","0303","Cibola National Forest","6","","","MONICA","","","","","","1996","1996/04/19 00:00:00+00","110","1700","Human","Recreation and ceremony","","1996/04/22 00:00:00+00","113","1800","25","C","33.96166667","-107.50166667","USFS","NM","","",""
"-107.688323072","35.213327724","85143","86117","FS-310932","FED","FS-FIRESTAT","FS","USNMCIF","Cibola National Forest","0303","Cibola National Forest","7","","","LOBO","","","","","","1996","1996/04/24 00:00:00+00","115","0600","Human","Recreation and ceremony","","1996/04/25 00:00:00+00","116","1030","2","B","35.21333333","-107.68833333","USFS","NM","","",""
"-108.374989589","35.286661093","85144","86118","FS-310933","FED","FS-FIRESTAT","FS","USNMCIF","Cibola National Forest","0303","Cibola National Forest","8","","","RIDGE","","","","","","1996","1996/04/24 00:00:00+00","115","0930","Human","Debris and open burning","","1996/04/24 00:00:00+00","115","1000","0.2","A","35.28666667","-108.375","USFS","NM","","",""
"-107.723323064","35.213327726","85145","86119","FS-310934","FED","FS-FIRESTAT","FS","USNMCIF","Cibola National Forest","0303","Cibola National Forest","9","","","CAVE","","","","","","1996","1996/04/28 00:00:00+00","119","1800","Human","Recreation and ceremony","","1996/04/28 00:00:00+00","119","1815","0.1","A","35.21333333","-107.72333333","USFS","NM","","",""
"-107.63665641","35.369994369","85146","86120","FS-310935","FED","FS-FIRESTAT","FS","USNMCIF","Cibola National Forest","0303","Cibola National Forest","10","","","LA COW","","","","","","1996","1996/05/03 00:00:00+00","124","1500","Human","Missing data/not specified/undetermined","","1996/05/04 00:00:00+00","125","0900","0.1","A","35.37","-107.63666667","USFS","NM","","",""
"-108.484989558","35.369994417","85147","86121","FS-310936","FED","FS-FIRESTAT","FS","USNMCIF","Cibola National Forest","0303","Cibola National Forest","12","","","MCGAFFEY","","","","","","1996","1996/05/12 00:00:00+00","133","1100","Human","Recreation and ceremony","","1996/05/13 00:00:00+00","134","1200","25","C","35.37","-108.485","USFS","NM","","",""
"-108.269989626","35.109994442","85148","86122","FS-310937","FED","FS-FIRESTAT","FS","USNMCIF","Cibola National Forest","0303","Cibola National Forest","19","","","ALAMOSA","","","","","","1996","1996/06/07 00:00:00+00","159","1000","Natural","Natural","","1996/06/08 00:00:00+00","160","0300","6","B","35.11","-108.27","STATE OR PRIVATE","NM","","",""
"-107.553323207","33.874994586","85149","86123","FS-310938","FED","FS-FIRESTAT","FS","USNMCIF","Cibola National Forest","0303","Cibola National Forest","21","","","PATTY","","","","","","1996","1996/06/08 00:00:00+00","160","0939","Natural","Natural","","1996/06/08 00:00:00+00","160","1130","0.1","A","33.875","-107.55333333","STATE OR PRIVATE","NM","","",""
"-108.198322975","35.064994445","85150","86124","FS-310939","FED","FS-FIRESTAT","FS","USNMCIF","Cibola National Forest","0303","Cibola National Forest","25","","","LARGO","","","","","","1996","1996/06/09 00:00:00+00","161","1145","Natural","Natural","","1996/06/09 00:00:00+00","161","1630","0.3","B","35.065","-108.19833333","USFS","NM","","",""
"-108.023323018","34.991661116","85151","86125","FS-310940","FED","FS-FIRESTAT","FS","USNMCIF","Cibola National Forest","0303","Cibola National Forest","26","","","PARK","","","","","","1996","1996/06/09 00:00:00+00","161","1300","Natural","Natural","","1996/06/09 00:00:00+00","161","1330","0.1","A","34.99166667","-108.02333333","USFS","NM","","",""
"-108.23332297","35.036661121","85152","86126","FS-310941","FED","FS-FIRESTAT","FS","USNMCIF","Cibola National Forest","0303","Cibola National Forest","27","","","ARAGON","","","","","","1996","1996/06/09 00:00:00+00","161","1200","Natural","Natural","","1996/06/09 00:00:00+00","161","1500","0.1","A","35.03666667","-108.23333333","STATE OR PRIVATE","NM","","",""
"-108.039989685","34.991661117","85153","86127","FS-310942","FED","FS-FIRESTAT","FS","USNMCIF","Cibola National Forest","0303","Cibola National Forest","28","","","SERVICE","","","","","","1996","1996/06/09 00:00:00+00","161","1330","Natural","Natural","","1996/06/09 00:00:00+00","161","1530","0.1","A","34.99166667","-108.04","USFS","NM","","",""
"-108.16332298","35.094994438","85154","86128","FS-310943","FED","FS-FIRESTAT","FS","USNMCIF","Cibola National Forest","0303","Cibola National Forest","29","","","OJO","","","","","","1996","1996/06/09 00:00:00+00","161","1700","Natural","Natural","","1996/06/12 00:00:00+00","164","1600","5","B","35.095","-108.16333333","USFS","NM","","",""
"-107.448323204","34.206661201","85155","86129","FS-310944","FED","FS-FIRESTAT","FS","USNMCIF","Cibola National Forest","0303","Cibola National Forest","31","","","TRICK","","","","","","1996","1996/06/09 00:00:00+00","161","1400","Natural","Natural","","1996/06/09 00:00:00+00","161","1800","0.1","A","34.20666667","-107.44833333","USFS","NM","","",""
"-108.356656271","35.183327767","85156","86130","FS-310945","FED","FS-FIRESTAT","FS","USNMCIF","Cibola National Forest","0303","Cibola National Forest","33","","","SAWYER","","","","","","1996","1996/06/09 00:00:00+00","161","1630","Natural","Natural","","1996/06/09 00:00:00+00","161","1700","0.1","A","35.18333333","-108.35666667","USFS","NM","","",""
"-108.216656301","35.183327759","85157","86131","FS-310946","FED","FS-FIRESTAT","FS","USNMCIF","Cibola National Forest","0303","Cibola National Forest","34","","","CREEK","","","","","","1996","1996/06/09 00:00:00+00","161","1630","Natural","Natural","","1996/06/09 00:00:00+00","161","2100","0.8","B","35.18333333","-108.21666667","USFS","NM","","",""
"-108.42832291","35.2566611","85158","86132","FS-310947","FED","FS-FIRESTAT","FS","USNMCIF","Cibola National Forest","0303","Cibola National Forest","35","","","OLD","","","","","","1996","1996/06/09 00:00:00+00","161","1700","Natural","Natural","","1996/06/10 00:00:00+00","162","1030","2","B","35.25666667","-108.42833333","USFS","NM","","",""
"-108.356656271","35.183327767","85159","86133","FS-310948","FED","FS-FIRESTAT","FS","USNMCIF","Cibola National Forest","0303","Cibola National Forest","36","","","WILCOX","","","","","","1996","1996/06/10 00:00:00+00","162","1100","Natural","Natural","","1996/06/10 00:00:00+00","162","2100","3.5","B","35.18333333","-108.35666667","STATE OR PRIVATE","NM","","",""
"-108.074989676","35.006661116","85160","86134","FS-310949","FED","FS-FIRESTAT","FS","USNMCIF","Cibola National Forest","0303","Cibola National Forest","37","","","ICE","","","","","","1996","1996/06/10 00:00:00+00","162","1330","Natural","Natural","","1996/06/11 00:00:00+00","163","1230","6.5","B","35.00666667","-108.075","STATE OR PRIVATE","NM","","",""
"-108.058323006","35.051661109","85161","86135","FS-310950","FED","FS-FIRESTAT","FS","USNMCIF","Cibola National Forest","0303","Cibola National Forest","38","","","PAXTON","","","","","","1996","1996/06/11 00:00:00+00","163","1000","Natural","Natural","","1996/06/11 00:00:00+00","163","1100","0.1","A","35.05166667","-108.05833333","USFS","NM","","",""
"-108.146656325","35.07999444","85162","86136","FS-310951","FED","FS-FIRESTAT","FS","USNMCIF","Cibola National Forest","0303","Cibola National Forest","39","","","COLD","","","","","","1996","1996/06/10 00:00:00+00","162","2100","Natural","Natural","","1996/06/11 00:00:00+00","163","1400","2","B","35.08","-108.14666667","USFS","NM","","",""
"-108.163322982","35.064994443","85163","86137","FS-310952","FED","FS-FIRESTAT","FS","USNMCIF","Cibola National Forest","0303","Cibola National Forest","40","","","SPRINGS","","","","","","1996","1996/06/10 00:00:00+00","162","1830","Natural","Natural","","1996/06/10 00:00:00+00","162","2230","0.1","A","35.065","-108.16333333","USFS","NM","","",""
"-108.428322906","35.299994424","85164","86138","FS-310953","FED","FS-FIRESTAT","FS","USNMCIF","Cibola National Forest","0303","Cibola National Forest","41","","","DAN VALLEY","","","","","","1996","1996/06/09 00:00:00+00","161","1900","Natural","Natural","","1996/06/09 00:00:00+00","161","2000","0.1","A","35.3","-108.42833333","STATE OR PRIVATE","NM","","",""
"-108.093323001","35.021661115","85165","86139","FS-310954","FED","FS-FIRESTAT","FS","USNMCIF","Cibola National Forest","0303","Cibola National Forest","42","","","OSO","","","","","","1996","1996/06/09 00:00:00+00","161","1030","Natural","Natural","","1996/06/09 00:00:00+00","161","1330","0.2","A","35.02166667","-108.09333333","STATE OR PRIVATE","NM","","",""
"-107.529989893","33.716661279","85166","86140","FS-310955","FED","FS-FIRESTAT","FS","USNMCIF","Cibola National Forest","0303","Cibola National Forest","44","","","JOHN","","","","","","1996","1996/06/11 00:00:00+00","163","1500","Natural","Natural","","1996/06/11 00:00:00+00","163","2045","0.1","A","33.71666667","-107.53","USFS","NM","","",""
"-108.216656291","35.299994412","85167","86141","FS-310956","FED","FS-FIRESTAT","FS","USNMCIF","Cibola National Forest","0303","Cibola National Forest","46","","","COTTON","","","","","","1996","1996/06/11 00:00:00+00","163","1740","Natural","Natural","","1996/06/11 00:00:00+00","163","1930","0.3","B","35.3","-108.21666667","USFS","NM","","",""
"-107.154989956","33.961661222","85168","86142","FS-310957","FED","FS-FIRESTAT","FS","USNMCIF","Cibola National Forest","0303","Cibola National Forest","47","","","ROCK","","","","","","1996","1996/06/12 00:00:00+00","164","1109","Natural","Natural","","1996/06/12 00:00:00+00","164","1830","0.1","A","33.96166667","-107.155","USFS","NM","","",""
"-108.269989619","35.19832776","85169","86143","FS-310958","FED","FS-FIRESTAT","FS","USNMCIF","Cibola National Forest","0303","Cibola National Forest","48","","","MOUNTAIN","","","","","","1996","1996/06/14 00:00:00+00","166","1420","Natural","Natural","","1996/06/14 00:00:00+00","166","1800","0.1","A","35.19833333","-108.27","STATE OR PRIVATE","NM","","",""
"-108.163322975","35.15332776","85170","86144","FS-310959","FED","FS-FIRESTAT","FS","USNMCIF","Cibola National Forest","0303","Cibola National Forest","49","","","COPPERTON","","","","","","1996","1996/06/14 00:00:00+00","166","1220","Natural","Natural","","1996/06/14 00:00:00+00","166","1600","0.1","A","35.15333333","-108.16333333","USFS","NM","","",""
"-108.538322878","35.354994422","85171","86145","FS-310960","FED","FS-FIRESTAT","FS","USNMCIF","Cibola National Forest","0303","Cibola National Forest","50","","","BRENNAN","","","","","","1996","1996/06/14 00:00:00+00","166","1630","Natural","Natural","","1996/06/15 00:00:00+00","167","0830","0.1","A","35.355","-108.53833333","USFS","NM","","",""
"-108.554989542","35.384994419","85172","86146","FS-310961","FED","FS-FIRESTAT","FS","USNMCIF","Cibola National Forest","0303","Cibola National Forest","51","","","ANDREWS","","","","","","1996","1996/06/15 00:00:00+00","167","1545","Natural","Natural","","1996/06/16 00:00:00+00","168","1600","1","B","35.385","-108.555","USFS","NM","","",""
"-108.03998968","35.051661108","85173","86147","FS-310962","FED","FS-FIRESTAT","FS","USNMCIF","Cibola National Forest","0303","Cibola National Forest","54","","","CINDER","","","","","","1996","1996/06/21 00:00:00+00","173","0945","Natural","Natural","","1996/06/21 00:00:00+00","173","1230","0.3","B","35.05166667","-108.04","USFS","NM","","",""
"-107.371656456","35.501661004","85174","86148","FS-310963","FED","FS-FIRESTAT","FS","USNMCIF","Cibola National Forest","0303","Cibola National Forest","55","","","COLORADO","","","","","","1996","1996/06/21 00:00:00+00","173","1358","Natural","Natural","","1996/06/21 00:00:00+00","173","1700","0.1","A","35.50166667","-107.37166667","USFS","NM","","",""
"-107.669989745","35.226661061","85175","86149","FS-310964","FED","FS-FIRESTAT","FS","USNMCIF","Cibola National Forest","0303","Cibola National Forest","56","","","COALMINE","","","","","","1996","1996/06/22 00:00:00+00","174","1135","Natural","Natural","","1996/06/22 00:00:00+00","174","1700","0.2","A","35.22666667","-107.67","USFS","NM","","",""
"-107.513323099","35.339994366","85176","86150","FS-310965","FED","FS-FIRESTAT","FS","USNMCIF","Cibola National Forest","0303","Cibola National Forest","58","","","SHEEP","","","","","","1996","1996/06/22 00:00:00+00","174","1853","Natural","Natural","","1996/06/22 00:00:00+00","174","2030","0.1","A","35.34","-107.51333333","USFS","NM","","",""
"-108.02332301","35.094994431","85177","86151","FS-310966","FED","FS-FIRESTAT","FS","USNMCIF","Cibola National Forest","0303","Cibola National Forest","59","","","MALPAIS","","","","","","1996","1996/06/21 00:00:00+00","173","1040","Natural","Natural","","1996/06/21 00:00:00+00","173","1300","0.1","A","35.095","-108.02333333","USFS","NM","","",""
"-108.128322991","35.051661113","85178","86152","FS-310967","FED","FS-FIRESTAT","FS","USNMCIF","Cibola National Forest","0303","Cibola National Forest","61","","","CHICKEN","","","","","","1996","1996/06/28 00:00:00+00","180","1545","Natural","Natural","","1996/06/28 00:00:00+00","180","1755","0.5","B","35.05166667","-108.12833333","USFS","NM","","",""
"-107.564989765","35.256661051","85179","86153","FS-310968","FED","FS-FIRESTAT","FS","USNMCIF","Cibola National Forest","0303","Cibola National Forest","62","","","COLD","","","","","","1996","1996/07/02 00:00:00+00","184","1500","Natural","Natural","","1996/07/03 00:00:00+00","185","1330","0.1","A","35.25666667","-107.565","STATE OR PRIVATE","NM","","",""
"-107.583323088","35.286661048","85180","86154","FS-310969","FED","FS-FIRESTAT","FS","USNMCIF","Cibola National Forest","0303","Cibola National Forest","63","","","SPUD","","","","","","1996","1996/07/02 00:00:00+00","184","1230","Natural","Natural","","1996/07/03 00:00:00+00","185","1530","0.1","A","35.28666667","-107.58333333","USFS","NM","","",""
"-107.52998977","35.286661045","85181","86155","FS-310970","FED","FS-FIRESTAT","FS","USNMCIF","Cibola National Forest","0303","Cibola National Forest","64","","","CAMP","","","","","","1996","1996/07/02 00:00:00+00","184","1600","Natural","Natural","","1996/07/05 00:00:00+00","187","0800","0.1","A","35.28666667","-107.53","STATE OR PRIVATE","NM","","",""
"-107.466656561","33.931661243","85182","86156","FS-310971","FED","FS-FIRESTAT","FS","USNMCIF","Cibola National Forest","0303","Cibola National Forest","67","","","AL","","","","","","1996","1996/07/08 00:00:00+00","190","2000","Natural","Natural","","1996/07/09 00:00:00+00","191","1230","0.1","A","33.93166667","-107.46666667","USFS","NM","","",""
"-120.996097633","41.376939095","85183","86157","FS-310972","FED","FS-FIRESTAT","FS","USCAMDF","Modoc National Forest","0509","Modoc National Forest","1","","","RUCKER","","","","","","1996","1996/05/11 00:00:00+00","132","1100","Human","Equipment and vehicle use","","1996/05/11 00:00:00+00","132","1200","0.1","A","41.37694444","-120.99611111","USFS","CA","","",""
"-103.621656504","42.703326414","85184","86158","FS-310973","FED","FS-FIRESTAT","FS","USNENBF","Nebraska National Forest","0207","Nebraska National Forest","2","","","TROOPER","","","","","","1996","1996/07/05 00:00:00+00","187","1200","Natural","Natural","","1996/07/06 00:00:00+00","188","1615","20","C","42.70333333","-103.62166667","USFS","NE","","",""
"-103.068323238","43.124992987","85185","86159","FS-310974","FED","FS-FIRESTAT","FS","USNENBF","Nebraska National Forest","0207","Nebraska National Forest","8","","","FRY","","","","","","1996","1996/07/04 00:00:00+00","186","1815","Natural","Natural","","1996/07/04 00:00:00+00","186","2130","3","B","43.125","-103.06833333","USFS","SD","","",""
"-103.558045405","42.734159745","85186","86160","FS-310975","FED","FS-FIRESTAT","FS","USNENBF","Nebraska National Forest","0207","Nebraska National Forest","3","","","ROUNDTOP","","","","","","1996","1996/07/04 00:00:00+00","186","1600","Natural","Natural","","1996/07/04 00:00:00+00","186","1630","0.1","A","42.73416667","-103.55805556","USFS","NE","","",""
"-100.36832409","41.792215188","85187","86161","FS-310976","FED","FS-FIRESTAT","FS","USNENBF","Nebraska National Forest","0207","Nebraska National Forest","4","","","DOUBLE S #1","","","","","","1996","1996/07/03 00:00:00+00","185","1300","Natural","Natural","","1996/07/03 00:00:00+00","185","1500","10","C","41.79222222","-100.36833333","USFS","NE","","",""
"-100.349157435","41.792215187","85188","86162","FS-310977","FED","FS-FIRESTAT","FS","USNENBF","Nebraska National Forest","0207","Nebraska National Forest","5","","","DOUBLE S #2","","","","","","1996","1996/07/03 00:00:00+00","185","1300","Natural","Natural","","1996/07/03 00:00:00+00","185","1600","15","C","41.79222222","-100.34916667","USFS","NE","","",""
"-100.310546336","41.777770746","85189","86163","FS-310978","FED","FS-FIRESTAT","FS","USNENBF","Nebraska National Forest","0207","Nebraska National Forest","6","","","DOUBLE S #3","","","","","","1996","1996/07/03 00:00:00+00","185","1300","Natural","Natural","","1996/07/03 00:00:00+00","185","1600","5","B","41.77777778","-100.31055556","USFS","NE","","",""
"-103.161656548","43.178326317","85190","86164","FS-310979","FED","FS-FIRESTAT","FS","USNENBF","Nebraska National Forest","0207","Nebraska National Forest","7","","","LIME","","","","","","1996","1996/07/04 00:00:00+00","186","1815","Natural","Natural","","1996/07/04 00:00:00+00","186","2100","2","B","43.17833333","-103.16166667","USFS","SD","","",""
"-108.979989739","31.434995028","85191","86165","FS-310980","FED","FS-FIRESTAT","FS","USAZCNF","Coronado National Forest","0305","Coronado National Forest","2","","","CLOVERDALE","","","","","","1996","1996/01/22 00:00:00+00","22","1135","Human","Power generation/transmission/distribution","","1996/01/22 00:00:00+00","22","1300","140","D","31.435","-108.98","STATE OR PRIVATE","NM","","",""
"-109.161656343","31.908328293","85192","86166","FS-310981","FED","FS-FIRESTAT","FS","USAZCNF","Coronado National Forest","0305","Coronado National Forest","10","","","PORTAL","","","","","","1996","1996/03/23 00:00:00+00","83","1410","Human","Debris and open burning","","1996/03/23 00:00:00+00","83","1900","0.3","B","31.90833333","-109.16166667","USFS","AZ","","",""
"-109.188322998","31.884994968","85193","86167","FS-310982","FED","FS-FIRESTAT","FS","USAZCNF","Coronado National Forest","0305","Coronado National Forest","38","","","SUNNY","","","","","","1996","1996/06/07 00:00:00+00","159","1330","Human","Smoking","","1996/06/07 00:00:00+00","159","2200","40","C","31.885","-109.18833333","USFS","AZ","","",""
"-109.133323018","31.753328316","85194","86168","FS-310983","FED","FS-FIRESTAT","FS","USAZCNF","Coronado National Forest","0305","Coronado National Forest","39","","","HORSESHOE","","","","","","1996","1996/06/07 00:00:00+00","159","1830","Natural","Natural","","1996/06/08 00:00:00+00","160","1800","95","C","31.75333333","-109.13333333","USFS","AZ","","",""
"-109.329989643","31.823328314","85195","86169","FS-310984","FED","FS-FIRESTAT","FS","USAZCNF","Coronado National Forest","0305","Coronado National Forest","40","","","TURTLE","","","","","","1996","1996/06/08 00:00:00+00","160","1230","Natural","Natural","","1996/06/08 00:00:00+00","160","2200","2","B","31.82333333","-109.33","USFS","AZ","","",""
"-110.004989445","32.738328209","85196","86170","FS-310985","FED","FS-FIRESTAT","FS","USAZCNF","Coronado National Forest","0305","Coronado National Forest","60","","","BLUEJAY","","","","","","1996","1996/06/29 00:00:00+00","181","1600","Natural","Natural","","1996/06/30 00:00:00+00","182","1630","0.1","A","32.73833333","-110.005","USFS","AZ","","",""
"-109.956656128","32.698328212","85197","86171","FS-310986","FED","FS-FIRESTAT","FS","USAZCNF","Coronado National Forest","0305","Coronado National Forest","21","","","CLARK PEAK","","","AZ3269010993019960424","CLARK PEAK","","1996","1996/04/24 00:00:00+00","115","1652","Human","Missing data/not specified/undetermined","","1996/05/16 00:00:00+00","137","1800","6716","G","32.69833333","-109.95666667","USFS","AZ","","",""
"-110.806655982","32.313328309","85198","86172","FS-310987","FED","FS-FIRESTAT","FS","USAZCNF","Coronado National Forest","0305","Coronado National Forest","5","","","SABINO I","","","","","","1996","1996/02/09 00:00:00+00","40","2300","Human","Recreation and ceremony","","1996/02/09 00:00:00+00","40","2330","0.1","A","32.31333333","-110.80666667","USFS","AZ","","",""
"-111.443322566","31.501661797","85199","86173","FS-310988","FED","FS-FIRESTAT","FS","USAZCNF","Coronado National Forest","0305","Coronado National Forest","83","","","CUMERO","","","","","","1996","1996/07/24 00:00:00+00","206","1950","Natural","Natural","","1996/07/25 00:00:00+00","207","1000","40","C","31.50166667","-111.44333333","USFS","AZ","","",""
"-120.168320267","39.38166142","85200","86174","FS-310989","FED","FS-FIRESTAT","FS","USCATNF","Tahoe National Forest","0517","Tahoe National Forest","9","","","PROSSER","","","","","","1996","1996/07/04 00:00:00+00","186","1405","Human","Missing data/not specified/undetermined","","1996/07/04 00:00:00+00","186","1700","1","B","39.38166667","-120.16833333","MISSING/NOT SPECIFIED","CA","","",""
"-120.093320255","39.571661397","85201","86175","FS-310990","FED","FS-FIRESTAT","FS","USCATNF","Tahoe National Forest","0517","Tahoe National Forest","6","","","CRYSTAL","","","","","","1996","1996/06/12 00:00:00+00","164","1605","Natural","Natural","","1996/06/12 00:00:00+00","164","2000","0.1","A","39.57166667","-120.09333333","USFS","CA","","",""
"-120.371653595","39.223328109","85202","86176","FS-310991","FED","FS-FIRESTAT","FS","USCATNF","Tahoe National Forest","0517","Tahoe National Forest","17","","","WESTERN","","","","","","1996","1996/07/13 00:00:00+00","195","1300","Natural","Natural","","1996/07/14 00:00:00+00","196","1230","0.1","A","39.22333333","-120.37166667","USFS","CA","","",""
"-111.349989254","31.51832845","85203","86177","FS-310992","FED","FS-FIRESTAT","FS","USAZCNF","Coronado National Forest","0305","Coronado National Forest","19","","","LONG SHOT","","","","","","1996","1996/04/18 00:00:00+00","109","1900","Human","Arson/incendiarism","","1996/04/18 00:00:00+00","109","2330","0.3","B","31.51833333","-111.35","USFS","AZ","","",""
"-110.773322682","31.786661725","85204","86178","FS-310993","FED","FS-FIRESTAT","FS","USAZCNF","Coronado National Forest","0305","Coronado National Forest","20","","","GREATERVILLE","","","","","","1996","1996/04/20 00:00:00+00","111","1930","Human","Arson/incendiarism","","1996/04/20 00:00:00+00","111","2330","0.3","B","31.78666667","-110.77333333","USFS","AZ","","",""
"-110.739989365","31.681661739","85205","86179","FS-310994","FED","FS-FIRESTAT","FS","USAZCNF","Coronado National Forest","0305","Coronado National Forest","22","","","HOG","","","","","","1996","1996/05/04 00:00:00+00","125","1230","Human","Recreation and ceremony","","1996/05/04 00:00:00+00","125","2000","52","C","31.68166667","-110.74","USFS","AZ","","",""
"-111.033322654","31.393328454","85206","86180","FS-310995","FED","FS-FIRESTAT","FS","USAZCNF","Coronado National Forest","0305","Coronado National Forest","30","","","RUBY","","","","","","1996","1996/05/14 00:00:00+00","135","1900","Human","Arson/incendiarism","","1996/05/14 00:00:00+00","135","2300","5","B","31.39333333","-111.03333333","USFS","AZ","","",""
"-110.981656006","31.366661796","85207","86181","FS-310996","FED","FS-FIRESTAT","FS","USAZCNF","Coronado National Forest","0305","Coronado National Forest","33","","","ALAMO","","","","","","1996","1996/05/26 00:00:00+00","147","1700","Human","Recreation and ceremony","","1996/05/26 00:00:00+00","147","2300","4.5","B","31.36666667","-110.98166667","USFS","AZ","","",""
"-111.003322659","31.41332845","85208","86182","FS-310997","FED","FS-FIRESTAT","FS","USAZCNF","Coronado National Forest","0305","Coronado National Forest","37","","","HORSE","","","","","","1996","1996/06/04 00:00:00+00","156","2115","Human","Arson/incendiarism","","1996/06/04 00:00:00+00","156","2315","5.5","B","31.41333333","-111.00333333","USFS","AZ","","",""
"-111.108322639","31.399995127","85209","86183","FS-310998","FED","FS-FIRESTAT","FS","USAZCNF","Coronado National Forest","0305","Coronado National Forest","45","","","THUMB","","","","","","1996","1996/06/19 00:00:00+00","171","2031","Human","Misuse of fire by a minor","Minor","1996/06/19 00:00:00+00","171","2130","0.1","A","31.4","-111.10833333","USFS","AZ","","",""
"-113.39998837","37.409994458","85210","86184","FS-310999","FED","FS-FIRESTAT","FS","USUTDIF","Dixie National Forest","0407","Dixie National Forest","38","","","SUMMIT","","","","","","1996","1996/06/26 00:00:00+00","178","1630","Human","Recreation and ceremony","","1996/06/28 00:00:00+00","180","1800","0.3","B","37.41","-113.4","USFS","UT","","",""
"-113.484988356","37.379994467","85211","86185","FS-311000","FED","FS-FIRESTAT","FS","USUTDIF","Dixie National Forest","0407","Dixie National Forest","2","","","PINE VALLEY","","","","","","1996","1996/03/30 00:00:00+00","90","1700","Human","Debris and open burning","","1996/03/30 00:00:00+00","90","1800","6","B","37.38","-113.485","USFS","UT","","",""
"-113.501654999","37.609994441","85212","86186","FS-311001","FED","FS-FIRESTAT","FS","USUTDIF","Dixie National Forest","0407","Dixie National Forest","9","","","PINTO","","","","","","1996","1996/06/02 00:00:00+00","154","1830","Human","Recreation and ceremony","","1996/06/02 00:00:00+00","154","2000","0.1","A","37.61","-113.50166667","USFS","UT","","",""
"-113.983321574","37.539994482","85213","86187","FS-311002","FED","FS-FIRESTAT","FS","USUTDIF","Dixie National Forest","0407","Dixie National Forest","56","","","PINE PARK BENCH","","","","","","1996","1996/07/09 00:00:00+00","191","1500","Natural","Natural","","1996/07/09 00:00:00+00","191","2100","0.5","B","37.54","-113.98333333","USFS","UT","","",""
"-113.33832171","37.424994452","85214","86188","FS-311003","FED","FS-FIRESTAT","FS","USUTDIF","Dixie National Forest","0407","Dixie National Forest","55","","","BALD MOUNTAIN","","","","","","1996","1996/07/08 00:00:00+00","190","1700","Natural","Natural","","1996/07/09 00:00:00+00","191","0800","0.1","A","37.425","-113.33833333","USFS","UT","","",""
"-113.466655028","37.394994464","85215","86189","FS-311004","FED","FS-FIRESTAT","FS","USUTDIF","Dixie National Forest","0407","Dixie National Forest","54","","","GARDNER PEAK","","","","","","1996","1996/07/09 00:00:00+00","191","0830","Natural","Natural","","1996/07/09 00:00:00+00","191","1730","0.1","A","37.395","-113.46666667","USFS","UT","","",""
"-109.934989462","32.694994882","85216","86190","FS-311005","FED","FS-FIRESTAT","FS","USAZCNF","Coronado National Forest","0305","Coronado National Forest","67","","","WEBB","","","","","","1996","1996/07/02 00:00:00+00","184","0800","Natural","Natural","","1996/07/02 00:00:00+00","184","1200","0.2","A","32.695","-109.935","USFS","AZ","","",""
"-109.999989446","32.73166155","85217","86191","FS-311006","FED","FS-FIRESTAT","FS","USAZCNF","Coronado National Forest","0305","Coronado National Forest","70","","","CARTER","","","","","","1996","1996/07/03 00:00:00+00","185","1700","Natural","Natural","","1996/07/04 00:00:00+00","186","1200","0.1","A","32.73166667","-110","USFS","AZ","","",""
"-109.891656141","32.699994879","85218","86192","FS-311007","FED","FS-FIRESTAT","FS","USAZCNF","Coronado National Forest","0305","Coronado National Forest","71","","","ASH","","","","","","1996","1996/07/06 00:00:00+00","188","1430","Natural","Natural","","1996/07/08 00:00:00+00","190","1200","0.2","A","32.7","-109.89166667","USFS","AZ","","",""
"-109.823322819","32.634994885","85219","86193","FS-311008","FED","FS-FIRESTAT","FS","USAZCNF","Coronado National Forest","0305","Coronado National Forest","72","","","SUSPENDER","","","","","","1996","1996/07/06 00:00:00+00","188","1515","Natural","Natural","","1996/07/06 00:00:00+00","188","2000","0.1","A","32.635","-109.82333333","USFS","AZ","","",""
"-109.801656163","32.638328214","85220","86194","FS-311009","FED","FS-FIRESTAT","FS","USAZCNF","Coronado National Forest","0305","Coronado National Forest","73","","","VEACH","","","","","","1996","1996/07/06 00:00:00+00","188","1200","Natural","Natural","","1996/07/06 00:00:00+00","188","1700","0.2","A","32.63833333","-109.80166667","USFS","AZ","","",""
"-109.938322791","32.698328212","85221","86195","FS-311010","FED","FS-FIRESTAT","FS","USAZCNF","Coronado National Forest","0305","Coronado National Forest","74","","","CHESLEY","","","","","","1996","1996/07/06 00:00:00+00","188","1630","Natural","Natural","","1996/07/06 00:00:00+00","188","1745","0.1","A","32.69833333","-109.93833333","USFS","AZ","","",""
"-109.823322819","32.631661556","85222","86196","FS-311011","FED","FS-FIRESTAT","FS","USAZCNF","Coronado National Forest","0305","Coronado National Forest","75","","","SWITCHBACK","","","","","","1996","1996/07/06 00:00:00+00","188","1730","Natural","Natural","","1996/07/07 00:00:00+00","189","0800","0.1","A","32.63166667","-109.82333333","USFS","AZ","","",""
"-109.916656136","32.688328212","85223","86197","FS-311012","FED","FS-FIRESTAT","FS","USAZCNF","Coronado National Forest","0305","Coronado National Forest","76","","","STONEWALL","","","","","","1996","1996/07/07 00:00:00+00","189","1500","Natural","Natural","","1996/07/07 00:00:00+00","189","1830","0.1","A","32.68833333","-109.91666667","USFS","AZ","","",""
"-109.956656129","32.674994886","85224","86198","FS-311013","FED","FS-FIRESTAT","FS","USAZCNF","Coronado National Forest","0305","Coronado National Forest","77","","","GOUDY","","","","","","1996","1996/07/08 00:00:00+00","190","1500","Natural","Natural","","1996/07/09 00:00:00+00","191","1000","0.1","A","32.675","-109.95666667","USFS","AZ","","",""
"-107.546655291","44.572493179","85225","86199","FS-311014","FED","FS-FIRESTAT","FS","USWYBHF","Bighorn National Forest","0202","Bighorn National Forest","2","","","WALK","","","","","","1996","1996/06/22 00:00:00+00","174","1900","Natural","Natural","","1996/06/23 00:00:00+00","175","1400","0.1","A","44.5725","-107.54666667","USFS","WY","","",""
"-107.788044084","44.820548733","85226","86200","FS-311015","FED","FS-FIRESTAT","FS","USWYBHF","Bighorn National Forest","0202","Bighorn National Forest","7","","","LITTLE HORN","","","","","","1996","1996/07/06 00:00:00+00","188","1230","Natural","Natural","","1996/07/06 00:00:00+00","188","1800","0.1","A","44.82055556","-107.78805556","USFS","WY","","",""
"-107.248877631","44.264437628","85227","86201","FS-311016","FED","FS-FIRESTAT","FS","USWYBHF","Bighorn National Forest","0202","Bighorn National Forest","6","","","BELLY ACHE","","","","","","1996","1996/07/14 00:00:00+00","196","1330","Human","Equipment and vehicle use","","1996/07/14 00:00:00+00","196","2100","0.3","B","44.26444444","-107.24888889","USFS","WY","","",""
"-107.494989896","33.789994596","85228","86202","FS-311017","FED","FS-FIRESTAT","FS","USNMCIF","Cibola National Forest","0303","Cibola National Forest","57","","","SIM","","","","","","1996","1996/06/22 00:00:00+00","174","1530","Natural","Natural","","1996/06/25 00:00:00+00","177","1500","0.1","A","33.79","-107.495","USFS","NM","","",""
"-107.206656615","33.961661225","85229","86203","FS-311018","FED","FS-FIRESTAT","FS","USNMCIF","Cibola National Forest","0303","Cibola National Forest","69","","","HARDY","","","","","","1996","1996/07/11 00:00:00+00","193","1039","Natural","Natural","","1996/07/11 00:00:00+00","193","1300","0.1","A","33.96166667","-107.20666667","USFS","NM","","",""
"-120.409986844","39.793328064","85230","86204","FS-311019","FED","FS-FIRESTAT","FS","USCAPNF","Plumas National Forest","0511","Plumas National Forest","31","","","ROSS","","","","","","1996","1996/07/04 00:00:00+00","186","0925","Human","Equipment and vehicle use","","1996/07/04 00:00:00+00","186","1200","0.1","A","39.79333333","-120.41","USFS","CA","","",""
"-120.468320154","39.869994732","85231","86205","FS-311020","FED","FS-FIRESTAT","FS","USCAPNF","Plumas National Forest","0511","Plumas National Forest","32","","","GRIZZLY","","","","","","1996","1996/07/05 00:00:00+00","187","1426","Human","Equipment and vehicle use","","1996/07/05 00:00:00+00","187","1600","0.2","A","39.87","-120.46833333","STATE OR PRIVATE","CA","","",""
"-120.763320102","39.906661423","85232","86206","FS-311021","FED","FS-FIRESTAT","FS","USCAPNF","Plumas National Forest","0511","Plumas National Forest","33","","","GREENHORN","","","","","","1996","1996/07/08 00:00:00+00","190","0600","Natural","Natural","","1996/07/08 00:00:00+00","190","1200","0.3","B","39.90666667","-120.76333333","USFS","CA","","",""
"-120.808320075","40.049994745","85233","86207","FS-311022","FED","FS-FIRESTAT","FS","USCAPNF","Plumas National Forest","0511","Plumas National Forest","34","","","JURA","","","","","","1996","1996/07/08 00:00:00+00","190","0730","Natural","Natural","","1996/07/08 00:00:00+00","190","2030","2","B","40.05","-120.80833333","USFS","CA","","",""
"-121.196653359","40.013328109","85234","86208","FS-311023","FED","FS-FIRESTAT","FS","USCAPNF","Plumas National Forest","0511","Plumas National Forest","30","","","RICH","","","","","","1996","1996/07/02 00:00:00+00","184","1335","Human","Missing data/not specified/undetermined","","1996/07/02 00:00:00+00","184","1630","2","B","40.01333333","-121.19666667","USFS","CA","","",""
"-120.766653436","39.949994749","85235","86209","FS-311024","FED","FS-FIRESTAT","FS","USCAPNF","Plumas National Forest","0511","Plumas National Forest","35","","","ARGENTINE","","","","","","1996","1996/07/08 00:00:00+00","190","0800","Natural","Natural","","1996/07/08 00:00:00+00","190","1200","0.2","A","39.95","-120.76666667","USFS","CA","","",""
"-120.724986735","40.219994724","85236","86210","FS-311025","FED","FS-FIRESTAT","FS","USCAPNF","Plumas National Forest","0511","Plumas National Forest","37","","","LIGHTS CREEK","","","","","","1996","1996/07/08 00:00:00+00","190","1015","Natural","Natural","","1996/07/09 00:00:00+00","191","0800","1","B","40.22","-120.725","USFS","CA","","",""
"-120.591653425","40.226661383","85237","86211","FS-311026","FED","FS-FIRESTAT","FS","USCAPNF","Plumas National Forest","0511","Plumas National Forest","39","","","HALLETT","","","","","","1996","1996/07/08 00:00:00+00","190","0930","Natural","Natural","","1996/07/08 00:00:00+00","190","1730","0.5","B","40.22666667","-120.59166667","USFS","CA","","",""
"-120.681653428","40.10332806","85238","86212","FS-311027","FED","FS-FIRESTAT","FS","USCAPNF","Plumas National Forest","0511","Plumas National Forest","40","","","WHEELER","","","","","","1996","1996/07/08 00:00:00+00","190","0800","Natural","Natural","","1996/07/08 00:00:00+00","190","2000","0.2","A","40.10333333","-120.68166667","USFS","CA","","",""
"-120.983320054","40.004994763","85239","86213","FS-311028","FED","FS-FIRESTAT","FS","USCAPNF","Plumas National Forest","0511","Plumas National Forest","41","","","BUTTERFLY","","","","","","1996","1996/07/08 00:00:00+00","190","0830","Natural","Natural","","1996/07/08 00:00:00+00","190","1615","0.2","A","40.005","-120.98333333","USFS","CA","","",""
"-121.549985948","44.246105611","85240","86214","FS-311029","FED","FS-FIRESTAT","FS","USORDEF","Deschutes National Forest","0601","Deschutes National Forest","2","","","0088","","","","","","1996","1996/04/30 00:00:00+00","121","1512","Human","Recreation and ceremony","","1996/04/30 00:00:00+00","121","1535","0.2","A","44.24611111","-121.55","USFS","OR","","",""
"-121.495263717","44.351105599","85241","86215","FS-311030","FED","FS-FIRESTAT","FS","USORDEF","Deschutes National Forest","0601","Deschutes National Forest","3","","","JOHNSON 107","","","","","","1996","1996/05/07 00:00:00+00","128","1612","Human","Debris and open burning","","1996/05/07 00:00:00+00","128","2100","3.8","B","44.35111111","-121.49527778","MISSING/NOT SPECIFIED","OR","","",""
"-107.154989954","33.989994548","85242","86216","FS-311031","FED","FS-FIRESTAT","FS","USNMCIF","Cibola National Forest","0303","Cibola National Forest","23","","","SAWMILL","","","","","","1996","1996/06/15 00:00:00+00","167","1500","Natural","Natural","","1996/06/20 00:00:00+00","172","1800","0.1","A","33.99","-107.155","USFS","NM","","",""
"-107.478323233","33.731661274","85243","86217","FS-311032","FED","FS-FIRESTAT","FS","USNMCIF","Cibola National Forest","0303","Cibola National Forest","45","","","CANYON","","","","","","1996","1996/06/11 00:00:00+00","163","1505","Natural","Natural","","1996/06/11 00:00:00+00","163","1900","0.1","A","33.73166667","-107.47833333","USFS","NM","","",""
"-107.768323126","34.32499453","85244","86218","FS-311033","FED","FS-FIRESTAT","FS","USNMCIF","Cibola National Forest","0303","Cibola National Forest","52","","","BLUE","","","","","","1996","1996/06/18 00:00:00+00","170","1600","Natural","Natural","","1996/06/19 00:00:00+00","171","1900","3","B","34.325","-107.76833333","STATE OR PRIVATE","NM","","",""
"-81.809996735","29.439994454","85245","86219","FS-311034","FED","FS-FIRESTAT","FS","USFLFNF","National Forests in Florida","0805","National Forests in Florida","1","","","WATERHOLE 1","","","","","","1996","1996/01/05 00:00:00+00","5","1600","Human","Arson/incendiarism","","1996/01/06 00:00:00+00","6","1600","190","D","29.44","-81.81","USFS","FL","","",""
"-111.863321537","41.22166058","85246","86220","FS-311035","FED","FS-FIRESTAT","FS","USUTUWF","Uinta-Wasatch-Cache National Forest","0419","Wasatch-Cache-Uinta National Forest","2","","","SNOW BASIN","","","","","","1996","1996/06/15 00:00:00+00","167","1600","Human","Recreation and ceremony","","1996/06/15 00:00:00+00","167","1800","0.1","A","41.22166667","-111.86333333","USFS","UT","","",""
"-111.904988194","41.25166058","85247","86221","FS-311036","FED","FS-FIRESTAT","FS","USUTUWF","Uinta-Wasatch-Cache National Forest","0419","Wasatch-Cache-Uinta National Forest","4","","","INDIAN","","","","","","1996","1996/06/23 00:00:00+00","175","1700","Human","Fireworks","","1996/06/23 00:00:00+00","175","1800","0.1","A","41.25166667","-111.905","USFS","UT","","",""
"-111.859988219","41.134993919","85248","86222","FS-311037","FED","FS-FIRESTAT","FS","USUTUWF","Uinta-Wasatch-Cache National Forest","0419","Wasatch-Cache-Uinta National Forest","6","","","RAILROAD","","","","","","1996","1996/06/25 00:00:00+00","177","1510","Human","Railroad operations and maintenance","","1996/06/28 00:00:00+00","180","2000","305","E","41.135","-111.86","MISSING/NOT SPECIFIED","UT","","",""
"-111.733321559","41.249993896","85249","86223","FS-311038","FED","FS-FIRESTAT","FS","USUTUWF","Uinta-Wasatch-Cache National Forest","0419","Wasatch-Cache-Uinta National Forest","9","","","CARD CANYON","","","","","","1996","1996/07/02 00:00:00+00","184","0830","Human","Recreation and ceremony","","1996/07/02 00:00:00+00","184","1100","0.1","A","41.25","-111.73333333","USFS","UT","","",""
"-111.7166549","41.266660563","85250","86224","FS-311039","FED","FS-FIRESTAT","FS","USUTUWF","Uinta-Wasatch-Cache National Forest","0419","Wasatch-Cache-Uinta National Forest","10","","","BROWNS ROLL OFF","","","","","","1996","1996/07/02 00:00:00+00","184","1300","Human","Recreation and ceremony","","1996/07/02 00:00:00+00","184","1500","0.2","A","41.26666667","-111.71666667","USFS","UT","","",""
"-111.591654923","41.288327211","85251","86225","FS-311040","FED","FS-FIRESTAT","FS","USUTUWF","Uinta-Wasatch-Cache National Forest","0419","Wasatch-Cache-Uinta National Forest","11","","","CAUSEY","","","","","","1996","1996/07/04 00:00:00+00","186","1815","Human","Smoking","","1996/07/04 00:00:00+00","186","1900","0.2","A","41.28833333","-111.59166667","USFS","UT","","",""
"-108.074989671","35.064994438","85252","86226","FS-311041","FED","FS-FIRESTAT","FS","USNMCIF","Cibola National Forest","0303","Cibola National Forest","73","","","VAL","","","","","","1996","1996/07/05 00:00:00+00","187","1700","Natural","Natural","","1996/07/05 00:00:00+00","187","1730","0.1","A","35.065","-108.075","USFS","NM","","",""
"-108.074989671","35.064994438","85253","86227","FS-311042","FED","FS-FIRESTAT","FS","USNMCIF","Cibola National Forest","0303","Cibola National Forest","72","","","CAPULIN","","","","","","1996","1996/07/05 00:00:00+00","187","1450","Natural","Natural","","1996/07/05 00:00:00+00","187","1645","0.1","A","35.065","-108.075","USFS","NM","","",""
"-108.356656262","35.29999442","85254","86228","FS-311043","FED","FS-FIRESTAT","FS","USNMCIF","Cibola National Forest","0303","Cibola National Forest","71","","","CORRAL","","","","","","1996","1996/07/10 00:00:00+00","192","1300","Natural","Natural","","1996/07/12 00:00:00+00","194","1440","0.1","A","35.3","-108.35666667","USFS","NM","","",""
"-108.074989664","35.153327755","85255","86229","FS-311044","FED","FS-FIRESTAT","FS","USNMCIF","Cibola National Forest","0303","Cibola National Forest","68","","","REDONDO","","","","","","1996","1996/07/10 00:00:00+00","192","1640","Natural","Natural","","1996/07/10 00:00:00+00","192","1800","0.1","A","35.15333333","-108.075","USFS","NM","","",""
"-107.396656555","34.206661198","85256","86230","FS-311045","FED","FS-FIRESTAT","FS","USNMCIF","Cibola National Forest","0303","Cibola National Forest","22","","","DEEP","","","","","","1996","1996/06/08 00:00:00+00","160","1515","Natural","Natural","","1996/06/08 00:00:00+00","160","1732","0.1","A","34.20666667","-107.39666667","USFS","NM","","",""
"-108.39665625","35.339994416","85257","86231","FS-311046","FED","FS-FIRESTAT","FS","USNMCIF","Cibola National Forest","0303","Cibola National Forest","70","","","MCKENZIE","","","","","","1996","1996/07/12 00:00:00+00","194","0900","Natural","Natural","","1996/07/13 00:00:00+00","195","0900","0.1","A","35.34","-108.39666667","USFS","NM","","",""
"-124.06665219","44.468328066","85258","86232","FS-311047","FED","FS-FIRESTAT","FS","USORSUF","Siuslaw National Forest","0612","Siuslaw National Forest","6","","","FRIDAY CREEK","","","","","","1996","1996/07/16 00:00:00+00","198","1630","Human","Equipment and vehicle use","","1996/07/17 00:00:00+00","199","0900","11","C","44.46833333","-124.06666667","MISSING/NOT SPECIFIED","OR","","",""
"-124.034985543","44.369994738","85259","86233","FS-311048","FED","FS-FIRESTAT","FS","USORSUF","Siuslaw National Forest","0612","Siuslaw National Forest","5","","","KITTLE","","","","","","1996","1996/07/10 00:00:00+00","192","1900","Human","Missing data/not specified/undetermined","","1996/07/10 00:00:00+00","192","2300","1.1","B","44.37","-124.035","MISSING/NOT SPECIFIED","OR","","",""
"-123.856652102","45.066661351","85260","86234","FS-311049","FED","FS-FIRESTAT","FS","USORSUF","Siuslaw National Forest","0612","Siuslaw National Forest","2","","","LINCOLN","","","","","","1996","1996/06/20 00:00:00+00","172","1150","Human","Equipment and vehicle use","","1996/06/20 00:00:00+00","172","1215","0.1","A","45.06666667","-123.85666667","USFS","OR","","",""
"-123.958318703","45.27832801","85261","86235","FS-311050","FED","FS-FIRESTAT","FS","USORSUF","Siuslaw National Forest","0612","Siuslaw National Forest","4","","","SAND BEACH-63","","","","","","1996","1996/07/07 00:00:00+00","189","1818","Human","Recreation and ceremony","","1996/07/07 00:00:00+00","189","1904","0.1","A","45.27833333","-123.95833333","USFS","OR","","",""
"-123.958318702","45.28332801","85262","86236","FS-311051","FED","FS-FIRESTAT","FS","USORSUF","Siuslaw National Forest","0612","Siuslaw National Forest","7","","","SANDLAKE #1-71","","","","","","1996","1996/07/21 00:00:00+00","203","1100","Human","Recreation and ceremony","","1996/07/21 00:00:00+00","203","1200","0.2","A","45.28333333","-123.95833333","USFS","OR","","",""
"-111.133322481","33.668328133","85263","86237","FS-311052","FED","FS-FIRESTAT","FS","USAZTNF","Tonto National Forest","0312","Tonto National Forest","87","","","ROOSEVELT","","","","","","1996","1996/05/26 00:00:00+00","147","1712","Human","Missing data/not specified/undetermined","","1996/05/26 00:00:00+00","147","1730","0.1","A","33.66833333","-111.13333333","USFS","AZ","","",""
"-110.921655872","33.551661479","85264","86238","FS-311053","FED","FS-FIRESTAT","FS","USAZTNF","Tonto National Forest","0312","Tonto National Forest","89","","","SUMMIT #2","","","","","","1996","1996/05/29 00:00:00+00","150","1250","Human","Smoking","","1996/05/30 00:00:00+00","151","1200","60","C","33.55166667","-110.92166667","USFS","AZ","","",""
"-111.08332249","33.67166147","85265","86239","FS-311054","FED","FS-FIRESTAT","FS","USAZTNF","Tonto National Forest","0312","Tonto National Forest","9","","","HILL","","","","","","1996","1996/02/17 00:00:00+00","48","1801","Human","Missing data/not specified/undetermined","","1996/02/17 00:00:00+00","48","1815","0.1","A","33.67166667","-111.08333333","USFS","AZ","","",""
"-111.086655825","33.733328122","85266","86240","FS-311055","FED","FS-FIRESTAT","FS","USAZTNF","Tonto National Forest","0312","Tonto National Forest","15","","","HAT 1","","","","","","1996","1996/03/04 00:00:00+00","64","0830","Human","Missing data/not specified/undetermined","","1996/03/04 00:00:00+00","64","1100","0.1","A","33.73333333","-111.08666667","USFS","AZ","","",""
"-111.086655825","33.733328122","85267","86241","FS-311056","FED","FS-FIRESTAT","FS","USAZTNF","Tonto National Forest","0312","Tonto National Forest","16","","","HAT 2","","","","","","1996","1996/03/04 00:00:00+00","64","0830","Human","Missing data/not specified/undetermined","","1996/03/04 00:00:00+00","64","1100","0.1","A","33.73333333","-111.08666667","USFS","AZ","","",""
"-111.268322444","33.799994792","85268","86242","FS-311057","FED","FS-FIRESTAT","FS","USAZTNF","Tonto National Forest","0312","Tonto National Forest","19","","","RED","","","","","","1996","1996/03/21 00:00:00+00","81","1415","Human","Missing data/not specified/undetermined","","1996/03/21 00:00:00+00","81","1500","0.1","A","33.8","-111.26833333","USFS","AZ","","",""
"-111.334989079","34.071661428","85269","86243","FS-311058","FED","FS-FIRESTAT","FS","USAZTNF","Tonto National Forest","0312","Tonto National Forest","21","","","BLACK","","","","","","1996","1996/03/23 00:00:00+00","83","1430","Human","Missing data/not specified/undetermined","","1996/03/23 00:00:00+00","83","2000","5","B","34.07166667","-111.335","USFS","AZ","","",""
"-111.28332244","33.806661462","85270","86244","FS-311059","FED","FS-FIRESTAT","FS","USAZTNF","Tonto National Forest","0312","Tonto National Forest","23","","","BAR X","","","","","","1996","1996/03/24 00:00:00+00","84","0245","Human","Missing data/not specified/undetermined","","1996/03/24 00:00:00+00","84","0400","0.1","A","33.80666667","-111.28333333","USFS","AZ","","",""
"-110.923322532","33.53832814","85271","86245","FS-311060","FED","FS-FIRESTAT","FS","USAZTNF","Tonto National Forest","0312","Tonto National Forest","24","","","SUMMIT","","","","","","1996","1996/03/26 00:00:00+00","86","2315","Human","Equipment and vehicle use","","1996/03/27 00:00:00+00","87","0130","0.1","A","33.53833333","-110.92333333","USFS","AZ","","",""
"-110.999989179","33.649994799","85272","86246","FS-311061","FED","FS-FIRESTAT","FS","USAZTNF","Tonto National Forest","0312","Tonto National Forest","48","","","POINT","","","","","","1996","1996/04/20 00:00:00+00","111","1200","Human","Recreation and ceremony","","1996/04/20 00:00:00+00","111","1245","0.1","A","33.65","-111","USFS","AZ","","",""
"-111.121655823","33.671661472","85273","86247","FS-311062","FED","FS-FIRESTAT","FS","USAZTNF","Tonto National Forest","0312","Tonto National Forest","50","","","MARINA","","","","","","1996","1996/04/23 00:00:00+00","114","1025","Human","Equipment and vehicle use","","1996/04/23 00:00:00+00","114","1100","0.1","A","33.67166667","-111.12166667","USFS","AZ","","",""
