"ï»¿X","Y","OBJECTID","FOD_ID","FPA_ID","SOURCE_SYSTEM_TYPE","SOURCE_SYSTEM","NWCG_REPORTING_AGENCY","NWCG_REPORTING_UNIT_ID","NWCG_REPORTING_UNIT_NAME","SOURCE_REPORTING_UNIT","SOURCE_REPORTING_UNIT_NAME","LOCAL_FIRE_REPORT_ID","LOCAL_INCIDENT_ID","FIRE_CODE","FIRE_NAME","ICS_209_PLUS_INCIDENT_JOIN_ID","ICS_209_PLUS_COMPLEX_JOIN_ID","MTBS_ID","MTBS_FIRE_NAME","COMPLEX_NAME","FIRE_YEAR","DISCOVERY_DATE","DISCOVERY_DOY","DISCOVERY_TIME","NWCG_CAUSE_CLASSIFICATION","NWCG_GENERAL_CAUSE","NWCG_CAUSE_AGE_CATEGORY","CONT_DATE","CONT_DOY","CONT_TIME","FIRE_SIZE","FIRE_SIZE_CLASS","LATITUDE","LONGITUDE","OWNER_DESCR","STATE","COUNTY","FIPS_CODE","FIPS_NAME"
"-114.205018385","35.715214712","1465001","201106748","W-621950","FED","DOI-WFMI","BLM","USAZCRD","Colorado River District","AZCRD","Colorado River District","","","","ARCHIBALD","","","","","","2011","2011/07/10 00:00:00+00","191","1646","Natural","Natural","","2011/07/12 00:00:00+00","193","1345","36.2","C","35.71522","-114.20503","BLM","AZ","Mohave","04015","Mohave County"
"-113.380568567","35.433304697","1465002","201106749","W-621703","FED","DOI-WFMI","BLM","USAZCRD","Colorado River District","AZCRD","Colorado River District","","","","ANTELOPE","","","","","","2011","2011/07/03 00:00:00+00","184","2000","Natural","Natural","","2011/07/04 00:00:00+00","185","0830","0.1","A","35.43331","-113.38058","BLM","AZ","Mohave","04015","Mohave County"
"-113.952878418","35.869244678","1465003","201106750","W-621442","FED","DOI-WFMI","BLM","USAZCRD","Colorado River District","AZCRD","Colorado River District","","","","DIAMOND BAR","","","","","","2011","2011/07/05 00:00:00+00","186","2100","Natural","Natural","","2011/07/06 00:00:00+00","187","1800","0.5","B","35.86925","-113.95289","BLM","AZ","Mohave","04015","Mohave County"
"-113.853348505","35.120024764","1465004","201106751","W-621941","FED","DOI-WFMI","BLM","USAZCRD","Colorado River District","AZCRD","Colorado River District","","","","DEAN","","","","","","2011","2011/07/06 00:00:00+00","187","1030","Natural","Natural","","2011/07/06 00:00:00+00","187","1600","0.3","B","35.12003","-113.85336","BLM","AZ","Mohave","04015","Mohave County"
"-113.879548506","35.052274774","1465005","201106752","W-621945","FED","DOI-WFMI","BLM","USAZCRD","Colorado River District","AZCRD","Colorado River District","","","","JACKMAN","","","","","","2011","2011/07/06 00:00:00+00","187","1700","Natural","Natural","","2011/07/06 00:00:00+00","187","2030","0.1","A","35.05228","-113.87956","BLM","AZ","Mohave","04015","Mohave County"
"-113.888408503","35.063884773","1465006","201106754","W-621942","FED","DOI-WFMI","BLM","USAZCRD","Colorado River District","AZCRD","Colorado River District","","","","WILDCOW","","","","","","2011","2011/07/06 00:00:00+00","187","1530","Natural","Natural","","2011/07/06 00:00:00+00","187","2030","0.1","A","35.06389","-113.88842","BLM","AZ","Mohave","04015","Mohave County"
"-113.890788501","35.078294772","1465007","201106755","W-622089","FED","DOI-WFMI","BLM","USAZCRD","Colorado River District","AZCRD","Colorado River District","","","","WHEELER","","","","","","2011","2011/07/06 00:00:00+00","187","1622","Natural","Natural","","2011/07/07 00:00:00+00","188","1650","0.1","A","35.0783","-113.8908","BLM","AZ","Mohave","04015","Mohave County"
"-114.252268399","35.469964745","1465008","201106757","W-621642","FED","DOI-WFMI","BLM","USAZCRD","Colorado River District","AZCRD","Colorado River District","","","","PUTMAN WASH","","","","","","2011","2011/07/08 00:00:00+00","189","1215","Natural","Natural","","2011/07/08 00:00:00+00","189","1435","0.1","A","35.46997","-114.25228","BLM","AZ","Mohave","04015","Mohave County"
"-114.366678354","35.728024721","1465009","201106758","W-621643","FED","DOI-WFMI","BLM","USAZCRD","Colorado River District","AZCRD","Colorado River District","","","","PRINCE ALBERT","","","","","","2011","2011/07/09 00:00:00+00","190","1520","Natural","Natural","","2011/07/09 00:00:00+00","190","2056","6","B","35.72803","-114.36669","BLM","AZ","Mohave","04015","Mohave County"
"-113.934488482","35.197994759","1465010","201106759","W-623091","FED","DOI-WFMI","BLM","USAZCRD","Colorado River District","AZCRD","Colorado River District","","","","RATTLESNAKE","","","","","","2011","2011/07/21 00:00:00+00","202","2247","Human","Equipment and vehicle use","","2011/07/22 00:00:00+00","203","1630","0.1","A","35.198","-113.9345","BLM","AZ","Mohave","04015","Mohave County"
"-114.583888555","32.767195102","1465011","201106760","W-622135","FED","DOI-WFMI","BLM","USAZCRD","Colorado River District","AZCRD","Colorado River District","","","","HAY STACK","","","","","","2011","2011/07/13 00:00:00+00","194","1713","Natural","Natural","","2011/07/18 00:00:00+00","199","1800","7","B","32.7672","-114.5839","STATE","CA","Imperial","06025","Imperial County"
"-113.962488407","35.970294667","1465012","201106762","W-624206","FED","DOI-WFMI","BLM","USAZCRD","Colorado River District","AZCRD","Colorado River District","","","","GRAND WASH","","","","","GRAND WASH COMPLEX","2011","2011/08/03 00:00:00+00","215","1500","Natural","Natural","","2011/08/09 00:00:00+00","221","1700","215","D","35.9703","-113.9625","BLM","AZ","Mohave","04015","Mohave County"
"-114.418288586","32.756395095","1465013","201106766","W-624840","FED","DOI-WFMI","BLM","USAZCRD","Colorado River District","AZCRD","Colorado River District","","","","REFRIDGERATOR","","","","","","2011","2011/08/08 00:00:00+00","220","1324","Human","Arson/incendiarism","","2011/08/08 00:00:00+00","220","1511","0.1","A","32.7564","-114.4183","BLM","AZ","Yuma","04027","Yuma County"
"-114.136658435","35.304634758","1465014","201106767","W-625292","FED","DOI-WFMI","BLM","USAZCRD","Colorado River District","AZCRD","Colorado River District","","","","CERBAT","","","","","","2011","2011/08/17 00:00:00+00","229","2300","Natural","Natural","","2011/08/19 00:00:00+00","231","1110","3","B","35.30464","-114.13667","PRIVATE","AZ","Mohave","04015","Mohave County"
"-113.917428489","35.157994763","1465015","201106768","W-625387","FED","DOI-WFMI","BLM","USAZCRD","Colorado River District","AZCRD","Colorado River District","","","","DW RANCH","","","","","","2011","2011/08/19 00:00:00+00","231","1430","Natural","Natural","","2011/08/20 00:00:00+00","232","0800","2","B","35.158","-113.91744","BLM","AZ","Mohave","04015","Mohave County"
"-114.126888459","35.049394789","1465016","201106769","W-625776","FED","DOI-WFMI","BLM","USAZCRD","Colorado River District","AZCRD","Colorado River District","","","","I40","","","","","","2011","2011/08/23 00:00:00+00","235","1600","Human","Missing data/not specified/undetermined","","2011/08/23 00:00:00+00","235","1700","0.3","B","35.0494","-114.1269","PRIVATE","AZ","Mohave","04015","Mohave County"
"-114.184988427","35.295794762","1465017","201106770","W-627172","FED","DOI-WFMI","BLM","USAZCRD","Colorado River District","AZCRD","Colorado River District","","","","WHITE ELEPHANT","","","","","","2011","2011/08/24 00:00:00+00","236","1752","Human","Equipment and vehicle use","","2011/08/24 00:00:00+00","236","1810","0.1","A","35.2958","-114.185","BLM","AZ","Mohave","04015","Mohave County"
"-113.507658608","34.6759948","1465018","201106772","W-626039","FED","DOI-WFMI","BLM","USAZCRD","Colorado River District","AZCRD","Colorado River District","","","","BURRO CLIFFS","","","","","","2011","2011/08/28 00:00:00+00","240","0800","Natural","Natural","","2011/08/28 00:00:00+00","240","1715","0.5","B","34.676","-113.50767","PRIVATE","AZ","Mohave","04015","Mohave County"
"-114.342568389","35.38877476","1465019","201106774","W-626428","FED","DOI-WFMI","BLM","USAZCRD","Colorado River District","AZCRD","Colorado River District","","","","JUNIPER","","","","","","2011","2011/08/27 00:00:00+00","239","1450","Natural","Natural","","2011/08/29 00:00:00+00","241","1700","1","B","35.38878","-114.34258","BLM","AZ","Mohave","04015","Mohave County"
"-113.971688485","35.094194774","1465020","201106775","W-627176","FED","DOI-WFMI","BLM","USAZCRD","Colorado River District","AZCRD","Colorado River District","","","","YELLOW FLOWER","","","","","","2011","2011/08/27 00:00:00+00","239","1523","Natural","Natural","","2011/08/28 00:00:00+00","240","0828","0.3","B","35.0942","-113.9717","BLM","AZ","Mohave","04015","Mohave County"
"-114.184188491","34.554194854","1465021","201106776","W-625839","FED","DOI-WFMI","BLM","USAZCRD","Colorado River District","AZCRD","Colorado River District","","","","CROSSMAN PEAK","","","","","","2011","2011/08/25 00:00:00+00","237","1213","Human","Missing data/not specified/undetermined","","2011/08/25 00:00:00+00","237","2230","0.1","A","34.5542","-114.1842","PRIVATE","AZ","Mohave","04015","Mohave County"
"-114.43290852","33.610524986","1465022","201106778","W-626302","FED","DOI-WFMI","BLM","USAZCRD","Colorado River District","AZCRD","Colorado River District","","","","RV","","","","","","2011","2011/08/29 00:00:00+00","241","1725","Human","Missing data/not specified/undetermined","","2011/08/30 00:00:00+00","242","1425","0.1","A","33.61053","-114.43292","BLM","AZ","Yuma","04027","Yuma County"
"-113.958588488","35.087494774","1465023","201106779","W-627264","FED","DOI-WFMI","BLM","USAZCRD","Colorado River District","AZCRD","Colorado River District","","","","PINE LAKE","","","","","","2011","2011/09/13 00:00:00+00","256","0643","Natural","Natural","","2011/09/15 00:00:00+00","258","0845","0.1","A","35.0875","-113.9586","BLM","AZ","Mohave","04015","Mohave County"
"-114.608888531","33.02499507","1465024","201106780","W-627488","FED","DOI-WFMI","BLM","USAZCRD","Colorado River District","AZCRD","Colorado River District","","","","PICACHO STATE PARK","","","","","","2011","2011/09/13 00:00:00+00","256","1920","Natural","Natural","","2011/09/16 00:00:00+00","259","1800","1.5","B","33.025","-114.6089","STATE","CA","Imperial","06025","Imperial County"
"-114.244178377","35.719684714","1465025","201106781","W-627146","FED","DOI-WFMI","BLM","USAZCRD","Colorado River District","AZCRD","Colorado River District","","","","PEARCE FERRY","","","","","","2011","2011/09/09 00:00:00+00","252","1800","Natural","Natural","","2011/09/10 00:00:00+00","253","1245","1.5","B","35.71969","-114.24419","BLM","AZ","Mohave","04015","Mohave County"
"-113.954388498","34.979994788","1465026","201106782","W-627896","FED","DOI-WFMI","BLM","USAZCRD","Colorado River District","AZCRD","Colorado River District","","","","WABAYUMA","2011_AZ-CRD-111338_WABAYUMA","","","","","2011","2011/09/17 00:00:00+00","260","0832","Natural","Natural","","2011/10/03 00:00:00+00","276","0800","67","C","34.98","-113.9544","BLM","AZ","Mohave","04015","Mohave County"
"-113.906888512","34.918594792","1465027","201106783","W-627897","FED","DOI-WFMI","BLM","USAZCRD","Colorado River District","AZCRD","Colorado River District","","","","BORIANA","","","","","","2011","2011/09/18 00:00:00+00","261","1403","Natural","Natural","","2011/09/21 00:00:00+00","264","1630","2","B","34.9186","-113.9069","BLM","AZ","Mohave","04015","Mohave County"
"-114.522788408","34.786694845","1465028","201106785","W-629096","FED","DOI-WFMI","BLM","USAZCRD","Colorado River District","AZCRD","Colorado River District","","","","LAMB WELL","","","","","","2011","2011/09/29 00:00:00+00","272","1519","Human","Equipment and vehicle use","","2011/09/29 00:00:00+00","272","1622","0.1","A","34.7867","-114.5228","BLM","AZ","Mohave","04015","Mohave County"
"-114.47998857","32.82249509","1465029","201106786","W-630354","FED","DOI-WFMI","BLM","USAZCRD","Colorado River District","AZCRD","Colorado River District","","","","TANK","","","","","","2011","2011/10/18 00:00:00+00","291","1109","Human","Missing data/not specified/undetermined","","2011/10/20 00:00:00+00","293","1555","1","B","32.8225","-114.48","BLM","AZ","Yuma","04027","Yuma County"
"-114.541598407","34.756994849","1465030","201106787","W-629658","FED","DOI-WFMI","BLM","USAZCRD","Colorado River District","AZCRD","Colorado River District","","","","BEALE","","","","","","2011","2011/10/08 00:00:00+00","281","2300","Human","Missing data/not specified/undetermined","","2011/10/09 00:00:00+00","282","1000","1","B","34.757","-114.54161","PRIVATE","CA","San Bernardino","06071","San Bernardino County"
"-113.628588572","34.828294787","1465031","201106788","W-630352","FED","DOI-WFMI","BLM","USAZCRD","Colorado River District","AZCRD","Colorado River District","","","","DELUGE","","","","","","2011","2011/10/16 00:00:00+00","289","1306","Human","Missing data/not specified/undetermined","","2011/10/16 00:00:00+00","289","1600","0.1","A","34.8283","-113.6286","PRIVATE","AZ","Mohave","04015","Mohave County"
"-114.125788642","32.728595084","1465032","201106789","W-632082","FED","DOI-WFMI","BLM","USAZCRD","Colorado River District","AZCRD","Colorado River District","","","","RED TOP","","","","","","2011","2011/12/09 00:00:00+00","343","1600","Human","Recreation and ceremony","","2011/12/13 00:00:00+00","347","1235","0.1","A","32.7286","-114.1258","BLM","AZ","Yuma","04027","Yuma County"
"-113.271888794","32.847795026","1465033","201106791","W-617730","FED","DOI-WFMI","BLM","USAZPHD","Phoenix District Office","AZPHD","Phoenix District","","","","TWO FEET","","","","","","2011","2011/02/04 00:00:00+00","35","1127","Human","Missing data/not specified/undetermined","","2011/02/04 00:00:00+00","35","1400","0.1","A","32.8478","-113.2719","BLM","AZ","Maricopa","04013","Maricopa County"
"-112.177791918","34.014994812","1465034","201106792","W-618636","FED","DOI-WFMI","BLM","USAZPHD","Phoenix District Office","AZPHD","Phoenix District","","","","TABLE MESA","","","","","","2011","2011/04/03 00:00:00+00","93","1704","Human","Missing data/not specified/undetermined","","2011/04/03 00:00:00+00","93","1800","0.1","A","34.015","-112.177803","BLM","AZ","Maricopa","04013","Maricopa County"
"-112.822188802","33.893094863","1465035","201106793","W-618310","FED","DOI-WFMI","BLM","USAZPHD","Phoenix District Office","AZPHD","Phoenix District","","","","VULTUE PEAK","","","","","","2011","2011/03/17 00:00:00+00","76","1230","Human","Missing data/not specified/undetermined","","2011/03/17 00:00:00+00","76","1300","0.1","A","33.8931","-112.8222","BLM","AZ","Maricopa","04013","Maricopa County"
"-112.123888913","34.203894784","1465036","201106795","W-619213","FED","DOI-WFMI","BLM","USAZPHD","Phoenix District Office","AZPHD","Phoenix District","","","","SUNSET POINT","","","","","","2011","2011/04/28 00:00:00+00","118","0130","Human","Missing data/not specified/undetermined","","2011/05/04 00:00:00+00","124","1200","68","C","34.2039","-112.1239","BLM","AZ","Maricopa","04013","Maricopa County"
"-112.68108889","33.089694963","1465037","201106797","W-618923","FED","DOI-WFMI","BLM","USAZPHD","Phoenix District Office","AZPHD","Phoenix District","","","","PIERPOINT","","","","","","2011","2011/04/18 00:00:00+00","108","1613","Human","Debris and open burning","","2011/04/23 00:00:00+00","113","1600","51.4","C","33.0897","-112.6811","STATE","AZ","Maricopa","04013","Maricopa County"
"-112.146088925","33.996394813","1465038","201106798","W-625542","FED","DOI-WFMI","BLM","USAZPHD","Phoenix District Office","AZPHD","Phoenix District","","","","TABLE MESA CAMPFIRE","","","","","","2011","2011/05/24 00:00:00+00","144","1011","Human","Recreation and ceremony","","2011/05/24 00:00:00+00","144","1117","0.1","A","33.9964","-112.1461","BLM","AZ","Maricopa","04013","Maricopa County"
"-112.3349889","33.849394843","1465039","201106799","W-619569","FED","DOI-WFMI","BLM","USAZPHD","Phoenix District Office","AZPHD","Phoenix District","","","","CASTLE ROCK SPRINGS","","","","","","2011","2011/05/06 00:00:00+00","126","1621","Human","Missing data/not specified/undetermined","","2011/05/07 00:00:00+00","127","1700","5","B","33.8494","-112.335","PRIVATE","AZ","Maricopa","04013","Maricopa County"
"-112.158288913","34.120794797","1465040","201106800","W-619570","FED","DOI-WFMI","BLM","USAZPHD","Phoenix District Office","AZPHD","Phoenix District","","","","MAGGIE","","","","","","2011","2011/05/07 00:00:00+00","127","1645","Human","Missing data/not specified/undetermined","","2011/07/07 00:00:00+00","188","1800","5","B","34.1208","-112.1583","BLM","AZ","Maricopa","04013","Maricopa County"
"-112.166388907","34.17389479","1465041","201106801","W-619572","FED","DOI-WFMI","BLM","USAZPHD","Phoenix District Office","AZPHD","Phoenix District","","","","BUMBLE BEE","","","","","","2011","2011/05/09 00:00:00+00","129","1500","Human","Smoking","","2011/05/11 00:00:00+00","131","1700","1.5","B","34.1739","-112.1664","BLM","AZ","Maricopa","04013","Maricopa County"
"-113.059688831","32.890795009","1465042","201106802","W-619809","FED","DOI-WFMI","BLM","USAZPHD","Phoenix District Office","AZPHD","Phoenix District","","","","GILA","","","","","","2011","2011/05/19 00:00:00+00","139","1214","Human","Equipment and vehicle use","","2011/05/19 00:00:00+00","139","1800","0.3","B","32.8908","-113.0597","BLM","AZ","Maricopa","04013","Maricopa County"
"-112.133288913","34.185294787","1465043","201106804","W-620237","FED","DOI-WFMI","BLM","USAZPHD","Phoenix District Office","AZPHD","Phoenix District","","","","SHEEP GULCH","","","","","","2011","2011/05/27 00:00:00+00","147","2143","Human","Missing data/not specified/undetermined","","2011/05/28 00:00:00+00","148","1800","0.5","B","34.1853","-112.1333","BLM","AZ","Yavapai","04025","Yavapai County"
"-112.137488927","33.998094812","1465044","201106805","W-620024","FED","DOI-WFMI","BLM","USAZPHD","Phoenix District Office","AZPHD","Phoenix District","","","","MOORE GULCH","","","","","","2011","2011/05/29 00:00:00+00","149","1700","Human","Equipment and vehicle use","","2011/06/01 00:00:00+00","152","1500","0.1","A","33.9981","-112.1375","BLM","AZ","Maricopa","04013","Maricopa County"
"-112.106388928","34.063294801","1465045","201106806","W-620238","FED","DOI-WFMI","BLM","USAZPHD","Phoenix District Office","AZPHD","Phoenix District","","","","MUD SPRINGS","2011_AZ-PHD-110641_MUD SPRINGS","","","","","2011","2011/06/04 00:00:00+00","155","1341","Human","Missing data/not specified/undetermined","","2011/06/11 00:00:00+00","162","1800","140","D","34.0633","-112.1064","BLM","AZ","Yavapai","04025","Yavapai County"
"-112.139988925","34.019394809","1465046","201106808","W-620239","FED","DOI-WFMI","BLM","USAZPHD","Phoenix District Office","AZPHD","Phoenix District","","","","LITTLE S","","","","","","2011","2011/06/10 00:00:00+00","161","1549","Human","Missing data/not specified/undetermined","","2011/06/11 00:00:00+00","162","1800","0.5","B","34.0194","-112.14","BLM","AZ","Maricopa","04013","Maricopa County"
"-113.29248879","32.843895027","1465047","201106809","W-620310","FED","DOI-WFMI","BLM","USAZPHD","Phoenix District Office","AZPHD","Phoenix District","","","","REST AREA","","","","","","2011","2011/06/12 00:00:00+00","163","1258","Human","Missing data/not specified/undetermined","","2011/06/13 00:00:00+00","164","1800","0.1","A","32.8439","-113.2925","BLM","AZ","Maricopa","04013","Maricopa County"
"-112.816688791","34.053369842","1465048","201106811","W-621087","FED","DOI-WFMI","BLM","USAZPHD","Phoenix District Office","AZPHD","Phoenix District","","","","FLORES","","","","","","2011","2011/07/01 00:00:00+00","182","1703","Human","Missing data/not specified/undetermined","","2011/07/01 00:00:00+00","182","1845","0.3","B","34.053375","-112.8167","STATE","AZ","Yavapai","04025","Yavapai County"
"-112.149688919","34.068594803","1465049","201106812","W-622066","FED","DOI-WFMI","BLM","USAZPHD","Phoenix District Office","AZPHD","Phoenix District","","","","SPENCER","","","","","","2011","2011/07/02 00:00:00+00","183","1651","Natural","Natural","","2011/07/02 00:00:00+00","183","2000","3","B","34.0686","-112.1497","PRIVATE","AZ","Yavapai","04025","Yavapai County"
"-112.133288913","34.184194787","1465050","201106813","W-624166","FED","DOI-WFMI","BLM","USAZPHD","Phoenix District Office","AZPHD","Phoenix District","","","","BLACK MESA","","","","","","2011","2011/07/03 00:00:00+00","184","1000","Human","Equipment and vehicle use","","2011/07/04 00:00:00+00","185","1400","3.7","B","34.1842","-112.1333","BLM","AZ","Yavapai","04025","Yavapai County"
"-112.116688906","34.316894768","1465051","201106815","W-620934","FED","DOI-WFMI","BLM","USAZPHD","Phoenix District Office","AZPHD","Phoenix District","","","","CORDES PEAK","","","","","","2011","2011/06/24 00:00:00+00","175","1402","Human","Missing data/not specified/undetermined","","2011/06/24 00:00:00+00","175","1900","0.1","A","34.3169","-112.1167","PRIVATE","AZ","Yavapai","04025","Yavapai County"
"-112.104388926","34.098594797","1465052","201106816","W-621026","FED","DOI-WFMI","BLM","USAZPHD","Phoenix District Office","AZPHD","Phoenix District","","","","ROCK CANYON","","","","","","2011","2011/06/29 00:00:00+00","180","1600","Human","Equipment and vehicle use","","2011/06/30 00:00:00+00","181","1630","0.1","A","34.0986","-112.1044","BLM","AZ","Yavapai","04025","Yavapai County"
"-112.042788926","34.248294773","1465053","201106817","W-622063","FED","DOI-WFMI","BLM","USAZPHD","Phoenix District Office","AZPHD","Phoenix District","","","","AGUA FRIA","","","","","","2011","2011/07/03 00:00:00+00","184","1925","Natural","Natural","","2011/07/13 00:00:00+00","194","1200","77","C","34.2483","-112.0428","BLM","AZ","Yavapai","04025","Yavapai County"
"-112.133588913","34.180594787","1465054","201106818","W-624225","FED","DOI-WFMI","BLM","USAZPHD","Phoenix District Office","AZPHD","Phoenix District","","","","IGLOO","","","","","","2011","2011/07/15 00:00:00+00","196","2030","Human","Missing data/not specified/undetermined","","2011/07/16 00:00:00+00","197","1345","6","B","34.1806","-112.1336","BLM","AZ","Yavapai","04025","Yavapai County"
"-112.140788915","34.147494792","1465055","201106819","W-622390","FED","DOI-WFMI","BLM","USAZPHD","Phoenix District Office","AZPHD","Phoenix District","","","","SHEEP GULCH SPRINGS","","","","","","2011","2011/07/18 00:00:00+00","199","0700","Human","Equipment and vehicle use","","2011/07/18 00:00:00+00","199","1030","0.1","A","34.1475","-112.1408","BLM","AZ","Maricopa","04013","Maricopa County"
"-112.112788915","34.214194782","1465056","201106821","W-624142","FED","DOI-WFMI","BLM","USAZPHD","Phoenix District Office","AZPHD","Phoenix District","","","","SUNSET","","","","","","2011","2011/08/03 00:00:00+00","215","1258","Human","Missing data/not specified/undetermined","","2011/08/11 00:00:00+00","223","1800","51.5","C","34.2142","-112.1128","BLM","AZ","Yavapai","04025","Yavapai County"
"-112.116658916","34.193324785","1465057","201106822","W-624144","FED","DOI-WFMI","BLM","USAZPHD","Phoenix District Office","AZPHD","Phoenix District","","","","LARRY CREEK","","","","","","2011","2011/07/29 00:00:00+00","210","1520","Natural","Natural","","2011/08/06 00:00:00+00","218","1300","94.2","C","34.19333","-112.11667","BLM","AZ","Yavapai","04025","Yavapai County"
"-112.127188905","34.301094771","1465058","201106823","W-623918","FED","DOI-WFMI","BLM","USAZPHD","Phoenix District Office","AZPHD","Phoenix District","","","","JOES HILL","","","","","","2011","2011/07/30 00:00:00+00","211","1520","Human","Equipment and vehicle use","","2011/07/31 00:00:00+00","212","1430","1.2","B","34.3011","-112.1272","BLM","AZ","Yavapai","04025","Yavapai County"
"-112.134288913","34.182494787","1465059","201106824","W-624223","FED","DOI-WFMI","BLM","USAZPHD","Phoenix District Office","AZPHD","Phoenix District","","","","WATER","","","","","","2011","2011/07/30 00:00:00+00","211","1520","Human","Equipment and vehicle use","","2011/07/30 00:00:00+00","211","1700","0.1","A","34.1825","-112.1343","BLM","AZ","Yavapai","04025","Yavapai County"
"-112.136888913","34.173894788","1465060","201106825","W-624836","FED","DOI-WFMI","BLM","USAZPHD","Phoenix District Office","AZPHD","Phoenix District","","","","BUMBLEBEE","","","","","","2011","2011/08/12 00:00:00+00","224","1719","Human","Equipment and vehicle use","","2011/08/15 00:00:00+00","227","1800","15","C","34.1739","-112.1369","BLM","AZ","Yavapai","04025","Yavapai County"
"-112.141288915","34.145594792","1465061","201106827","W-625546","FED","DOI-WFMI","BLM","USAZPHD","Phoenix District Office","AZPHD","Phoenix District","","","","HAY BALE","","","","","","2011","2011/08/21 00:00:00+00","233","1230","Human","Equipment and vehicle use","","2011/08/21 00:00:00+00","233","1900","5","B","34.1456","-112.1413","BLM","AZ","Yavapai","04025","Yavapai County"
"-112.136688914","34.167494789","1465062","201106828","W-625556","FED","DOI-WFMI","BLM","USAZPHD","Phoenix District Office","AZPHD","Phoenix District","","","","MM 250","","","","","","2011","2011/08/21 00:00:00+00","233","1217","Human","Equipment and vehicle use","","2011/08/21 00:00:00+00","233","1800","13.8","C","34.1675","-112.1367","BLM","AZ","Yavapai","04025","Yavapai County"
"-110.099189509","31.439695076","1465063","201106845","W-617501","FED","DOI-WFMI","BLM","USAZGID","Gila District Office","AZSAD","Safford-Tucson Zone","","","","BOUNDARY","","","","","","2011","2011/01/22 00:00:00+00","22","1835","Human","Missing data/not specified/undetermined","","2011/01/23 00:00:00+00","23","0830","0.1","A","31.4397","-110.0992","BLM","AZ","Cochise","04003","Cochise County"
"-111.169189251","32.134695022","1465064","201106846","W-617502","FED","DOI-WFMI","BLM","USAZGID","Gila District Office","AZSAD","Safford-Tucson Zone","","","","RYAN 1","","","","","","2011","2011/01/24 00:00:00+00","24","1221","Human","Missing data/not specified/undetermined","","2011/01/24 00:00:00+00","24","1400","0.3","B","32.1347","-111.1692","BLM","AZ","Pima","04019","Pima County"
"-111.178089249","32.131895023","1465065","201106847","W-617503","FED","DOI-WFMI","BLM","USAZGID","Gila District Office","AZSAD","Safford-Tucson Zone","","","","RYAN 2","","","","","","2011","2011/01/24 00:00:00+00","24","1221","Human","Missing data/not specified/undetermined","","2011/01/24 00:00:00+00","24","1400","0.1","A","32.1319","-111.1781","PRIVATE","AZ","Pima","04019","Pima County"
"-111.181389249","32.130595024","1465066","201106848","W-617504","FED","DOI-WFMI","BLM","USAZGID","Gila District Office","AZSAD","Safford-Tucson Zone","","","","RYAN 3","","","","","","2011","2011/01/24 00:00:00+00","24","1221","Human","Missing data/not specified/undetermined","","2011/01/24 00:00:00+00","24","1400","0.1","A","32.1306","-111.1814","PRIVATE","AZ","Pima","04019","Pima County"
"-110.677189373","31.759995054","1465067","201106849","W-617577","FED","DOI-WFMI","BLM","USAZGID","Gila District Office","AZSAD","Safford-Tucson Zone","","","","39","","","","","","2011","2011/01/26 00:00:00+00","26","0940","Human","Missing data/not specified/undetermined","","2011/01/26 00:00:00+00","26","0940","0.1","A","31.76","-110.6772","BLM","AZ","Pima","04019","Pima County"
"-110.558289407","31.601095072","1465068","201106853","W-617578","FED","DOI-WFMI","BLM","USAZGID","Gila District Office","AZSAD","Safford-Tucson Zone","","","F0ES","JELKS","2011_AZ-SAD-011008_JELKS","","","","","2011","2011/01/27 00:00:00+00","27","1300","Human","Missing data/not specified/undetermined","","2011/02/07 00:00:00+00","38","1200","716","E","31.6011","-110.5583","PRIVATE","AZ","Santa Cruz","04023","Santa Cruz County"
"-109.99968953","31.425795074","1465069","201106854","W-617625","FED","DOI-WFMI","BLM","USAZGID","Gila District Office","AZSAD","Safford-Tucson Zone","","","","RIO VISTA","","","","","","2011","2011/01/30 00:00:00+00","30","1146","Human","Missing data/not specified/undetermined","","2011/01/31 00:00:00+00","31","1130","1.3","B","31.4258","-109.9997","BLM","AZ","Cochise","04003","Cochise County"
"-110.498589411","31.720595052","1465070","201106855","W-617880","FED","DOI-WFMI","BLM","USAZGID","Gila District Office","AZSAD","Safford-Tucson Zone","","","","FROZEN","","","","","","2011","2011/02/03 00:00:00+00","34","1000","Human","Missing data/not specified/undetermined","","2011/02/03 00:00:00+00","34","1415","2","B","31.7206","-110.4986","PRIVATE","AZ","Cochise","04003","Cochise County"
"-111.14688919","33.100594884","1465071","201106856","W-617835","FED","DOI-WFMI","BLM","USAZGID","Gila District Office","AZSAD","Safford-Tucson Zone","","","","RIVER","2011_AZ-SAD-011014_RIVER","","","","","2011","2011/02/11 00:00:00+00","42","1500","Human","Missing data/not specified/undetermined","","2011/02/25 00:00:00+00","56","1320","130","D","33.1006","-111.1469","PRIVATE","AZ","Graham","04009","Graham County"
"-109.239689601","32.757194839","1465072","201106858","W-618025","FED","DOI-WFMI","BLM","USAZGID","Gila District Office","AZSAD","Safford-Tucson Zone","","","","ADAMS","","","","","","2011","2011/02/19 00:00:00+00","50","1200","Human","Missing data/not specified/undetermined","","2011/02/20 00:00:00+00","51","1000","9.4","B","32.7572","-109.2397","BLM","AZ","Greenlee","04011","Greenlee County"
"-110.09638951","31.440595076","1465073","201106862","W-618429","FED","DOI-WFMI","BLM","USAZGID","Gila District Office","AZSAD","Safford-Tucson Zone","","","","COPPER GLANCE","","","","","","2011","2011/03/20 00:00:00+00","79","1317","Human","Missing data/not specified/undetermined","","2011/03/20 00:00:00+00","79","1615","0.7","B","31.4406","-110.0964","BLM","AZ","Cochise","04003","Cochise County"
"-109.676389525","32.542494892","1465074","201106863","W-618371","FED","DOI-WFMI","BLM","USAZGID","Gila District Office","AZSAD","Safford-Tucson Zone","","","","101","","","","","","2011","2011/03/21 00:00:00+00","80","1700","Human","Missing data/not specified/undetermined","","2011/03/21 00:00:00+00","80","1815","0.3","B","32.5425","-109.6764","BLM","AZ","Graham","04009","Graham County"
"-109.492489537","32.923894826","1465075","201106864","W-618488","FED","DOI-WFMI","BLM","USAZGID","Gila District Office","AZSAD","Safford-Tucson Zone","","","","BEAVER DAM","","","","","","2011","2011/03/25 00:00:00+00","84","1846","Human","Missing data/not specified/undetermined","","2011/03/26 00:00:00+00","85","1800","2","B","32.9239","-109.4925","BLM","AZ","Graham","04009","Graham County"
"-109.060289728","31.337495046","1465076","201106865","W-618496","FED","DOI-WFMI","BLM","USAZGID","Gila District Office","AZSAD","Safford-Tucson Zone","","","","CORNER","2011_AZ-SAD-011024_CORNER","","","","","2011","2011/03/28 00:00:00+00","87","1000","Human","Missing data/not specified/undetermined","","2011/04/04 00:00:00+00","94","1800","237","D","31.3375","-109.0603","BLM","AZ","Cochise","04003","Cochise County"
"-110.138889505","31.376895087","1465077","201106867","W-618545","FED","DOI-WFMI","BLM","USAZGID","Gila District Office","AZSAD","Safford-Tucson Zone","","","","PALOMINAS","","","","","","2011","2011/03/30 00:00:00+00","89","1400","Human","Missing data/not specified/undetermined","","2011/03/30 00:00:00+00","89","1515","22","C","31.3769","-110.1389","PRIVATE","AZ","Cochise","04003","Cochise County"
"-109.676389525","32.542494892","1465078","201106868","W-619247","FED","DOI-WFMI","BLM","USAZGID","Gila District Office","AZSAD","Safford-Tucson Zone","","","","VANGOSIC","","","","","","2011","2011/04/29 00:00:00+00","119","1500","Human","Missing data/not specified/undetermined","","2011/04/29 00:00:00+00","119","1600","0.5","B","32.5425","-109.6764","BLM","AZ","Graham","04009","Graham County"
"-110.048589412","33.083094831","1465079","201106870","W-618892","FED","DOI-WFMI","BLM","USAZGID","Gila District Office","AZSAD","Safford-Tucson Zone","","","","RED","","","","","","2011","2011/04/17 00:00:00+00","107","1346","Human","Missing data/not specified/undetermined","","2011/04/17 00:00:00+00","107","1515","0.1","A","33.0831","-110.0486","PRIVATE","AZ","Graham","04009","Graham County"
"-110.187189483","31.57139506","1465080","201106871","W-618893","FED","DOI-WFMI","BLM","USAZGID","Gila District Office","AZSAD","Safford-Tucson Zone","","","","MURRAY","","","","","","2011","2011/04/17 00:00:00+00","107","1417","Human","Missing data/not specified/undetermined","","2011/04/17 00:00:00+00","107","1550","0.1","A","31.5714","-110.1872","STATE","AZ","Cochise","04003","Cochise County"
"-109.077489724","31.339995047","1465081","201106872","W-619525","FED","DOI-WFMI","BLM","USAZGID","Gila District Office","AZSAD","Safford-Tucson Zone","","","F2NM","PUERTO BLANCO","","","","","","2011","2011/05/09 00:00:00+00","129","1808","Human","Missing data/not specified/undetermined","","2011/05/14 00:00:00+00","134","1800","509","E","31.34","-109.0775","BLM","AZ","Cochise","04003","Cochise County"
"-110.678889372","31.762495054","1465082","201106873","W-619008","FED","DOI-WFMI","BLM","USAZGID","Gila District Office","AZSAD","Safford-Tucson Zone","","","F2RC","EMPIRE","2011_AZ-SAD-011033_EMPIRE","","AZ3176511067520110420","EMPIRE","","2011","2011/04/20 00:00:00+00","110","1615","Human","Equipment and vehicle use","","2011/04/23 00:00:00+00","113","1800","2009","F","31.7625","-110.6789","BLM","AZ","Pima","04019","Pima County"
"-110.048889516","31.502795064","1465083","201106875","W-619049","FED","DOI-WFMI","BLM","USAZGID","Gila District Office","AZSAD","Safford-Tucson Zone","","","","GUN RANGE","","","","","","2011","2011/04/23 00:00:00+00","113","1000","Human","Missing data/not specified/undetermined","","2011/04/23 00:00:00+00","113","1445","0.1","A","31.5028","-110.0489","BLM","AZ","Cochise","04003","Cochise County"
"-110.168089489","31.549395063","1465084","201106877","W-619050","FED","DOI-WFMI","BLM","USAZGID","Gila District Office","AZSAD","Safford-Tucson Zone","","","","HIGHWAY 90 COMPLEX","","","","","HIGHWAY 90 COMPLEX","2011","2011/04/24 00:00:00+00","114","1330","Human","Missing data/not specified/undetermined","","2011/04/26 00:00:00+00","116","1715","31","C","31.5494","-110.1681","BLM","AZ","Cochise","04003","Cochise County"
"-110.153589492","31.546895062","1465085","201106878","W-619052","FED","DOI-WFMI","BLM","USAZGID","Gila District Office","AZSAD","Safford-Tucson Zone","","","","90 EAST","","","","","","2011","2011/04/24 00:00:00+00","114","1330","Human","Missing data/not specified/undetermined","","2011/04/25 00:00:00+00","115","1615","3.4","B","31.5469","-110.1536","BLM","AZ","Cochise","04003","Cochise County"
"-110.134689495","31.553095061","1465086","201106884","W-619522","FED","DOI-WFMI","BLM","USAZGID","Gila District Office","AZSAD","Safford-Tucson Zone","","","","OVERPASS","","","","","","2011","2011/05/08 00:00:00+00","128","0629","Human","Recreation and ceremony","","2011/05/08 00:00:00+00","128","0750","0.1","A","31.5531","-110.1347","BLM","AZ","Cochise","04003","Cochise County"
"-109.260789586","32.906094818","1465087","201106887","W-619746","FED","DOI-WFMI","BLM","USAZGID","Gila District Office","AZSAD","Safford-Tucson Zone","","","","TOLLHOUSE","","","","","","2011","2011/05/18 00:00:00+00","138","1300","Human","Missing data/not specified/undetermined","","2011/05/18 00:00:00+00","138","1546","0.3","B","32.9061","-109.2608","BLM","AZ","Greenlee","04011","Greenlee County"
"-110.549189402","31.699995057","1465088","201106891","W-620731","FED","DOI-WFMI","BLM","USAZGID","Gila District Office","AZSAD","Safford-Tucson Zone","","","","SMITH CANYON","","","","","","2011","2011/06/18 00:00:00+00","169","0600","Human","Missing data/not specified/undetermined","","2011/06/18 00:00:00+00","169","1100","1.3","B","31.7","-110.5492","STATE","AZ","Cochise","04003","Cochise County"
"-110.634689382","31.750795054","1465089","201106896","W-620023","FED","DOI-WFMI","BLM","USAZGID","Gila District Office","AZSAD","Safford-Tucson Zone","","","F4G5","EMPIRE 2","2011_AZ-SAD-011056_EMPIRE 2","","","","","2011","2011/06/01 00:00:00+00","152","1300","Human","Missing data/not specified/undetermined","","2011/06/03 00:00:00+00","154","1700","611","E","31.7508","-110.6347","BLM","AZ","Pima","04019","Pima County"
"-110.194189465","31.84579502","1465090","201106897","W-620143","FED","DOI-WFMI","BLM","USAZGID","Gila District Office","AZSAD","Safford-Tucson Zone","","","","CURTIS WASH","","","","","","2011","2011/06/03 00:00:00+00","154","1330","Human","Missing data/not specified/undetermined","","2011/06/03 00:00:00+00","154","1400","0.1","A","31.8458","-110.1942","STATE","AZ","Cochise","04003","Cochise County"
"-109.691689516","32.631394879","1465091","201106898","W-620146","FED","DOI-WFMI","BLM","USAZGID","Gila District Office","AZSAD","Safford-Tucson Zone","","","","P RANCH","","","","","","2011","2011/06/06 00:00:00+00","157","1000","Human","Missing data/not specified/undetermined","","2011/06/07 00:00:00+00","158","1200","1.5","B","32.6314","-109.6917","STATE","AZ","Graham","04009","Graham County"
"-110.121389496","31.574695057","1465092","201106901","W-620313","FED","DOI-WFMI","BLM","USAZGID","Gila District Office","AZSAD","Safford-Tucson Zone","","","","HIGH KNOLL","","","","","","2011","2011/06/08 00:00:00+00","159","1300","Human","Missing data/not specified/undetermined","","2011/06/23 00:00:00+00","174","1650","0.5","B","31.5747","-110.1214","PRIVATE","AZ","Cochise","04003","Cochise County"
"-111.192489223","32.489694973","1465093","201106906","W-620318","FED","DOI-WFMI","BLM","USAZGID","Gila District Office","AZSAD","Safford-Tucson Zone","","","","DESERT PEAK","","","","","","2011","2011/06/13 00:00:00+00","164","2230","Human","Missing data/not specified/undetermined","","2011/06/14 00:00:00+00","165","1300","0.1","A","32.4897","-111.1925","BLM","AZ","Pima","04019","Pima County"
"-110.138289494","31.551895061","1465094","201106907","W-620733","FED","DOI-WFMI","BLM","USAZGID","Gila District Office","AZSAD","Safford-Tucson Zone","","","","SAN PEDRO","","","","","","2011","2011/06/18 00:00:00+00","169","1904","Human","Missing data/not specified/undetermined","","2011/06/18 00:00:00+00","169","1950","0.3","B","31.5519","-110.1383","BLM","AZ","Cochise","04003","Cochise County"
"-110.288089383","32.800794884","1465095","201106908","W-620734","FED","DOI-WFMI","BLM","USAZGID","Gila District Office","AZSAD","Safford-Tucson Zone","","","","KLONDYKE","","","","","","2011","2011/06/19 00:00:00+00","170","1700","Human","Missing data/not specified/undetermined","","2011/06/20 00:00:00+00","171","1600","1.3","B","32.8008","-110.2881","PRIVATE","AZ","Graham","04009","Graham County"
"-109.965789431","33.051394831","1465096","201106913","W-620963","FED","DOI-WFMI","BLM","USAZGID","Gila District Office","AZSAD","Safford-Tucson Zone","","","","FORT THOMAS","","","","","","2011","2011/06/26 00:00:00+00","177","1200","Human","Missing data/not specified/undetermined","","2011/06/26 00:00:00+00","177","1600","2","B","33.0514","-109.9658","PRIVATE","AZ","Graham","04009","Graham County"
"-111.035789206","33.176394867","1465097","201106915","W-620965","FED","DOI-WFMI","BLM","USAZGID","Gila District Office","AZSAD","Safford-Tucson Zone","","","","WHITE CANYON","","","","","","2011","2011/06/27 00:00:00+00","178","1605","Human","Missing data/not specified/undetermined","","2011/06/27 00:00:00+00","178","1900","0.1","A","33.1764","-111.0358","PRIVATE","AZ","Pinal","04021","Pinal County"
"-110.606089391","31.694395061","1465098","201106918","W-620967","FED","DOI-WFMI","BLM","USAZGID","Gila District Office","AZSAD","Safford-Tucson Zone","","","F5TV","LAS CIENEGAS","2011_AZ-SAD-011081_LAS CIENEGAS","","","","","2011","2011/06/28 00:00:00+00","179","1600","Natural","Natural","","2011/06/29 00:00:00+00","180","1300","346","E","31.6944","-110.6061","BLM","AZ","Santa Cruz","04023","Santa Cruz County"
"-110.526389329","32.888594883","1465099","201106920","W-621025","FED","DOI-WFMI","BLM","USAZGID","Gila District Office","AZSAD","Safford-Tucson Zone","","","","ARAVAIPA","","","","","","2011","2011/06/30 00:00:00+00","181","0800","Natural","Natural","","2011/07/01 00:00:00+00","182","1200","158","D","32.8886","-110.5264","BLM","AZ","Pinal","04021","Pinal County"
"-110.531889412","31.60749507","1465100","201106922","W-621770","FED","DOI-WFMI","BLM","USAZGID","Gila District Office","AZSAD","Safford-Tucson Zone","","","","BALD","","","","","","2011","2011/07/10 00:00:00+00","191","1530","Natural","Natural","","2011/07/10 00:00:00+00","191","1600","1","B","31.6075","-110.5319","PRIVATE","AZ","Cochise","04003","Cochise County"
"-110.551089401","31.712795056","1465101","201106924","W-621354","FED","DOI-WFMI","BLM","USAZGID","Gila District Office","AZSAD","Safford-Tucson Zone","","","","YUCCA","","","","","","2011","2011/07/04 00:00:00+00","185","1525","Natural","Natural","","2011/07/04 00:00:00+00","185","1830","7.2","B","31.7128","-110.5511","STATE","AZ","Cochise","04003","Cochise County"
"-109.123289659","32.24439491","1465102","201106925","W-621768","FED","DOI-WFMI","BLM","USAZGID","Gila District Office","AZSAD","Safford-Tucson Zone","","","","RUCA","","","","","","2011","2011/07/09 00:00:00+00","190","0930","Human","Missing data/not specified/undetermined","","2011/07/09 00:00:00+00","190","1130","0.5","B","32.2444","-109.1233","BLM","AZ","Cochise","04003","Cochise County"
"-109.972489535","31.437195071","1465103","201106927","W-623004","FED","DOI-WFMI","BLM","USAZGID","Gila District Office","AZSAD","Safford-Tucson Zone","","","","MULE","","","","","","2011","2011/07/20 00:00:00+00","201","1700","Natural","Natural","","2011/07/21 00:00:00+00","202","1900","0.1","A","31.4372","-109.9725","PRIVATE","AZ","Cochise","04003","Cochise County"
"-109.585789568","32.173894943","1465104","201106928","W-623010","FED","DOI-WFMI","BLM","USAZGID","Gila District Office","AZSAD","Safford-Tucson Zone","","","","STAGECOACH","","","","","","2011","2011/07/20 00:00:00+00","201","1900","Natural","Natural","","2011/07/21 00:00:00+00","202","0830","0.1","A","32.1739","-109.5858","PRIVATE","AZ","Cochise","04003","Cochise County"
"-110.190789473","31.722495038","1465105","201106929","W-623005","FED","DOI-WFMI","BLM","USAZGID","Gila District Office","AZSAD","Safford-Tucson Zone","","","","FAIRBANK","","","","","","2011","2011/07/20 00:00:00+00","201","1920","Natural","Natural","","2011/07/20 00:00:00+00","201","2200","0.1","A","31.7225","-110.1908","BLM","AZ","Cochise","04003","Cochise County"
"-111.469389177","32.356095005","1465106","201106932","W-622369","FED","DOI-WFMI","BLM","USAZGID","Gila District Office","AZSAD","Safford-Tucson Zone","","","","WATERMAN","","","","","","2011","2011/07/16 00:00:00+00","197","2330","Natural","Natural","","2011/07/17 00:00:00+00","198","0940","0.3","B","32.3561","-111.4694","BLM","AZ","Pima","04019","Pima County"
"-109.160589651","32.253094911","1465107","201106933","W-622370","FED","DOI-WFMI","BLM","USAZGID","Gila District Office","AZSAD","Safford-Tucson Zone","","","","BURRO","","","","","","2011","2011/07/17 00:00:00+00","198","0734","Human","Missing data/not specified/undetermined","","2011/07/17 00:00:00+00","198","1930","0.3","B","32.2531","-109.1606","STATE","AZ","Cochise","04003","Cochise County"
"-110.536389411","31.594995072","1465108","201106934","W-622954","FED","DOI-WFMI","BLM","USAZGID","Gila District Office","AZSAD","Safford-Tucson Zone","","","","VAUGHN","","","","","","2011","2011/07/19 00:00:00+00","200","1550","Natural","Natural","","2011/07/20 00:00:00+00","201","1345","51","C","31.595","-110.5364","BLM","AZ","Santa Cruz","04023","Santa Cruz County"
"-110.46638942","31.683095056","1465109","201106935","W-624248","FED","DOI-WFMI","BLM","USAZGID","Gila District Office","AZSAD","Safford-Tucson Zone","","","","MUSTANG","","","","","","2011","2011/08/02 00:00:00+00","214","2230","Natural","Natural","","2011/08/08 00:00:00+00","220","1130","1","B","31.6831","-110.4664","STATE","AZ","Cochise","04003","Cochise County"
"-110.805289254","33.149694859","1465110","201106936","W-623588","FED","DOI-WFMI","BLM","USAZGID","Gila District Office","AZSAD","Safford-Tucson Zone","","","","LITTLE SPRING","","","","","","2011","2011/07/28 00:00:00+00","209","1700","Human","Missing data/not specified/undetermined","","2011/07/30 00:00:00+00","211","1230","0.1","A","33.1497","-110.8053","PRIVATE","AZ","Pinal","04021","Pinal County"
"-110.783289265","33.055594872","1465111","201106937","W-625030","FED","DOI-WFMI","BLM","USAZGID","Gila District Office","AZSAD","Safford-Tucson Zone","","","","TORONADO PEAK","","","","","","2011","2011/08/15 00:00:00+00","227","2203","Natural","Natural","","2011/08/23 00:00:00+00","235","1200","0.1","A","33.0556","-110.7833","BLM","AZ","Santa Cruz","04023","Santa Cruz County"
"-110.504389417","31.614695068","1465112","201106939","W-626157","FED","DOI-WFMI","BLM","USAZGID","Gila District Office","AZSAD","Safford-Tucson Zone","","","","RANCH","","","","","","2011","2011/08/19 00:00:00+00","231","2020","Natural","Natural","","2011/08/20 00:00:00+00","232","0930","1.2","B","31.6147","-110.5044","PRIVATE","AZ","Cochise","04003","Cochise County"
"-110.471389419","31.679195057","1465113","201106940","W-626158","FED","DOI-WFMI","BLM","USAZGID","Gila District Office","AZSAD","Safford-Tucson Zone","","","","ROSE TREE","","","","","","2011","2011/08/23 00:00:00+00","235","1630","Natural","Natural","","2011/08/24 00:00:00+00","236","0900","0.1","A","31.6792","-110.4714","STATE","AZ","Santa Cruz","04023","Santa Cruz County"
"-109.158089672","31.932194959","1465114","201106941","W-626159","FED","DOI-WFMI","BLM","USAZGID","Gila District Office","AZSAD","Safford-Tucson Zone","","","","LIMESTONE","","","","","","2011","2011/08/25 00:00:00+00","237","0802","Natural","Natural","","2011/08/25 00:00:00+00","237","1600","0.1","A","31.9322","-109.1581","STATE","AZ","Cochise","04003","Cochise County"
"-109.320789588","32.705294851","1465115","201106942","W-626934","FED","DOI-WFMI","BLM","USAZGID","Gila District Office","AZSAD","Safford-Tucson Zone","","","","GUTHRIE","","","","","","2011","2011/08/31 00:00:00+00","243","1730","Natural","Natural","","2011/09/02 00:00:00+00","245","1200","2.3","B","32.7053","-109.3208","BLM","AZ","Graham","04009","Graham County"
"-109.339989574","32.854394829","1465116","201106945","W-626935","FED","DOI-WFMI","BLM","USAZGID","Gila District Office","AZSAD","Safford-Tucson Zone","","","","THUMB","","","","","","2011","2011/09/04 00:00:00+00","247","0000","Natural","Natural","","2011/09/05 00:00:00+00","248","1200","0.1","A","32.8544","-109.34","BLM","AZ","Gila","04007","Gila County"
"-110.189689483","31.561095062","1465117","201106949","W-631493","FED","DOI-WFMI","BLM","USAZGID","Gila District Office","AZSAD","Safford-Tucson Zone","","","","MOSON","","","","","","2011","2011/11/01 00:00:00+00","305","1820","Human","Missing data/not specified/undetermined","","2011/11/01 00:00:00+00","305","1850","0.1","A","31.5611","-110.1897","STATE","AZ","Cochise","04003","Cochise County"
"-109.127489658","32.24529491","1465118","201106950","W-631494","FED","DOI-WFMI","BLM","USAZGID","Gila District Office","AZSAD","Safford-Tucson Zone","","","","SATURDAY","","","","","","2011","2011/11/04 00:00:00+00","308","2200","Human","Missing data/not specified/undetermined","","2011/11/05 00:00:00+00","309","1100","0.1","A","32.2453","-109.1275","BLM","AZ","Cochise","04003","Cochise County"
"-116.673128093","33.917555071","1465119","201106955","W-619420","FED","DOI-WFMI","BLM","USCACDD","California Desert District","CACDD","California Desert District","","","","SNOW","","","","","","2011","2011/05/06 00:00:00+00","126","1559","Human","Missing data/not specified/undetermined","","2011/05/06 00:00:00+00","126","1700","2","B","33.91756","-116.67314","STATE","CA","Riverside","06065","Riverside County"
"-117.152187974","34.351695048","1465120","201106956","W-620218","FED","DOI-WFMI","BLM","USCACDD","California Desert District","CACDD","California Desert District","","","","BOWEN","2011_CA-BDU-6218_BOWEN","","","","","2011","2011/06/09 00:00:00+00","160","1850","Human","Arson/incendiarism","","2011/06/10 00:00:00+00","161","1800","299","D","34.3517","-117.1522","STATE","CA","San Bernardino","06071","San Bernardino County"
"-116.855788063","33.888095085","1465121","201106958","W-628517","FED","DOI-WFMI","BLM","USCACDD","California Desert District","CACDD","California Desert District","","","","TWIN","","","","","","2011","2011/09/06 00:00:00+00","249","1248","Human","Missing data/not specified/undetermined","","2011/09/06 00:00:00+00","249","2000","5","B","33.8881","-116.8558","STATE","CA","Riverside","06065","Riverside County"
"-117.173587815","36.068894859","1465122","201106960","W-618824","FED","DOI-WFMI","BLM","USCACDD","California Desert District","CACDD","California Desert District","","","","SURPRISE","","","","","","2011","2011/03/09 00:00:00+00","68","1430","Natural","Natural","","2011/03/09 00:00:00+00","68","1730","0.1","A","36.0689","-117.1736","BLM","CA","Inyo","06027","Inyo County"
"-116.161708197","33.734355065","1465123","201106961","W-618213","FED","DOI-WFMI","BLM","USCACDD","California Desert District","CACDD","California Desert District","","","","LANDFILL","","","","","","2011","2011/03/10 00:00:00+00","69","0519","Human","Missing data/not specified/undetermined","","2011/03/10 00:00:00+00","69","0600","0.1","A","33.73436","-116.16172","PRIVATE","CA","Riverside","06065","Riverside County"
"-116.663708094","33.92346507","1465124","201106962","W-618217","FED","DOI-WFMI","BLM","USCACDD","California Desert District","CACDD","California Desert District","","","","UNDERWEAR","","","","","","2011","2011/03/02 00:00:00+00","61","0602","Human","Missing data/not specified/undetermined","","2011/03/02 00:00:00+00","61","0625","0.1","A","33.92347","-116.66372","STATE","CA","Riverside","06065","Riverside County"
"-116.644348097","33.924325069","1465125","201106963","W-618214","FED","DOI-WFMI","BLM","USCACDD","California Desert District","CACDD","California Desert District","","","","AMBULANCE","","","","","","2011","2011/03/08 00:00:00+00","67","1710","Human","Missing data/not specified/undetermined","","2011/03/08 00:00:00+00","67","1720","0.1","A","33.92433","-116.64436","STATE","CA","Riverside","06065","Riverside County"
"-117.201378025","33.616995135","1465126","201106964","W-617461","FED","DOI-WFMI","BLM","USCACDD","California Desert District","CACDD","California Desert District","","","","HAUN","2011_CA-RRU-04351_HAUN","","","","","2011","2011/01/14 00:00:00+00","14","1407","Human","Missing data/not specified/undetermined","","2011/01/15 00:00:00+00","15","1600","10","C","33.617","-117.20139","PRIVATE","CA","Riverside","06065","Riverside County"
"-114.737168464","33.613087002","1465127","201106965","W-617457","FED","DOI-WFMI","BLM","USCACDD","California Desert District","CACDD","California Desert District","","","","MESA","","","","","","2011","2011/01/14 00:00:00+00","14","2105","Human","Missing data/not specified/undetermined","","2011/01/14 00:00:00+00","14","2359","0.5","B","33.613092","-114.73718","PRIVATE","CA","Riverside","06065","Riverside County"
"-114.737488462","33.641094999","1465128","201106966","W-617460","FED","DOI-WFMI","BLM","USCACDD","California Desert District","CACDD","California Desert District","","","","MESA II","","","","","","2011","2011/01/15 00:00:00+00","15","1400","Human","Missing data/not specified/undetermined","","2011/01/15 00:00:00+00","15","1800","0.5","B","33.6411","-114.7375","PRIVATE","CA","Riverside","06065","Riverside County"
"-117.718887765","35.613294942","1465129","201106967","W-617805","FED","DOI-WFMI","BLM","USCACDD","California Desert District","CACDD","California Desert District","","","","BOWMAN","","","","","","2011","2011/02/09 00:00:00+00","40","1700","Human","Missing data/not specified/undetermined","","2011/02/09 00:00:00+00","40","1730","0.1","A","35.6133","-117.7189","BLM","CA","Kern","06029","Kern County"
"-115.991088241","33.566395076","1465130","201106968","W-618005","FED","DOI-WFMI","BLM","USCACDD","California Desert District","CACDD","California Desert District","","","","BASURA","","","","","","2011","2011/02/18 00:00:00+00","49","1539","Human","Debris and open burning","","2011/02/18 00:00:00+00","49","1545","0.1","A","33.5664","-115.9911","BLM","CA","Riverside","06065","Riverside County"
"-115.162918436","32.950355108","1465131","201106969","W-617964","FED","DOI-WFMI","BLM","USCACDD","California Desert District","CACDD","California Desert District","","","","CANNAL","","","","","","2011","2011/02/20 00:00:00+00","51","1658","Human","Equipment and vehicle use","","2011/02/20 00:00:00+00","51","1808","0.3","B","32.95036","-115.16293","BLM","CA","Imperial","06025","Imperial County"
"-115.847679321","32.825995159","1465132","201106970","W-617965","FED","DOI-WFMI","BLM","USCACDD","California Desert District","CACDD","California Desert District","","","","POLE","","","","","","2011","2011/02/20 00:00:00+00","51","1325","Natural","Natural","","2011/02/21 00:00:00+00","52","1200","0.1","A","32.826","-115.847691","BLM","CA","Imperial","06025","Imperial County"
"-116.79080817","32.612015233","1465133","201106971","W-618004","FED","DOI-WFMI","BLM","USCACDD","California Desert District","CACDD","California Desert District","","","","TANK 35","","","","","","2011","2011/02/23 00:00:00+00","54","1419","Human","Recreation and ceremony","","2011/02/23 00:00:00+00","54","1430","0.1","A","32.61202","-116.79082","BLM","CA","San Diego","06073","San Diego County"
"-116.395158163","33.649575088","1465134","201106972","W-618293","FED","DOI-WFMI","BLM","USCACDD","California Desert District","CACDD","California Desert District","","","","COOPER","","","","","","2011","2011/03/10 00:00:00+00","69","1000","Human","Equipment and vehicle use","","2011/03/10 00:00:00+00","69","1140","0.1","A","33.64958","-116.39517","BLM","CA","","",""
"-116.407788163","33.623595091","1465135","201106973","W-627060","FED","DOI-WFMI","BLM","USCACDD","California Desert District","CACDD","California Desert District","","","","74 FIRE","","","","","","2011","2011/03/10 00:00:00+00","69","1000","Human","Equipment and vehicle use","","2011/03/10 00:00:00+00","69","1137","0.1","A","33.6236","-116.4078","BLM","CA","Riverside","06065","Riverside County"
"-115.912624258","33.525134076","1465136","201106974","W-618292","FED","DOI-WFMI","BLM","USCACDD","California Desert District","CACDD","California Desert District","","","","CIVIC","","","","","","2011","2011/03/16 00:00:00+00","75","1621","Human","Missing data/not specified/undetermined","","2011/03/16 00:00:00+00","75","1643","0.1","A","33.525139","-115.912636","PRIVATE","CA","Riverside","06065","Riverside County"
"-116.011988228","33.682575063","1465137","201106975","W-618390","FED","DOI-WFMI","BLM","USCACDD","California Desert District","CACDD","California Desert District","","","","WHEEZE","","","","","","2011","2011/03/19 00:00:00+00","78","0815","Human","Equipment and vehicle use","","2011/03/19 00:00:00+00","78","0930","0.1","A","33.68258","-116.012","BLM","CA","Riverside","06065","Riverside County"
"-114.737908462","33.640414999","1465138","201106976","W-618387","FED","DOI-WFMI","BLM","USCACDD","California Desert District","CACDD","California Desert District","","","","MESA III","","","","","","2011","2011/03/18 00:00:00+00","77","1643","Human","Missing data/not specified/undetermined","","2011/03/18 00:00:00+00","77","1714","0.1","A","33.64042","-114.73792","PRIVATE","CA","Riverside","06065","Riverside County"
"-116.38056815","33.841305064","1465139","201106977","W-618391","FED","DOI-WFMI","BLM","USCACDD","California Desert District","CACDD","California Desert District","","","","BURR","","","","","","2011","2011/03/20 00:00:00+00","79","1851","Human","Missing data/not specified/undetermined","","2011/03/20 00:00:00+00","79","1930","0.1","A","33.84131","-116.38058","PRIVATE","CA","Riverside","06065","Riverside County"
"-115.892348263","33.508555077","1465140","201106978","W-618450","FED","DOI-WFMI","BLM","USCACDD","California Desert District","CACDD","California Desert District","","","","SEA BREEZE","","","","","","2011","2011/03/02 00:00:00+00","61","1910","Human","Missing data/not specified/undetermined","","2011/03/02 00:00:00+00","61","1930","0.1","A","33.50856","-115.89236","PRIVATE","CA","Riverside","06065","Riverside County"
"-115.939208252","33.541775076","1465141","201106979","W-618451","FED","DOI-WFMI","BLM","USCACDD","California Desert District","CACDD","California Desert District","","","","SURFSIDE","","","","","","2011","2011/03/06 00:00:00+00","65","0843","Human","Missing data/not specified/undetermined","","2011/03/06 00:00:00+00","65","0904","0.1","A","33.54178","-115.93922","PRIVATE","CA","Riverside","06065","Riverside County"
"-114.559388403","34.773894848","1465142","201106980","W-618599","FED","DOI-WFMI","BLM","USCACDD","California Desert District","CACDD","California Desert District","","","","FIVE MILE","","","","","","2011","2011/03/24 00:00:00+00","83","0945","Human","Missing data/not specified/undetermined","","2011/03/24 00:00:00+00","83","1700","1.5","B","34.7739","-114.5594","BLM","CA","San Bernardino","06071","San Bernardino County"
"-116.475288129","33.894495063","1465143","201106981","W-618616","FED","DOI-WFMI","BLM","USCACDD","California Desert District","CACDD","California Desert District","","","","WHITE VAN","","","","","","2011","2011/03/30 00:00:00+00","89","1604","Human","Missing data/not specified/undetermined","","2011/03/30 00:00:00+00","89","1721","0.1","A","33.8945","-116.4753","PRIVATE","CA","Riverside","06065","Riverside County"
"-116.399988174","33.499995106","1465144","201106982","W-625772","FED","DOI-WFMI","BLM","USCACDD","California Desert District","CACDD","California Desert District","","","","SEMI","","","","","","2011","2011/03/29 00:00:00+00","88","0207","Human","Equipment and vehicle use","","2011/03/29 00:00:00+00","88","0430","0.1","A","33.5","-116.4","BLM","CA","Riverside","06065","Riverside County"
"-115.930548254","33.539915076","1465145","201106983","W-618586","FED","DOI-WFMI","BLM","USCACDD","California Desert District","CACDD","California Desert District","","","","SEBRING","","","","","","2011","2011/04/01 00:00:00+00","91","1949","Human","Missing data/not specified/undetermined","","2011/04/01 00:00:00+00","91","2001","0.1","A","33.53992","-115.93056","PRIVATE","CA","Riverside","06065","Riverside County"
"-116.097788214","33.66419507","1465146","201106984","W-625773","FED","DOI-WFMI","BLM","USCACDD","California Desert District","CACDD","California Desert District","","","","COMPOST","","","","","","2011","2011/03/31 00:00:00+00","90","1532","Human","Missing data/not specified/undetermined","","2011/03/31 00:00:00+00","90","2000","0.3","B","33.6642","-116.0978","STATE","CA","Riverside","06065","Riverside County"
"-117.257787934","34.608295025","1465147","201106985","W-629100","FED","DOI-WFMI","BLM","USCACDD","California Desert District","CACDD","California Desert District","","","","TAO","","","","","","2011","2011/04/28 00:00:00+00","118","1200","Human","Debris and open burning","","2011/04/28 00:00:00+00","118","1330","1.5","B","34.6083","-117.2578","BLM","CA","San Bernardino","06071","San Bernardino County"
"-116.694878088","33.925715072","1465148","201106987","W-619262","FED","DOI-WFMI","BLM","USCACDD","California Desert District","CACDD","California Desert District","","","","TAMARACK","","","","","","2011","2011/05/02 00:00:00+00","122","0634","Human","Missing data/not specified/undetermined","","2011/05/02 00:00:00+00","122","0648","0.1","A","33.92572","-116.69489","PRIVATE","CA","Riverside","06065","Riverside County"
"-117.597907785","35.620414934","1465149","201106989","W-618821","FED","DOI-WFMI","BLM","USCACDD","California Desert District","CACDD","California Desert District","","","","CORRAL","","","","","","2011","2011/04/14 00:00:00+00","104","1419","Human","Missing data/not specified/undetermined","","2011/04/14 00:00:00+00","104","1500","0.1","A","35.62042","-117.59792","BLM","CA","San Bernardino","06071","San Bernardino County"
"-115.284688412","32.969995112","1465150","201106990","W-618871","FED","DOI-WFMI","BLM","USCACDD","California Desert District","CACDD","California Desert District","","","","OASIS","","","","","","2011","2011/04/17 00:00:00+00","107","1324","Human","Recreation and ceremony","","2011/04/17 00:00:00+00","107","1345","0.1","A","32.97","-115.2847","BLM","CA","Imperial","06025","Imperial County"
"-116.693818087","33.94149507","1465151","201106991","W-618916","FED","DOI-WFMI","BLM","USCACDD","California Desert District","CACDD","California Desert District","","","","COTTONWOOD","","","","","","2011","2011/04/15 00:00:00+00","105","0130","Human","Missing data/not specified/undetermined","","2011/04/15 00:00:00+00","105","0530","5.3","B","33.9415","-116.69383","PRIVATE","CA","Riverside","06065","Riverside County"
"-117.425737975","33.765055131","1465152","201106992","W-618977","FED","DOI-WFMI","BLM","USCACDD","California Desert District","CACDD","California Desert District","","","","ESTELLE","","","","","","2011","2011/04/17 00:00:00+00","107","1630","Human","Missing data/not specified/undetermined","","2011/04/17 00:00:00+00","107","2000","4.1","B","33.76506","-117.42575","PRIVATE","CA","Riverside","06065","Riverside County"
"-117.074687962","34.65029501","1465153","201106995","W-619820","FED","DOI-WFMI","BLM","USCACDD","California Desert District","CACDD","California Desert District","","","","ABIGAIL","","","","","","2011","2011/05/21 00:00:00+00","141","1630","Human","Missing data/not specified/undetermined","","2011/05/23 00:00:00+00","143","0630","104.6","D","34.6503","-117.0747","BLM","CA","San Bernardino","06071","San Bernardino County"
"-117.586677806","35.410244956","1465154","201106996","W-619827","FED","DOI-WFMI","BLM","USCACDD","California Desert District","CACDD","California Desert District","","","","TRONA","2011_CA-CDD-8184_TRONA","","","","","2011","2011/05/22 00:00:00+00","142","0100","Human","Recreation and ceremony","","2011/05/22 00:00:00+00","142","1200","217","D","35.41025","-117.58669","BLM","CA","San Bernardino","06071","San Bernardino County"
"-117.237187934","34.649395019","1465155","201106997","W-619817","FED","DOI-WFMI","BLM","USCACDD","California Desert District","CACDD","California Desert District","","","","DALE","","","","","","2011","2011/05/22 00:00:00+00","142","1430","Human","Fireworks","","2011/05/23 00:00:00+00","143","1030","4.8","B","34.6494","-117.2372","BLM","CA","San Bernardino","06071","San Bernardino County"
"-115.675585137","35.466894832","1465156","201106998","W-620082","FED","DOI-WFMI","BLM","USCACDD","California Desert District","CACDD","California Desert District","","","","CIMA","","","","","","2011","2011/05/22 00:00:00+00","142","1830","Human","Missing data/not specified/undetermined","","2011/05/25 00:00:00+00","145","1130","0.1","A","35.4669","-115.675597","BLM","CA","San Bernardino","06071","San Bernardino County"
"-116.404298163","33.63305509","1465157","201106999","W-619837","FED","DOI-WFMI","BLM","USCACDD","California Desert District","CACDD","California Desert District","","","","TUNDRA","","","","","","2011","2011/05/24 00:00:00+00","144","1415","Human","Missing data/not specified/undetermined","","2011/05/24 00:00:00+00","144","1435","0.1","A","33.63306","-116.40431","STATE","CA","Riverside","06065","Riverside County"
"-116.170518194","33.761055062","1465158","201107000","W-619887","FED","DOI-WFMI","BLM","USCACDD","California Desert District","CACDD","California Desert District","","","","DILLON","","","","","","2011","2011/05/26 00:00:00+00","146","1108","Human","Missing data/not specified/undetermined","","2011/05/26 00:00:00+00","146","2200","15.4","C","33.76106","-116.17053","PRIVATE","CA","Riverside","06065","Riverside County"
"-116.604708105","33.914775068","1465159","201107001","W-619400","FED","DOI-WFMI","BLM","USCACDD","California Desert District","CACDD","California Desert District","","","","INTERSTATE","","","","","","2011","2011/05/02 00:00:00+00","122","1622","Human","Missing data/not specified/undetermined","","2011/05/02 00:00:00+00","122","1830","1.8","B","33.91478","-116.60472","BLM","CA","Riverside","06065","Riverside County"
"-116.67492809","33.944745068","1465160","201107002","W-619337","FED","DOI-WFMI","BLM","USCACDD","California Desert District","CACDD","California Desert District","","","","COTTONWOOD","","","","","","2011","2011/05/04 00:00:00+00","124","1954","Human","Power generation/transmission/distribution","","2011/05/04 00:00:00+00","124","2300","2.1","B","33.94475","-116.67494","BLM","CA","Riverside","06065","Riverside County"
"-115.51828823","34.747794907","1465161","201107003","W-619316","FED","DOI-WFMI","BLM","USCACDD","California Desert District","CACDD","California Desert District","","","","BUGS","","","","","","2011","2011/05/04 00:00:00+00","124","0947","Human","Missing data/not specified/undetermined","","2011/05/04 00:00:00+00","124","1130","0.1","A","34.7478","-115.5183","STATE","CA","San Bernardino","06071","San Bernardino County"
"-117.250487936","34.604995025","1465162","201107004","W-629103","FED","DOI-WFMI","BLM","USCACDD","California Desert District","CACDD","California Desert District","","","","STODDARD","","","","","","2011","2011/05/05 00:00:00+00","125","0730","Human","Equipment and vehicle use","","2011/05/05 00:00:00+00","125","0900","2","B","34.605","-117.2505","BLM","CA","San Bernardino","06071","San Bernardino County"
"-115.970288038","35.957494794","1465163","201107005","W-619523","FED","DOI-WFMI","BLM","USCACDD","California Desert District","CACDD","California Desert District","","","","SPANISH TRAIL","2011_CA-CDD-7680_SPANISH TRAIL","","","","","2011","2011/05/08 00:00:00+00","128","1523","Human","Debris and open burning","","2011/05/09 00:00:00+00","129","1300","77","C","35.9575","-115.9703","BLM","CA","Inyo","06027","Inyo County"
"-117.273068004","33.726355127","1465164","201107006","W-619419","FED","DOI-WFMI","BLM","USCACDD","California Desert District","CACDD","California Desert District","","","","RIVER","","","","","","2011","2011/05/07 00:00:00+00","127","1308","Human","Missing data/not specified/undetermined","","2011/05/07 00:00:00+00","127","1330","1","B","33.72636","-117.27308","PRIVATE","CA","Riverside","06065","Riverside County"
"-117.300787997","33.756695125","1465165","201107009","W-619754","FED","DOI-WFMI","BLM","USCACDD","California Desert District","CACDD","California Desert District","","","","STEELE","","","","","","2011","2011/05/16 00:00:00+00","136","1957","Human","Firearms and explosives use","","2011/05/17 00:00:00+00","137","0200","2","B","33.7567","-117.3008","BLM","CA","Riverside","06065","Riverside County"
"-115.845958259","33.662935056","1465166","201107010","W-625640","FED","DOI-WFMI","BLM","USCACDD","California Desert District","CACDD","California Desert District","","","","MEMORIAL","","","","","","2011","2011/05/17 00:00:00+00","137","1330","Human","Missing data/not specified/undetermined","","2011/05/17 00:00:00+00","137","1415","0.1","A","33.66294","-115.84597","STATE","CA","Riverside","06065","Riverside County"
"-115.876018254","33.664575058","1465167","201107012","W-625639","FED","DOI-WFMI","BLM","USCACDD","California Desert District","CACDD","California Desert District","","","","LADIN","","","","","","2011","2011/05/16 00:00:00+00","136","0805","Human","Missing data/not specified/undetermined","","2011/05/16 00:00:00+00","136","0900","0.1","A","33.66458","-115.87603","STATE","CA","Riverside","06065","Riverside County"
"-118.121127735","35.192105013","1465168","201107013","W-619826","FED","DOI-WFMI","BLM","USCACDD","California Desert District","CACDD","California Desert District","","","","LOST","","","","","","2011","2011/05/20 00:00:00+00","140","1500","Human","Missing data/not specified/undetermined","","2011/05/20 00:00:00+00","140","1730","0.5","B","35.19211","-118.12114","BLM","CA","Kern","06029","Kern County"
"-116.177368273","32.677365194","1465169","201107015","W-620510","FED","DOI-WFMI","BLM","USCACDD","California Desert District","CACDD","California Desert District","","","","TABLE","","","","","","2011","2011/06/11 00:00:00+00","162","2050","Human","Firearms and explosives use","","2011/06/12 00:00:00+00","163","2000","4","B","32.67737","-116.17738","BLM","CA","San Diego","06073","San Diego County"
"-116.809188165","32.64689523","1465170","201107016","W-620505","FED","DOI-WFMI","BLM","USCACDD","California Desert District","CACDD","California Desert District","","","","LAKE","","","","","","2011","2011/06/17 00:00:00+00","168","1637","Human","Firearms and explosives use","","2011/06/18 00:00:00+00","169","1200","12.2","C","32.6469","-116.8092","PRIVATE","CA","San Diego","06073","San Diego County"
"-117.53248788","34.688095032","1465171","201107018","W-619935","FED","DOI-WFMI","BLM","USCACDD","California Desert District","CACDD","California Desert District","","","","EL MIRAGE","","","","","","2011","2011/05/29 00:00:00+00","149","1300","Human","Missing data/not specified/undetermined","","2011/05/31 00:00:00+00","151","1800","138.4","D","34.6881","-117.5325","BLM","CA","San Bernardino","06071","San Bernardino County"
"-117.309707995","33.757685125","1465172","201107021","W-619932","FED","DOI-WFMI","BLM","USCACDD","California Desert District","CACDD","California Desert District","","","","STEELE 2","","","","","","2011","2011/05/29 00:00:00+00","149","1443","Human","Firearms and explosives use","","2011/05/29 00:00:00+00","149","1900","33.4","C","33.75769","-117.30972","BLM","CA","Riverside","06065","Riverside County"
"-117.31262799","33.812305119","1465173","201107022","W-619933","FED","DOI-WFMI","BLM","USCACDD","California Desert District","CACDD","California Desert District","","","","SALTER","","","","","","2011","2011/05/29 00:00:00+00","149","1551","Human","Missing data/not specified/undetermined","","2011/05/29 00:00:00+00","149","1800","5","B","33.81231","-117.31264","PRIVATE","CA","Riverside","06065","Riverside County"
"-116.956178047","33.875965092","1465174","201107023","W-619943","FED","DOI-WFMI","BLM","USCACDD","California Desert District","CACDD","California Desert District","","","","SIXTH","","","","","","2011","2011/05/30 00:00:00+00","150","1351","Human","Firearms and explosives use","","2011/05/30 00:00:00+00","150","1500","2.3","B","33.87597","-116.95619","BLM","CA","Riverside","06065","Riverside County"
"-116.652738132","33.464385124","1465175","201107024","W-619944","FED","DOI-WFMI","BLM","USCACDD","California Desert District","CACDD","California Desert District","","","","CHAPMAN","","","","","","2011","2011/05/30 00:00:00+00","150","1611","Human","Missing data/not specified/undetermined","","2011/05/30 00:00:00+00","150","1739","0.1","A","33.46439","-116.65275","PRIVATE","CA","","",""
"-114.828268346","34.852884854","1465176","201107025","W-620085","FED","DOI-WFMI","BLM","USCACDD","California Desert District","CACDD","California Desert District","","","","40","","","","","","2011","2011/05/31 00:00:00+00","151","1439","Human","Missing data/not specified/undetermined","","2011/05/31 00:00:00+00","151","1547","0.1","A","34.85289","-114.82828","PRIVATE","CA","San Bernardino","06071","San Bernardino County"
"-115.035288311","34.82469487","1465177","201107026","W-620094","FED","DOI-WFMI","BLM","USCACDD","California Desert District","CACDD","California Desert District","","","","42","","","","","","2011","2011/05/31 00:00:00+00","151","1500","Human","Missing data/not specified/undetermined","","2011/05/31 00:00:00+00","151","1545","0.1","A","34.8247","-115.0353","BLM","CA","San Bernardino","06071","San Bernardino County"
"-116.445908162","33.538935104","1465178","201107027","W-620119","FED","DOI-WFMI","BLM","USCACDD","California Desert District","CACDD","California Desert District","","","F4G8","SANTA ROSA","","","","","","2011","2011/06/01 00:00:00+00","152","1300","Human","Missing data/not specified/undetermined","","2011/06/02 00:00:00+00","153","1730","0.7","B","33.53894","-116.44592","USFS","CA","Riverside","06065","Riverside County"
"-116.159685117","34.720994948","1465179","201107028","W-620095","FED","DOI-WFMI","BLM","USCACDD","California Desert District","CACDD","California Desert District","","","","STOMP","","","","","","2011","2011/05/31 00:00:00+00","151","1645","Human","Missing data/not specified/undetermined","","2011/05/31 00:00:00+00","151","1650","0.1","A","34.721","-116.159697","BLM","CA","San Bernardino","06071","San Bernardino County"
"-117.200487872","35.416894932","1465180","201107029","W-620101","FED","DOI-WFMI","BLM","USCACDD","California Desert District","CACDD","California Desert District","","","","ROUND UP","2011_CA-BDU-005882_ROUND-UP","","","","","2011","2011/06/01 00:00:00+00","152","0845","Human","Missing data/not specified/undetermined","","2011/06/01 00:00:00+00","152","1800","138","D","35.4169","-117.2005","STATE","CA","San Bernardino","06071","San Bernardino County"
"-117.23315801","33.741435123","1465181","201107030","W-625637","FED","DOI-WFMI","BLM","USCACDD","California Desert District","CACDD","California Desert District","","","","MONUMENT","","","","","","2011","2011/06/01 00:00:00+00","152","1656","Human","Missing data/not specified/undetermined","","2011/06/01 00:00:00+00","152","2000","14","C","33.74144","-117.23317","PRIVATE","CA","Riverside","06065","Riverside County"
"-116.967987935","35.171094945","1465182","201107031","W-620103","FED","DOI-WFMI","BLM","USCACDD","California Desert District","CACDD","California Desert District","","","","GOLDSTONE","","","","","","2011","2011/06/03 00:00:00+00","154","1715","Natural","Natural","","2011/06/03 00:00:00+00","154","2230","10","C","35.1711","-116.968","OTHER FEDERAL","CA","San Bernardino","06071","San Bernardino County"
"-116.589848098","34.029825053","1465183","201107032","W-629045","FED","DOI-WFMI","BLM","USCACDD","California Desert District","CACDD","California Desert District","","","","KOLBE","","","","","","2011","2011/05/31 00:00:00+00","151","1833","Human","Equipment and vehicle use","","2011/05/31 00:00:00+00","151","1833","0.1","A","34.02983","-116.58986","BLM","CA","Riverside","06065","Riverside County"
"-117.270627998","33.801435118","1465184","201107033","W-625638","FED","DOI-WFMI","BLM","USCACDD","California Desert District","CACDD","California Desert District","","","","ROCKY","","","","","","2011","2011/06/06 00:00:00+00","157","1311","Human","Missing data/not specified/undetermined","","2011/06/06 00:00:00+00","157","1430","5","B","33.80144","-117.27064","PRIVATE","CA","Riverside","06065","Riverside County"
"-116.762298177","32.592635234","1465185","201107034","W-620427","FED","DOI-WFMI","BLM","USCACDD","California Desert District","CACDD","California Desert District","","","","BEE","2011_CA-MVU-006069_BEE","","","","","2011","2011/06/05 00:00:00+00","156","1545","Human","Firearms and explosives use","","2011/06/07 00:00:00+00","158","1600","220","D","32.59264","-116.76231","BLM","CA","San Diego","06073","San Diego County"
"-115.879108318","32.789875165","1465186","201107035","W-620167","FED","DOI-WFMI","BLM","USCACDD","California Desert District","CACDD","California Desert District","","","","SUNRISE","","","","","","2011","2011/06/07 00:00:00+00","158","0840","Human","Equipment and vehicle use","","2011/06/07 00:00:00+00","158","1230","0.1","A","32.78988","-115.87912","BLM","CA","Imperial","06025","Imperial County"
"-115.363088222","35.160294849","1465187","201107036","W-620243","FED","DOI-WFMI","BLM","USCACDD","California Desert District","CACDD","California Desert District","","","","QUAIL","","","","","","2011","2011/06/11 00:00:00+00","162","1545","Human","Missing data/not specified/undetermined","","2011/06/11 00:00:00+00","162","1900","0.3","B","35.1603","-115.3631","PRIVATE","CA","San Bernardino","06071","San Bernardino County"
"-116.675288091","33.934995069","1465188","201107039","W-620539","FED","DOI-WFMI","BLM","USCACDD","California Desert District","CACDD","California Desert District","","","","LEHMANN","","","","","","2011","2011/06/19 00:00:00+00","170","1131","Human","Firearms and explosives use","","2011/06/19 00:00:00+00","170","1630","9.6","B","33.935","-116.6753","BLM","CA","","",""
"-116.082960294","32.622654196","1465189","201107040","W-621109","FED","DOI-WFMI","BLM","USCACDD","California Desert District","CACDD","California Desert District","","","F7UD","BORDER 9","","","","","","2011","2011/06/20 00:00:00+00","171","2200","Human","Recreation and ceremony","","2011/06/22 00:00:00+00","173","1200","420","E","32.622659","-116.082972","BLM","CA","Imperial","06025","Imperial County"
"-115.570788156","35.471894825","1465190","201107041","W-621623","FED","DOI-WFMI","BLM","USCACDD","California Desert District","CACDD","California Desert District","","","","MESCAL","","","","","","2011","2011/06/22 00:00:00+00","173","1121","Human","Missing data/not specified/undetermined","","2011/06/23 00:00:00+00","174","1100","3","B","35.4719","-115.5708","BLM","CA","San Bernardino","06071","San Bernardino County"
"-117.711387772","35.549194949","1465191","201107042","W-620815","FED","DOI-WFMI","BLM","USCACDD","California Desert District","CACDD","California Desert District","","","","395","","","","","","2011","2011/06/22 00:00:00+00","173","1400","Human","Missing data/not specified/undetermined","","2011/06/22 00:00:00+00","173","1430","2.5","B","35.5492","-117.7114","BLM","CA","Kern","06029","Kern County"
"-117.594687786","35.618594934","1465192","201107044","W-620882","FED","DOI-WFMI","BLM","USCACDD","California Desert District","CACDD","California Desert District","","","","WEST","","","","","","2011","2011/06/25 00:00:00+00","176","1920","Human","Missing data/not specified/undetermined","","2011/06/25 00:00:00+00","176","2015","0.1","A","35.6186","-117.5947","BLM","CA","Kern","06029","Kern County"
"-114.769558465","33.525125015","1465193","201107047","W-620951","FED","DOI-WFMI","BLM","USCACDD","California Desert District","CACDD","California Desert District","","","","GAVILAN","","","","","","2011","2011/06/28 00:00:00+00","179","1020","Human","Missing data/not specified/undetermined","","2011/06/28 00:00:00+00","179","1100","0.1","A","33.52513","-114.76957","BLM","CA","Imperial","06025","Imperial County"
"-117.323287992","33.771895124","1465194","201107049","W-622550","FED","DOI-WFMI","BLM","USCACDD","California Desert District","CACDD","California Desert District","","","","ROSA","","","","","","2011","2011/07/09 00:00:00+00","190","1500","Human","Missing data/not specified/undetermined","","2011/07/09 00:00:00+00","190","1800","3","B","33.7719","-117.3233","BLM","CA","Riverside","06065","Riverside County"
"-116.762188177","32.592195234","1465195","201107050","W-622278","FED","DOI-WFMI","BLM","USCACDD","California Desert District","CACDD","California Desert District","","","","EUCALYPTUS","","","","","","2011","2011/07/10 00:00:00+00","191","1355","Human","Missing data/not specified/undetermined","","2011/07/10 00:00:00+00","191","1355","0.1","A","32.5922","-116.7622","BLM","CA","San Diego","06073","San Diego County"
"-116.651988096","33.922665069","1465196","201107051","W-621766","FED","DOI-WFMI","BLM","USCACDD","California Desert District","CACDD","California Desert District","","","","HAUGEN LEHMAN","","","","","","2011","2011/07/10 00:00:00+00","191","1614","Human","Missing data/not specified/undetermined","","2011/07/10 00:00:00+00","191","1900","1.8","B","33.92267","-116.652","STATE","CA","Riverside","06065","Riverside County"
"-115.081688301","34.834384871","1465197","201107052","W-621860","FED","DOI-WFMI","BLM","USCACDD","California Desert District","CACDD","California Desert District","","","","LITTLE WING","","","","","","2011","2011/07/10 00:00:00+00","191","1730","Natural","Natural","","2011/07/10 00:00:00+00","191","1852","0.1","A","34.83439","-115.0817","BLM","CA","San Bernardino","06071","San Bernardino County"
"-117.878887714","35.862794926","1465198","201107054","W-622521","FED","DOI-WFMI","BLM","USCACDD","California Desert District","CACDD","California Desert District","","","","ROADSIDE","","","","","","2011","2011/07/11 00:00:00+00","192","1400","Human","Equipment and vehicle use","","2011/07/11 00:00:00+00","192","1500","0.5","B","35.8628","-117.8789","BLM","CA","Inyo","06027","Inyo County"
"-115.587788305","33.673295041","1465199","201107055","W-621246","FED","DOI-WFMI","BLM","USCACDD","California Desert District","CACDD","California Desert District","","","","RED CLOUD","","","","","","2011","2011/07/03 00:00:00+00","184","1854","Human","Equipment and vehicle use","","2011/07/03 00:00:00+00","184","1930","0.3","B","33.6733","-115.5878","BLM","CA","Riverside","06065","Riverside County"
"-117.342177994","33.705245133","1465200","201107057","W-621352","FED","DOI-WFMI","BLM","USCACDD","California Desert District","CACDD","California Desert District","","","","ELEVENTH","","","","","","2011","2011/07/04 00:00:00+00","185","2133","Human","Missing data/not specified/undetermined","","2011/07/04 00:00:00+00","185","2300","0.5","B","33.70525","-117.34219","PRIVATE","CA","Riverside","06065","Riverside County"
"-116.517488112","34.016695051","1465201","201107058","W-629041","FED","DOI-WFMI","BLM","USCACDD","California Desert District","CACDD","California Desert District","","","","TOYOTA","","","","","","2011","2011/07/06 00:00:00+00","187","1659","Human","Equipment and vehicle use","","2011/07/06 00:00:00+00","187","1701","0.1","A","34.0167","-116.5175","BLM","CA","Riverside","06065","Riverside County"
"-117.230048014","33.692915128","1465202","201107060","W-621678","FED","DOI-WFMI","BLM","USCACDD","California Desert District","CACDD","California Desert District","","","","CONEJO","","","","","","2011","2011/07/06 00:00:00+00","187","1523","Natural","Natural","","2011/07/06 00:00:00+00","187","1708","1","B","33.69292","-117.23006","PRIVATE","CA","Riverside","06065","Riverside County"
"-118.063887734","35.313984996","1465203","201107061","W-621701","FED","DOI-WFMI","BLM","USCACDD","California Desert District","CACDD","California Desert District","","","","BONE","","","","","","2011","2011/07/09 00:00:00+00","190","1500","Human","Missing data/not specified/undetermined","","2011/07/09 00:00:00+00","190","1700","2","B","35.31399","-118.0639","BLM","CA","Kern","06029","Kern County"
"-118.071687732","35.315594996","1465204","201107063","W-624422","FED","DOI-WFMI","BLM","USCACDD","California Desert District","CACDD","California Desert District","","","","JAWBONE","","","","","","2011","2011/07/21 00:00:00+00","202","1500","Human","Missing data/not specified/undetermined","","2011/07/23 00:00:00+00","204","1500","12","C","35.3156","-118.0717","BLM","CA","Kern","06029","Kern County"
"-116.847488163","32.57809524","1465205","201107066","W-623573","FED","DOI-WFMI","BLM","USCACDD","California Desert District","CACDD","California Desert District","","","","DOG","","","","","","2011","2011/07/22 00:00:00+00","203","0630","Human","Recreation and ceremony","","2011/07/22 00:00:00+00","203","1730","6","B","32.5781","-116.8475","BLM","CA","San Diego","06073","San Diego County"
"-115.449188327","33.70279503","1465206","201107067","W-621952","FED","DOI-WFMI","BLM","USCACDD","California Desert District","CACDD","California Desert District","","","","189","","","","","","2011","2011/07/12 00:00:00+00","193","1339","Human","Missing data/not specified/undetermined","","2011/07/12 00:00:00+00","193","1400","0.1","A","33.7028","-115.4492","BLM","CA","Riverside","06065","Riverside County"
"-115.296688355","33.698295022","1465207","201107068","W-621953","FED","DOI-WFMI","BLM","USCACDD","California Desert District","CACDD","California Desert District","","","","113","","","","","","2011","2011/07/12 00:00:00+00","193","1339","Human","Equipment and vehicle use","","2011/07/12 00:00:00+00","193","1400","0.2","A","33.6983","-115.2967","BLM","CA","Riverside","06065","Riverside County"
"-116.836688166","32.559395241","1465208","201107069","W-622283","FED","DOI-WFMI","BLM","USCACDD","California Desert District","CACDD","California Desert District","","","","BORDER 15","","","","","","2011","2011/07/13 00:00:00+00","194","1528","Human","Missing data/not specified/undetermined","","2011/07/13 00:00:00+00","194","1930","220","D","32.5594","-116.8367","BLM","CA","San Diego","06073","San Diego County"
"-117.311237999","33.701635132","1465209","201107070","W-629043","FED","DOI-WFMI","BLM","USCACDD","California Desert District","CACDD","California Desert District","","","","ROSETTA","","","","","","2011","2011/07/13 00:00:00+00","194","1917","Human","Missing data/not specified/undetermined","","2011/07/13 00:00:00+00","194","2200","2","B","33.70164","-117.31125","PRIVATE","CA","Riverside","06065","Riverside County"
"-117.503287869","34.869195011","1465210","201107072","W-622290","FED","DOI-WFMI","BLM","USCACDD","California Desert District","CACDD","California Desert District","","","","FIFTY EIGHT","","","","","","2011","2011/07/16 00:00:00+00","197","1300","Human","Equipment and vehicle use","","2011/07/16 00:00:00+00","197","1500","2","B","34.8692","-117.5033","BLM","CA","San Bernardino","06071","San Bernardino County"
"-117.091908018","33.940275092","1465211","201107073","W-622256","FED","DOI-WFMI","BLM","USCACDD","California Desert District","CACDD","California Desert District","","","","SUMMIT","","","","","","2011","2011/07/16 00:00:00+00","197","1137","Human","Missing data/not specified/undetermined","","2011/07/16 00:00:00+00","197","1248","1","B","33.94028","-117.09192","BLM","CA","Riverside","06065","Riverside County"
"-117.090787969","34.539195023","1465212","201107074","W-622788","FED","DOI-WFMI","BLM","USCACDD","California Desert District","CACDD","California Desert District","","","","CAHUILLA","","","","","","2011","2011/07/17 00:00:00+00","198","1230","Human","Firearms and explosives use","","2011/07/18 00:00:00+00","199","1430","97.5","C","34.5392","-117.0908","BLM","CA","San Bernardino","06071","San Bernardino County"
"-116.713458086","33.921435073","1465213","201107075","W-622474","FED","DOI-WFMI","BLM","USCACDD","California Desert District","CACDD","California Desert District","","","","WHITEWATER","","","","","","2011","2011/07/19 00:00:00+00","200","1026","Human","Missing data/not specified/undetermined","","2011/07/19 00:00:00+00","200","1700","78.8","C","33.92144","-116.71347","PRIVATE","CA","Riverside","06065","Riverside County"
"-116.682668089","33.945045069","1465214","201107078","W-623995","FED","DOI-WFMI","BLM","USCACDD","California Desert District","CACDD","California Desert District","","","","WHITEWATER","","","","","","2011","2011/08/01 00:00:00+00","213","0910","Human","Power generation/transmission/distribution","","2011/08/01 00:00:00+00","213","1700","3.1","B","33.94505","-116.68268","BLM","CA","Riverside","06065","Riverside County"
"-115.028185312","34.825797869","1465215","201107079","W-623882","FED","DOI-WFMI","BLM","USCACDD","California Desert District","CACDD","California Desert District","","","","VOLT","","","","","","2011","2011/08/03 00:00:00+00","215","1433","Human","Equipment and vehicle use","","2011/08/03 00:00:00+00","215","1520","0.1","A","34.825803","-115.028197","BLM","CA","San Bernardino","06071","San Bernardino County"
"-114.981548319","34.842324865","1465216","201107080","W-623819","FED","DOI-WFMI","BLM","USCACDD","California Desert District","CACDD","California Desert District","","","","WATER","","","","","","2011","2011/07/27 00:00:00+00","208","1239","Human","Equipment and vehicle use","","2011/07/27 00:00:00+00","208","1420","0.3","B","34.84233","-114.98156","BLM","CA","San Bernardino","06071","San Bernardino County"
"-115.563685152","35.530694818","1465217","201107081","W-625582","FED","DOI-WFMI","BLM","USCACDD","California Desert District","CACDD","California Desert District","","","","CLARK","","","","","","2011","2011/07/29 00:00:00+00","210","1246","Human","Missing data/not specified/undetermined","","2011/07/30 00:00:00+00","211","0001","0.5","B","35.5307","-115.563697","NPS","CA","San Bernardino","06071","San Bernardino County"
"-117.21778794","34.615795022","1465218","201107082","W-629106","FED","DOI-WFMI","BLM","USCACDD","California Desert District","CACDD","California Desert District","","","","QUARRY","","","","","","2011","2011/07/29 00:00:00+00","210","1645","Natural","Natural","","2011/07/29 00:00:00+00","210","1800","1","B","34.6158","-117.2178","BLM","CA","San Bernardino","06071","San Bernardino County"
"-116.284688196","33.467795103","1465219","201107083","W-623902","FED","DOI-WFMI","BLM","USCACDD","California Desert District","CACDD","California Desert District","","","F8VM","THIEF","","","","","","2011","2011/07/30 00:00:00+00","211","1821","Natural","Natural","","2011/08/01 00:00:00+00","213","1800","3.8","B","33.4678","-116.2847","BLM","CA","Riverside","06065","Riverside County"
"-118.15278772","35.303595003","1465220","201107085","W-628902","FED","DOI-WFMI","BLM","USCACDD","California Desert District","CACDD","California Desert District","","","","JAWBONE2","","","","","","2011","2011/08/01 00:00:00+00","213","1500","Natural","Natural","","2011/08/03 00:00:00+00","215","1800","150","D","35.3036","-118.1528","BLM","CA","Kern","06029","Kern County"
"-116.74328808","33.923295074","1465221","201107086","W-624410","FED","DOI-WFMI","BLM","USCACDD","California Desert District","CACDD","California Desert District","","","","TAMARISK","","","","","","2011","2011/08/08 00:00:00+00","220","1833","Human","Missing data/not specified/undetermined","","2011/08/08 00:00:00+00","220","1911","0.5","B","33.9233","-116.7433","BIA","CA","Riverside","06065","Riverside County"
"-117.140787951","34.643895014","1465222","201107087","W-624773","FED","DOI-WFMI","BLM","USCACDD","California Desert District","CACDD","California Desert District","","","","STODDARD II","","","","","","2011","2011/08/11 00:00:00+00","223","2000","Human","Debris and open burning","","2011/08/12 00:00:00+00","224","1800","10","C","34.6439","-117.1408","BLM","CA","San Bernardino","06071","San Bernardino County"
"-115.559988223","34.732494912","1465223","201107088","W-624804","FED","DOI-WFMI","BLM","USCACDD","California Desert District","CACDD","California Desert District","","","","HIGHWAY","","","","","","2011","2011/08/13 00:00:00+00","225","1108","Human","Equipment and vehicle use","","2011/08/13 00:00:00+00","225","1247","0.1","A","34.7325","-115.56","STATE","CA","San Bernardino","06071","San Bernardino County"
"-116.785788171","32.617195232","1465224","201107089","W-624085","FED","DOI-WFMI","BLM","USCACDD","California Desert District","CACDD","California Desert District","","","","SPUR","","","","","","2011","2011/07/16 00:00:00+00","197","1610","Human","Missing data/not specified/undetermined","","2011/07/16 00:00:00+00","197","1615","0.1","A","32.6172","-116.7858","BLM","CA","San Diego","06073","San Diego County"
"-117.08168802","33.937495092","1465225","201107090","W-628319","FED","DOI-WFMI","BLM","USCACDD","California Desert District","CACDD","California Desert District","","","F9L3","GILMAN","2011_CA-RRU-071943_GILMAN","","CA3393811708020110806","GILMAN","","2011","2011/08/06 00:00:00+00","218","1559","Human","Firearms and explosives use","","2011/08/08 00:00:00+00","220","0000","1026.6","F","33.9375","-117.0817","BLM","CA","Riverside","06065","Riverside County"
"-117.310287991","33.812195119","1465226","201107091","W-624710","FED","DOI-WFMI","BLM","USCACDD","California Desert District","CACDD","California Desert District","","","","PALM","","","","","","2011","2011/08/06 00:00:00+00","218","1030","Human","Firearms and explosives use","","2011/08/06 00:00:00+00","218","1400","5","B","33.8122","-117.3103","BLM","CA","Riverside","06065","Riverside County"
"-116.719548084","33.922435073","1465227","201107092","W-624238","FED","DOI-WFMI","BLM","USCACDD","California Desert District","CACDD","California Desert District","","","","CABAZON","","","","","","2011","2011/08/07 00:00:00+00","219","1217","Human","Missing data/not specified/undetermined","","2011/08/07 00:00:00+00","219","1800","97","C","33.92244","-116.71956","PRIVATE","CA","Riverside","06065","Riverside County"
"-116.601038099","33.996025058","1465228","201107094","W-624413","FED","DOI-WFMI","BLM","USCACDD","California Desert District","CACDD","California Desert District","","","","CREEK","","","","","","2011","2011/08/09 00:00:00+00","221","1220","Human","Firearms and explosives use","","2011/08/09 00:00:00+00","221","1530","1.3","B","33.99603","-116.60105","BLM","CA","Riverside","06065","Riverside County"
"-116.31150816","33.879625056","1465229","201107095","W-624636","FED","DOI-WFMI","BLM","USCACDD","California Desert District","CACDD","California Desert District","","","","THOUSAND PALMS","","","","","","2011","2011/07/28 00:00:00+00","209","1931","Human","Missing data/not specified/undetermined","","2011/07/28 00:00:00+00","209","1945","0.1","A","33.87963","-116.31152","BLM","CA","Riverside","06065","Riverside County"
"-115.479418322","33.696805032","1465230","201107096","W-624610","FED","DOI-WFMI","BLM","USCACDD","California Desert District","CACDD","California Desert District","","","","TRACTOR","","","","","","2011","2011/07/29 00:00:00+00","210","1415","Human","Missing data/not specified/undetermined","","2011/07/29 00:00:00+00","210","1430","0.1","A","33.69681","-115.47943","STATE","CA","Riverside","06065","Riverside County"
"-115.126988444","32.927195109","1465231","201107097","W-617122","FED","DOI-WFMI","BLM","USCACDD","California Desert District","CACDD","California Desert District","","","","BRUSH","","","","","","2011","2011/01/01 00:00:00+00","1","0009","Human","Missing data/not specified/undetermined","","2011/01/01 00:00:00+00","1","0025","0.1","A","32.9272","-115.127","BLM","CA","Imperial","06025","Imperial County"
"-116.300658161","33.880965055","1465232","201107098","W-617462","FED","DOI-WFMI","BLM","USCACDD","California Desert District","CACDD","California Desert District","","","","1000 PALMS","","","","","","2011","2011/01/11 00:00:00+00","11","0947","Human","Missing data/not specified/undetermined","","2011/01/11 00:00:00+00","11","1000","0.1","A","33.88097","-116.30067","PRIVATE","CA","Riverside","06065","Riverside County"
"-118.275787728","34.978895045","1465233","201107099","W-625859","FED","DOI-WFMI","BLM","USCACDD","California Desert District","CACDD","California Desert District","","","","TERRA","","","","","","2011","2011/08/21 00:00:00+00","233","1448","Human","Missing data/not specified/undetermined","","2011/08/21 00:00:00+00","233","1800","25","C","34.9789","-118.2758","BLM","CA","Kern","06029","Kern County"
"-115.80488818","34.719594927","1465234","201107100","W-625115","FED","DOI-WFMI","BLM","USCACDD","California Desert District","CACDD","California Desert District","","","","BLOSSOM","","","","","","2011","2011/08/16 00:00:00+00","228","1250","Human","Equipment and vehicle use","","2011/08/16 00:00:00+00","228","1600","0.3","B","34.7196","-115.8049","BLM","CA","San Bernardino","06071","San Bernardino County"
"-117.109687953","34.688895007","1465235","201107101","W-625127","FED","DOI-WFMI","BLM","USCACDD","California Desert District","CACDD","California Desert District","","","","SLASH","","","","","","2011","2011/08/13 00:00:00+00","225","1334","Natural","Natural","","2011/08/13 00:00:00+00","225","1430","0.1","A","34.6889","-117.1097","BLM","CA","San Bernardino","06071","San Bernardino County"
"-117.116087951","34.692795007","1465236","201107102","W-629109","FED","DOI-WFMI","BLM","USCACDD","California Desert District","CACDD","California Desert District","","","","SLASH","","","","","","2011","2011/08/17 00:00:00+00","229","1500","Natural","Natural","","2011/08/17 00:00:00+00","229","1700","1","B","34.6928","-117.1161","BLM","CA","San Bernardino","06071","San Bernardino County"
"-116.065518217","33.698995064","1465237","201107103","W-625295","FED","DOI-WFMI","BLM","USCACDD","California Desert District","CACDD","California Desert District","","","","FREIGHT","","","","","","2011","2011/08/17 00:00:00+00","229","1723","Human","Equipment and vehicle use","","2011/08/17 00:00:00+00","229","1756","0.1","A","33.699","-116.06553","BLM","CA","Riverside","06065","Riverside County"
"-117.284537999","33.759995123","1465238","201107104","W-625234","FED","DOI-WFMI","BLM","USCACDD","California Desert District","CACDD","California Desert District","","","","READ","","","","","","2011","2011/08/17 00:00:00+00","229","1719","Human","Missing data/not specified/undetermined","","2011/08/17 00:00:00+00","229","1830","2","B","33.76","-117.28455","PRIVATE","CA","Riverside","06065","Riverside County"
"-117.073797966","34.609215014","1465239","201107105","W-625511","FED","DOI-WFMI","BLM","USCACDD","California Desert District","CACDD","California Desert District","","","","JOHNSON","","","","","","2011","2011/08/20 00:00:00+00","232","1230","Human","Firearms and explosives use","","2011/08/21 00:00:00+00","233","1800","46.4","C","34.60922","-117.07381","BLM","CA","San Bernardino","06071","San Bernardino County"
"-117.037487975","34.578595016","1465240","201107106","W-625524","FED","DOI-WFMI","BLM","USCACDD","California Desert District","CACDD","California Desert District","","","","GRANITE II","","","","","","2011","2011/08/13 00:00:00+00","225","1430","Natural","Natural","","2011/08/15 00:00:00+00","227","1800","140","D","34.5786","-117.0375","PRIVATE","CA","San Bernardino","06071","San Bernardino County"
"-115.870288077","35.738094813","1465241","201107107","W-625180","FED","DOI-WFMI","BLM","USCACDD","California Desert District","CACDD","California Desert District","","","","KINGSTON","","","","","","2011","2011/08/14 00:00:00+00","226","1230","Natural","Natural","","2011/08/15 00:00:00+00","227","1800","23","C","35.7381","-115.8703","BLM","CA","San Bernardino","06071","San Bernardino County"
"-116.482098123","33.962415055","1465242","201107108","W-629044","FED","DOI-WFMI","BLM","USCACDD","California Desert District","CACDD","California Desert District","","","","PIERSON","","","","","","2011","2011/08/12 00:00:00+00","224","1734","Human","Missing data/not specified/undetermined","","2011/08/12 00:00:00+00","224","2000","0.1","A","33.96242","-116.48211","PRIVATE","CA","Riverside","06065","Riverside County"
"-117.11998795","34.696695007","1465243","201107109","W-625135","FED","DOI-WFMI","BLM","USCACDD","California Desert District","CACDD","California Desert District","","","","SLASH 2","","","","","","2011","2011/08/13 00:00:00+00","225","1540","Natural","Natural","","2011/08/13 00:00:00+00","225","1630","0.1","A","34.6967","-117.12","BLM","CA","San Bernardino","06071","San Bernardino County"
"-117.232788011","33.722715125","1465244","201107110","W-625664","FED","DOI-WFMI","BLM","USCACDD","California Desert District","CACDD","California Desert District","","","","COYOTE","","","","","","2011","2011/08/22 00:00:00+00","234","1645","Human","Missing data/not specified/undetermined","","2011/08/22 00:00:00+00","234","1706","5","B","33.72272","-117.2328","PRIVATE","CA","Riverside","06065","Riverside County"
"-116.019188227","33.683895063","1465245","201107111","W-625821","FED","DOI-WFMI","BLM","USCACDD","California Desert District","CACDD","California Desert District","","","","CACTUS","","","","","","2011","2011/08/22 00:00:00+00","234","1830","Human","Equipment and vehicle use","","2011/08/22 00:00:00+00","234","1900","0.1","A","33.6839","-116.0192","BLM","CA","Riverside","06065","Riverside County"
"-117.916087698","35.963894917","1465246","201107112","W-625872","FED","DOI-WFMI","BLM","USCACDD","California Desert District","CACDD","California Desert District","","","","JEEP","","","","","","2011","2011/08/23 00:00:00+00","235","1100","Human","Equipment and vehicle use","","2011/08/23 00:00:00+00","235","1230","0.1","A","35.9639","-117.9161","BLM","CA","Inyo","06027","Inyo County"
"-117.303887996","33.755595125","1465247","201107114","W-625716","FED","DOI-WFMI","BLM","USCACDD","California Desert District","CACDD","California Desert District","","","","RICHARD","","","","","","2011","2011/08/20 00:00:00+00","232","1340","Human","Firearms and explosives use","","2011/08/20 00:00:00+00","232","1400","5","B","33.7556","-117.3039","BLM","CA","Riverside","06065","Riverside County"
