"ï»¿X","Y","OBJECTID","FOD_ID","FPA_ID","SOURCE_SYSTEM_TYPE","SOURCE_SYSTEM","NWCG_REPORTING_AGENCY","NWCG_REPORTING_UNIT_ID","NWCG_REPORTING_UNIT_NAME","SOURCE_REPORTING_UNIT","SOURCE_REPORTING_UNIT_NAME","LOCAL_FIRE_REPORT_ID","LOCAL_INCIDENT_ID","FIRE_CODE","FIRE_NAME","ICS_209_PLUS_INCIDENT_JOIN_ID","ICS_209_PLUS_COMPLEX_JOIN_ID","MTBS_ID","MTBS_FIRE_NAME","COMPLEX_NAME","FIRE_YEAR","DISCOVERY_DATE","DISCOVERY_DOY","DISCOVERY_TIME","NWCG_CAUSE_CLASSIFICATION","NWCG_GENERAL_CAUSE","NWCG_CAUSE_AGE_CATEGORY","CONT_DATE","CONT_DOY","CONT_TIME","FIRE_SIZE","FIRE_SIZE_CLASS","LATITUDE","LONGITUDE","OWNER_DESCR","STATE","COUNTY","FIPS_CODE","FIPS_NAME"
"-96.982748456","32.319192358","1630001","201703828","TFS-TXFD2012-399177","NONFED","ST-TXTXS","ST/C&L","USTXTXS","Texas A & M Forest Service","TXSFD","Ellis County ESD #1","","399177","","012-128","","","","","","2012","2012/06/24 00:00:00+00","176","","Human","Power generation/transmission/distribution","","","","","1","B","32.319198","-96.982756","MISSING/NOT SPECIFIED","TX","Ellis","48139","Ellis County"
"-96.411759614","32.08130638","1630002","201703829","TFS-TXFD2012-397914","NONFED","ST-TXTXS","ST/C&L","USTXTXS","Texas A & M Forest Service","TXVFD","Mustang VFD","","397914","","SE 0030 12-08134","","","","","","2012","2012/06/24 00:00:00+00","176","","Human","Missing data/not specified/undetermined","","","","","5","B","32.081312","-96.411767","MISSING/NOT SPECIFIED","TX","Navarro","48349","Navarro County"
"-98.278276142","32.147632445","1630003","201703830","TFS-TXFD2012-424389","NONFED","ST-TXTXS","ST/C&L","USTXTXS","Texas A & M Forest Service","TXSFD","Dublin Fire Department","","424389","","CR 299 GRASS FIRE","","","","","","2012","2012/06/24 00:00:00+00","176","","Human","Debris and open burning","","","","","1","B","32.147638","-98.278284","MISSING/NOT SPECIFIED","TX","Erath","48143","Erath County"
"-96.882449513","31.763151461","1630004","201703832","TFS-TXFD2012-401645","NONFED","ST-TXTXS","ST/C&L","USTXTXS","Texas A & M Forest Service","TXVFD","Mount Calm VFD","","401645","","OUT OF CONTROL FIRE","","","","","","2012","2012/06/24 00:00:00+00","176","","Human","Debris and open burning","","","","","2","B","31.763157","-96.882457","MISSING/NOT SPECIFIED","TX","Hill","48217","Hill County"
"-96.234486656","32.136758362","1630005","201703834","TFS-TXFD2012-398264","NONFED","ST-TXTXS","ST/C&L","USTXTXS","Texas A & M Forest Service","TXVFD","Kerens Volunteer Fire Dept.","","398264","","1208165","","","","","","2012","2012/06/25 00:00:00+00","177","","Human","Equipment and vehicle use","","","","","0.5","B","32.136764","-96.234494","MISSING/NOT SPECIFIED","TX","Navarro","48349","Navarro County"
"-95.112358143","32.146632215","1630006","201703835","TFS-TXFD2012-397692","NONFED","ST-TXTXS","ST/C&L","USTXTXS","Texas A & M Forest Service","TXVFD","Troup Volunteer Fire Department","","397692","","FARM MARKET RD. 856 FIRE","","","","","","2012","2012/06/25 00:00:00+00","177","","Human","Missing data/not specified/undetermined","","","","","0.25","A","32.1466379","-95.1123652","MISSING/NOT SPECIFIED","TX","Smith","48423","Smith County"
"-96.509704767","32.46781021","1630007","201703836","TFS-TXFD2012-406873","NONFED","ST-TXTXS","ST/C&L","USTXTXS","Texas A & M Forest Service","TXVFD","Garrett Area Rural Volunteer Fire Department","","406873","","1760 SLATE ROCK RD","","","","","","2012","2012/06/25 00:00:00+00","177","","Human","Debris and open burning","","","","","20","C","32.4678159","-96.5097122","MISSING/NOT SPECIFIED","TX","Ellis","48139","Ellis County"
"-95.446703443","32.390260281","1630008","201703837","TFS-TXFD2012-403220","NONFED","ST-TXTXS","ST/C&L","USTXTXS","Texas A & M Forest Service","TXVFD","Dixie VFD","","403220","","GILBERT FIRE","","","","","","2012","2012/06/25 00:00:00+00","177","","Human","Debris and open burning","","","","","1.5","B","32.390266","-95.4467106","MISSING/NOT SPECIFIED","TX","Smith","48423","Smith County"
"-95.982007689","32.681189747","1630009","201703838","TFS-TXFD2012-411109","NONFED","ST-TXTXS","ST/C&L","USTXTXS","Texas A & M Forest Service","TXSFD","Wills Point FD","","411109","","HWY 64","","","","","","2012","2012/06/25 00:00:00+00","177","","Human","Missing data/not specified/undetermined","","","","","1","B","32.6811955","-95.982015","MISSING/NOT SPECIFIED","TX","Van Zandt","48467","Van Zandt County"
"-98.303939094","32.828028319","1630010","201703839","TFS-TXFD2012-399684","NONFED","ST-TXTXS","ST/C&L","USTXTXS","Texas A & M Forest Service","TXVFD","Lone Camp VFD","","399684","","PENINGTON FIRE","","","","","","2012","2012/06/25 00:00:00+00","177","","Human","Equipment and vehicle use","","","","","2","B","32.828034","-98.303947","MISSING/NOT SPECIFIED","TX","Palo Pinto","48363","Palo Pinto County"
"-98.588683016","32.94904131","1630011","201703841","TFS-TXFD2012-397796","NONFED","ST-TXTXS","ST/C&L","USTXTXS","Texas A & M Forest Service","TXSFD","Breckenridge FD","","397796","","BEER BARN FIRE","","","","","","2012","2012/06/25 00:00:00+00","177","","Human","Debris and open burning","","","","","50","C","32.949047","-98.588691","MISSING/NOT SPECIFIED","TX","Stephens","48429","Stephens County"
"-97.31093133","33.035800237","1630012","201703842","TFS-TXFD2012-404264","NONFED","ST-TXTXS","ST/C&L","USTXTXS","Texas A & M Forest Service","TXVFD","Justin Community VFD, Inc.","","404264","","17569 MATANY ","","","","","","2012","2012/06/25 00:00:00+00","177","","Human","Missing data/not specified/undetermined","","","","","0.25","A","33.035806","-97.310939","MISSING/NOT SPECIFIED","TX","Denton","48121","Denton County"
"-96.244931294","33.14499797","1630013","201703843","TFS-TXFD2012-399041","NONFED","ST-TXTXS","ST/C&L","USTXTXS","Texas A & M Forest Service","TXSFD","Cash Fire Department","","399041","","CR 3304 @ FM 2101","","","","","","2012","2012/06/25 00:00:00+00","177","","Human","Missing data/not specified/undetermined","","","","","2","B","33.1450038","-96.2449387","MISSING/NOT SPECIFIED","TX","Hunt","48231","Hunt County"
"-96.064665812","29.915307795","1630014","201703844","TFS-TXFD2012-401636","NONFED","ST-TXTXS","ST/C&L","USTXTXS","Texas A & M Forest Service","TXVFD","Mt. Zion Community Volunteer Fire Fighting Assoc.","","401636","","FIRE-GRASS","","","","","","2012","2012/06/25 00:00:00+00","177","","Human","Debris and open burning","","","","","8","B","29.915313","-96.064673","MISSING/NOT SPECIFIED","TX","Waller","48473","Waller County"
"-99.210666084","28.660988151","1630015","201703845","TFS-TXFD2012-397810","NONFED","ST-TXTXS","ST/C&L","USTXTXS","Texas A & M Forest Service","TXVFD","Dilley VFD","","397810","","HWY 85 1 MILE WEST OF IH 35","","","","","","2012","2012/06/25 00:00:00+00","177","","Human","Equipment and vehicle use","","","","","0.1","A","28.660993","-99.210674","MISSING/NOT SPECIFIED","TX","Frio","48163","Frio County"
"-99.236404086","28.452991193","1630016","201703846","TFS-TXFD2012-397959","NONFED","ST-TXTXS","ST/C&L","USTXTXS","Texas A & M Forest Service","TXVFD","Cotulla Vol. Fire Department","","397959","","MM69GRASSFIRE","","","","","","2012","2012/06/25 00:00:00+00","177","","Human","Debris and open burning","","","","","0.1","A","28.452996","-99.236412","MISSING/NOT SPECIFIED","TX","La Salle","48283","La Salle County"
"-99.307472079","28.200342245","1630017","201703847","TFS-TXFD2012-397963","NONFED","ST-TXTXS","ST/C&L","USTXTXS","Texas A & M Forest Service","TXVFD","Cotulla Vol. Fire Department","","397963","","MM47","","","","","","2012","2012/06/25 00:00:00+00","177","","Human","Debris and open burning","","","","","0.1","A","28.200347","-99.30748","MISSING/NOT SPECIFIED","TX","La Salle","48283","La Salle County"
"-98.53928724","28.872182087","1630018","201703848","TFS-TXFD2012-421461","NONFED","ST-TXTXS","ST/C&L","USTXTXS","Texas A & M Forest Service","TXVFD","Jourdanton VFD","","421461","","1332/326","","","","","","2012","2012/06/25 00:00:00+00","177","","Human","Missing data/not specified/undetermined","","","","","0.25","A","28.872187","-98.539295","MISSING/NOT SPECIFIED","TX","Atascosa","48013","Atascosa County"
"-98.057106402","27.750362299","1630019","201703849","TFS-TXFD2012-411186","NONFED","ST-TXTXS","ST/C&L","USTXTXS","Texas A & M Forest Service","TXSFD","Alice Fire Department","","411186","","STADIUM & SEABREEZE FIRE","","","","","","2012","2012/06/25 00:00:00+00","177","","Human","Missing data/not specified/undetermined","","","","","0.2","A","27.750367","-98.057114","MISSING/NOT SPECIFIED","TX","Jim Wells","48249","Jim Wells County"
"-97.839424291","31.434077562","1630020","201703850","TFS-TXFD2012-404023","NONFED","ST-TXTXS","ST/C&L","USTXTXS","Texas A & M Forest Service","TXSFD","Gatesville","","404023","","W HWY 84 LAMB FIRE","","","","","","2012","2012/06/25 00:00:00+00","177","","Human","Missing data/not specified/undetermined","","","","","1","B","31.434083","-97.839432","MISSING/NOT SPECIFIED","TX","Coryell","48099","Coryell County"
"-95.014564995","31.658636407","1630021","201703851","TFS-TXFD2012-398574","NONFED","ST-TXTXS","ST/C&L","USTXTXS","Texas A & M Forest Service","TXVFD","Alto VFD","","398574","","GRASS","","","","","","2012","2012/06/25 00:00:00+00","177","","Human","Missing data/not specified/undetermined","","","","","1","B","31.658642","-95.014572","MISSING/NOT SPECIFIED","TX","Cherokee","48073","Cherokee County"
"-98.780300047","31.621953564","1630022","201703852","TFS-TXFD2012-397835","NONFED","ST-TXTXS","ST/C&L","USTXTXS","Texas A & M Forest Service","TXVFD","Zephyr VFD","","397835","","259","","","","","","2012","2012/06/25 00:00:00+00","177","","Human","Equipment and vehicle use","","","","","1","B","31.621959","-98.780308","MISSING/NOT SPECIFIED","TX","Brown","48049","Brown County"
"-93.973267293","31.134071473","1630023","201703853","TFS-TXFD2012-407246","NONFED","ST-TXTXS","ST/C&L","USTXTXS","Texas A & M Forest Service","TXSFD","Lake Rayburn FD","","407246","","CR 200","","","","","","2012","2012/06/25 00:00:00+00","177","","Human","Arson/incendiarism","","","","","0.5","B","31.134077","-93.973274","MISSING/NOT SPECIFIED","TX","Jasper","48241","Jasper County"
"-99.14199203","30.251994838","1630024","201703854","TFS-TXFD2012-397988","NONFED","ST-TXTXS","ST/C&L","USTXTXS","Texas A & M Forest Service","TXVFD","Harper VFD","","397988","","BARBAROSA WILDLAND FIRE","","","","","","2012","2012/06/25 00:00:00+00","177","","Human","Missing data/not specified/undetermined","","","","","2","B","30.252","-99.142","MISSING/NOT SPECIFIED","TX","Gillespie","48171","Gillespie County"
"-97.222473504","30.258097767","1630025","201703855","TFS-TXFD2012-415726","NONFED","ST-TXTXS","ST/C&L","USTXTXS","Texas A & M Forest Service","TXVFD","McDade VFD","","415726","","1209OLD HWY 20","","","","","","2012","2012/06/25 00:00:00+00","177","","Human","Debris and open burning","","","","","0.3","B","30.258103","-97.222481","MISSING/NOT SPECIFIED","TX","Bastrop","48021","Bastrop County"
"-95.914642832","30.316684709","1630026","201703856","TFS-TXFD2012-398050","NONFED","ST-TXTXS","ST/C&L","USTXTXS","Texas A & M Forest Service","TXVFD","Plantersville-Stoneham VFD","","398050","","CIRCLE L RANCH","","","","","","2012","2012/06/25 00:00:00+00","177","","Human","Debris and open burning","","","","","1","B","30.31669","-95.91465","MISSING/NOT SPECIFIED","TX","Grimes","48185","Grimes County"
"-101.826624279","35.105876291","1630027","201703857","TFS-TXFD2012-399406","NONFED","ST-TXTXS","ST/C&L","USTXTXS","Texas A & M Forest Service","TXSFD","Randall County Fire Dept","","399406","","SUNDOWN  ","","","","","","2012","2012/06/25 00:00:00+00","177","","Human","Missing data/not specified/undetermined","","","","","0.1","A","35.1058822","-101.8266332","MISSING/NOT SPECIFIED","TX","Randall","48381","Randall County"
"-102.641992873","35.271545107","1630028","201703858","TFS-TXFD2012-418234","NONFED","ST-TXTXS","ST/C&L","USTXTXS","Texas A & M Forest Service","TXVFD","Adrian Vol Fire and EMS","","418234","","GRASS FIRE","","","","","","2012","2012/06/25 00:00:00+00","177","","Human","Smoking","","","","","1","B","35.271551","-102.642002","MISSING/NOT SPECIFIED","TX","Oldham","48359","Oldham County"
"-102.903690919","33.860432353","1630029","201703859","TFS-TXFD2012-401596","NONFED","ST-TXTXS","ST/C&L","USTXTXS","Texas A & M Forest Service","TXVFD","Muleshoe VFD","","401596","","2012042","","","","","","2012","2012/06/25 00:00:00+00","177","","Human","Equipment and vehicle use","","","","","100","D","33.860438","-102.9037","MISSING/NOT SPECIFIED","TX","Bailey","48017","Bailey County"
"-95.390159787","33.567210052","1630030","201703860","TFS-TXFD2012-397803","NONFED","ST-TXTXS","ST/C&L","USTXTXS","Texas A & M Forest Service","TXVFD","Biardstown VFD","","397803","","GRASS FIRE","","","","","","2012","2012/06/25 00:00:00+00","177","","Human","Debris and open burning","","","","","4","B","33.567216","-95.390167","MISSING/NOT SPECIFIED","TX","Lamar","48277","Lamar County"
"-98.552677","33.342177236","1630031","201703861","TFS-TXFD2012-404305","NONFED","ST-TXTXS","ST/C&L","USTXTXS","Texas A & M Forest Service","TXVFD","Loving Volunteer Fire Department","","404305","","1769+2652","","","","","","2012","2012/06/25 00:00:00+00","177","","Human","Equipment and vehicle use","","","","","2","B","33.342183","-98.552685","MISSING/NOT SPECIFIED","TX","Young","48503","Young County"
"-96.935660409","33.293824172","1630032","201703862","TFS-TXFD2012-398978","NONFED","ST-TXTXS","ST/C&L","USTXTXS","Texas A & M Forest Service","TXSFD","Aubrey Fire Department","","398978","","12-1042","","","","","","2012","2012/06/25 00:00:00+00","177","","Human","Debris and open burning","","","","","0.25","A","33.29383","-96.935668","MISSING/NOT SPECIFIED","TX","Denton","48121","Denton County"
"-97.523481241","33.588377144","1630033","201703863","TFS-TXFD2012-401995","NONFED","ST-TXTXS","ST/C&L","USTXTXS","Texas A & M Forest Service","TXVFD","Forestburg VFD","","401995","","TIPTON ACRES","","","","","","2012","2012/06/25 00:00:00+00","177","","Human","Debris and open burning","","","","","5","B","33.588383","-97.523489","MISSING/NOT SPECIFIED","TX","Montague","48337","Montague County"
"-95.293036809","33.617479038","1630034","201703864","TFS-TXFD2012-410210","NONFED","ST-TXTXS","ST/C&L","USTXTXS","Texas A & M Forest Service","TXVFD","Detroit VFD","","410210","","SCROGGINS BRUSH FIRE","","","","","","2012","2012/06/25 00:00:00+00","177","","Human","Debris and open burning","","","","","14","C","33.617485","-95.293044","MISSING/NOT SPECIFIED","TX","Red River","48387","Red River County"
"-96.962616576","33.704112797","1630035","201703865","TFS-TXFD2012-422442","NONFED","ST-TXTXS","ST/C&L","USTXTXS","Texas A & M Forest Service","TXVFD","Callisburg VFD","","422442","","ENNIS GRASS FIRE","","","","","","2012","2012/06/26 00:00:00+00","178","","Human","Arson/incendiarism","","","","","2","B","33.7041187","-96.9626242","MISSING/NOT SPECIFIED","TX","Cooke","48097","Cooke County"
"-94.341231976","33.310592755","1630036","201703866","TFS-TXFD2012-400958","NONFED","ST-TXTXS","ST/C&L","USTXTXS","Texas A & M Forest Service","TXVFD","Maud VFD","","400958","","AG FARM","","","","","","2012","2012/06/26 00:00:00+00","178","","Human","Equipment and vehicle use","","","","","0.5","B","33.3105987","-94.3412389","MISSING/NOT SPECIFIED","TX","Bowie","48037","Bowie County"
"-96.273872561","33.544250096","1630037","201703867","TFS-TXFD2012-429180","NONFED","ST-TXTXS","ST/C&L","USTXTXS","Texas A & M Forest Service","TXVFD","Ector Vol Fire Dept","","429180","","GRASS FIRE","","","","","","2012","2012/06/26 00:00:00+00","178","","Human","Equipment and vehicle use","","","","","15","C","33.544256","-96.27388","MISSING/NOT SPECIFIED","TX","Fannin","48147","Fannin County"
"-97.908517152","33.479987182","1630038","201703868","TFS-TXFD2012-400712","NONFED","ST-TXTXS","ST/C&L","USTXTXS","Texas A & M Forest Service","TXVFD","Sunset Volunteer Fire Department","","400712","","FRONTIER SHORES","","","","","","2012","2012/06/26 00:00:00+00","178","","Human","Debris and open burning","","","","","3","B","33.479993","-97.908525","MISSING/NOT SPECIFIED","TX","Montague","48337","Montague County"
"-98.517602772","33.900583833","1630039","201703869","TFS-TXFD2012-407229","NONFED","ST-TXTXS","ST/C&L","USTXTXS","Texas A & M Forest Service","TXSFD","Wichita Falls Fire Dept","","407229","","AVENUE C","","","","","","2012","2012/06/26 00:00:00+00","178","","Human","Missing data/not specified/undetermined","","","","","0.01","A","33.9005897","-98.5176108","MISSING/NOT SPECIFIED","TX","Wichita","48485","Wichita County"
"-98.491108977","33.920929929","1630040","201703870","TFS-TXFD2012-407225","NONFED","ST-TXTXS","ST/C&L","USTXTXS","Texas A & M Forest Service","TXSFD","Wichita Falls Fire Dept","","407225","","200 MARTIN LUTHER KING","","","","","","2012","2012/06/26 00:00:00+00","178","","Human","Power generation/transmission/distribution","","","","","0.1","A","33.9209358","-98.491117","MISSING/NOT SPECIFIED","TX","Wichita","48485","Wichita County"
"-98.490363967","34.066270102","1630041","201703871","TFS-TXFD2012-401647","NONFED","ST-TXTXS","ST/C&L","USTXTXS","Texas A & M Forest Service","TXSFD","Friberg-Cooper","","401647","","1171 & RED RIVER","","","","","","2012","2012/06/26 00:00:00+00","178","","Human","Missing data/not specified/undetermined","","","","","1","B","34.066276","-98.490372","MISSING/NOT SPECIFIED","TX","Wichita","48485","Wichita County"
"-102.462220869","35.835179006","1630042","201703872","TFS-TXFD2012-399866","NONFED","ST-TXTXS","ST/C&L","USTXTXS","Texas A & M Forest Service","TXVFD","Hartley Volunteer Fire Dept.","","399866","","BOOKOUT","","","","","","2012","2012/06/26 00:00:00+00","178","","Human","Power generation/transmission/distribution","","","","","3","B","35.835185","-102.46223","MISSING/NOT SPECIFIED","TX","Hartley","48205","Hartley County"
"-96.494605786","30.289778935","1630043","201703873","TFS-TXFD2012-398267","NONFED","ST-TXTXS","ST/C&L","USTXTXS","Texas A & M Forest Service","TXVFD","Gay Hill VFD","","398267","","11850 HWY 36N","","","","","","2012","2012/06/26 00:00:00+00","178","","Human","Smoking","","","","","1","B","30.2897842","-96.4946131","MISSING/NOT SPECIFIED","TX","Washington","48477","Washington County"
"-97.240197499","30.281226764","1630044","201703874","TFS-TXFD2012-415729","NONFED","ST-TXTXS","ST/C&L","USTXTXS","Texas A & M Forest Service","TXVFD","McDade VFD","","415729","","RICHMOND 7 ISD","","","","","","2012","2012/06/26 00:00:00+00","178","","Human","Debris and open burning","","","","","0.1","A","30.281232","-97.240205","MISSING/NOT SPECIFIED","TX","Bastrop","48021","Bastrop County"
"-95.900785839","30.249493722","1630045","201703875","TFS-TXFD2012-398056","NONFED","ST-TXTXS","ST/C&L","USTXTXS","Texas A & M Forest Service","TXVFD","Plantersville-Stoneham VFD","","398056","","COUNTRY LN","","","","","","2012","2012/06/26 00:00:00+00","178","","Human","Smoking","","","","","1","B","30.249499","-95.900793","MISSING/NOT SPECIFIED","TX","Grimes","48185","Grimes County"
"-97.661453483","30.496299437","1630046","201703876","TFS-TXFD2012-424852","NONFED","ST-TXTXS","ST/C&L","USTXTXS","Texas A & M Forest Service","TXSFD","Round Rock Fire Department","","424852","","EAST ROCK COMMAND","","","","","","2012","2012/06/26 00:00:00+00","178","","Human","Missing data/not specified/undetermined","","","","","2","B","30.4963047","-97.6614611","MISSING/NOT SPECIFIED","TX","Williamson","48491","Williamson County"
"-95.026238053","30.447780651","1630047","201703877","TFS-TXFD2012-401612","NONFED","ST-TXTXS","ST/C&L","USTXTXS","Texas A & M Forest Service","TXVFD","Shepherd V. F. D.","","401612","","HWY 59","","","","","","2012","2012/06/26 00:00:00+00","178","","Human","Missing data/not specified/undetermined","","","","","0.25","A","30.447786","-95.026245","MISSING/NOT SPECIFIED","TX","San Jacinto","48407","San Jacinto County"
"-98.90146124","26.384234602","1630048","201703878","TFS-TXFD2012-416025","NONFED","ST-TXTXS","ST/C&L","USTXTXS","Texas A & M Forest Service","TXVFD","La Rosita VFD","","416025","","US HWY. 83","","","","","","2012","2012/06/26 00:00:00+00","178","","Human","Missing data/not specified/undetermined","","","","","1","B","26.384239","-98.901469","MISSING/NOT SPECIFIED","TX","Starr","48427","Starr County"
"-96.90291415","28.776459854","1630049","201703879","TFS-TXFD2012-419816","NONFED","ST-TXTXS","ST/C&L","USTXTXS","Texas A & M Forest Service","TXVFD","DaCosta VFD","","419816","","GRASS FIRE","","","","","","2012","2012/06/26 00:00:00+00","178","","Human","Debris and open burning","","","","","1","B","28.7764648","-96.9029215","MISSING/NOT SPECIFIED","TX","Victoria","48469","Victoria County"
"-96.906647648","28.79962905","1630050","201703880","TFS-TXFD2012-411371","NONFED","ST-TXTXS","ST/C&L","USTXTXS","Texas A & M Forest Service","TXSFD","Victoria FD","","411371","","BURROUGHSVILLE RD","","","","","","2012","2012/06/26 00:00:00+00","178","","Human","Missing data/not specified/undetermined","","","","","1","B","28.799634","-96.906655","MISSING/NOT SPECIFIED","TX","Victoria","48469","Victoria County"
"-99.315368074","28.282307229","1630051","201703881","TFS-TXFD2012-398289","NONFED","ST-TXTXS","ST/C&L","USTXTXS","Texas A & M Forest Service","TXVFD","Cotulla Vol. Fire Department","","398289","","FM133 GRASSFIRE","","","","","","2012","2012/06/26 00:00:00+00","178","","Human","Debris and open burning","","","","","1","B","28.282312","-99.315376","MISSING/NOT SPECIFIED","TX","La Salle","48283","La Salle County"
"-99.09838812","28.465065186","1630052","201703882","TFS-TXFD2012-397965","NONFED","ST-TXTXS","ST/C&L","USTXTXS","Texas A & M Forest Service","TXVFD","Cotulla Vol. Fire Department","","397965","","6.5OUTHWY97","","","","","","2012","2012/06/26 00:00:00+00","178","","Human","Debris and open burning","","","","","0.1","A","28.46507","-99.098396","MISSING/NOT SPECIFIED","TX","La Salle","48283","La Salle County"
"-98.506500255","28.694799122","1630053","201703883","TFS-TXFD2012-401064","NONFED","ST-TXTXS","ST/C&L","USTXTXS","Texas A & M Forest Service","TXVFD","Christine Vol. Fire Dept.","","401064","","PEELER1","","","","","","2012","2012/06/26 00:00:00+00","178","","Natural","Natural","","","","","60","C","28.694804","-98.506508","MISSING/NOT SPECIFIED","TX","Atascosa","48013","Atascosa County"
"-98.413095256","29.218286014","1630054","201703884","TFS-TXFD2012-416620","NONFED","ST-TXTXS","ST/C&L","USTXTXS","Texas A & M Forest Service","TXVFD","Sandy Oaks VFD","","416620","","GRASS FIRE","","","","","","2012","2012/06/26 00:00:00+00","178","","Human","Debris and open burning","","","","","1","B","29.218291","-98.413103","MISSING/NOT SPECIFIED","TX","Bexar","48029","Bexar County"
"-98.481952246","29.063367047","1630055","201703885","TFS-TXFD2012-420244","NONFED","ST-TXTXS","ST/C&L","USTXTXS","Texas A & M Forest Service","TXVFD","Leming VFD","","420244","","HWY 281/ DAIRY RD","","","","","","2012","2012/06/26 00:00:00+00","178","","Human","Missing data/not specified/undetermined","","","","","1","B","29.063372","-98.48196","MISSING/NOT SPECIFIED","TX","Atascosa","48013","Atascosa County"
"-96.799242452","33.156373192","1630056","201703886","TFS-TXFD2012-398399","NONFED","ST-TXTXS","ST/C&L","USTXTXS","Texas A & M Forest Service","TXSFD","Frisco Fire Department","","398399","","BRINKMAN GRASS FIRE","","","","","","2012","2012/06/26 00:00:00+00","178","","Human","Equipment and vehicle use","","","","","1","B","33.156379","-96.79925","MISSING/NOT SPECIFIED","TX","Collin","48085","Collin County"
"-94.898864942","33.120582116","1630057","201703887","TFS-TXFD2012-412238","NONFED","ST-TXTXS","ST/C&L","USTXTXS","Texas A & M Forest Service","TXSFD","Mt. Pleasant Fire Dept.","","412238","","12-583","","","","","","2012","2012/06/26 00:00:00+00","178","","Human","Debris and open burning","","","","","1","B","33.120588","-94.898872","MISSING/NOT SPECIFIED","TX","Titus","48449","Titus County"
"-94.928327929","33.2096081","1630058","201703888","TFS-TXFD2012-403140","NONFED","ST-TXTXS","ST/C&L","USTXTXS","Texas A & M Forest Service","TXVFD","Cookville VFD","","403140","","CR 3310","","","","","","2012","2012/06/26 00:00:00+00","178","","Human","Debris and open burning","","","","","1","B","33.209614","-94.928335","MISSING/NOT SPECIFIED","TX","Titus","48449","Titus County"
"-96.449070537","33.226989163","1630059","201703889","TFS-TXFD2012-398044","NONFED","ST-TXTXS","ST/C&L","USTXTXS","Texas A & M Forest Service","TXVFD","Blue Ridge Vol. Fire Dept","","398044","","CR 499 FIRE","","","","","","2012","2012/06/26 00:00:00+00","178","","Human","Missing data/not specified/undetermined","","","","","10","C","33.226995","-96.449078","MISSING/NOT SPECIFIED","TX","Collin","48085","Collin County"
"-98.583233018","32.949113309","1630060","201703890","TFS-TXFD2012-398138","NONFED","ST-TXTXS","ST/C&L","USTXTXS","Texas A & M Forest Service","TXVFD","Possum Kingdom Westside VFD","","398138","","PUMP JACK 1287 CO. LINE","","","","","","2012","2012/06/26 00:00:00+00","178","","Human","Equipment and vehicle use","","","","","1","B","32.949119","-98.583241","MISSING/NOT SPECIFIED","TX","Stephens","48429","Stephens County"
"-96.356784594","32.676728264","1630061","201703892","TFS-TXFD2012-398012","NONFED","ST-TXTXS","ST/C&L","USTXTXS","Texas A & M Forest Service","TXVFD","Terrell Volunteer Fire Dept.","","398012","","RODGERS","","","","","","2012","2012/06/26 00:00:00+00","178","","Human","Missing data/not specified/undetermined","","","","","1","B","32.676734","-96.356792","MISSING/NOT SPECIFIED","TX","Kaufman","48257","Kaufman County"
"-96.274036325","32.493361495","1630062","201703893","TFS-TXFD2012-398190","NONFED","ST-TXTXS","ST/C&L","USTXTXS","Texas A & M Forest Service","TXSFD","Kaufman FD","","398190","","TAYLOR RANCH","","","","","","2012","2012/06/26 00:00:00+00","178","","Human","Power generation/transmission/distribution","","","","","2","B","32.4933672","-96.2740437","MISSING/NOT SPECIFIED","TX","Kaufman","48257","Kaufman County"
"-99.040881933","32.490500414","1630063","201703894","TFS-TXFD2012-398053","NONFED","ST-TXTXS","ST/C&L","USTXTXS","Texas A & M Forest Service","TXSFD","Breckenridge FD","","398053","","COZART","","","","","","2012","2012/06/26 00:00:00+00","178","","Human","Missing data/not specified/undetermined","","","","","0.8","B","32.490506","-99.04089","MISSING/NOT SPECIFIED","TX","Eastland","48133","Eastland County"
"-95.06240394","32.438681255","1630064","201703895","TFS-TXFD2012-412443","NONFED","ST-TXTXS","ST/C&L","USTXTXS","Texas A & M Forest Service","TXVFD","Jackson Heights VFD","","412443","","WINONA GRASS FIRE","","","","","","2012","2012/06/26 00:00:00+00","178","","Human","Missing data/not specified/undetermined","","","","","0.5","B","32.438687","-95.062411","MISSING/NOT SPECIFIED","TX","Smith","48423","Smith County"
"-97.382158873","32.006771334","1630065","201703896","TFS-TXFD2012-418150","NONFED","ST-TXTXS","ST/C&L","USTXTXS","Texas A & M Forest Service","TXVFD","Lakeview VFD","","418150","","2604","","","","","","2012","2012/06/26 00:00:00+00","178","","Human","Debris and open burning","","","","","0.25","A","32.0067769","-97.3821665","MISSING/NOT SPECIFIED","TX","Hill","48217","Hill County"
"-99.970300735","32.003659643","1630066","201703897","TFS-TXFD2012-401101","NONFED","ST-TXTXS","ST/C&L","USTXTXS","Texas A & M Forest Service","TXVFD","Winters VFD","","401101","","WHEAT FIELD","","","","","","2012","2012/06/26 00:00:00+00","178","","Human","Equipment and vehicle use","","","","","5","B","32.0036651","-99.970309","MISSING/NOT SPECIFIED","TX","Runnels","48399","Runnels County"
"-97.381786474","32.001439235","1630067","201703898","TFS-TXFD2012-398124","NONFED","ST-TXTXS","ST/C&L","USTXTXS","Texas A & M Forest Service","TXVFD","2604 VFD","","398124","","ASHRIDGE","","","","","","2012","2012/06/26 00:00:00+00","178","","Human","Debris and open burning","","","","","1","B","32.0014448","-97.3817941","MISSING/NOT SPECIFIED","TX","Hill","48217","Hill County"
"-99.046202975","31.745096552","1630068","201703899","TFS-TXFD2012-398715","NONFED","ST-TXTXS","ST/C&L","USTXTXS","Texas A & M Forest Service","TXSFD","Bangs","","398715","","GRASS FIRE","","","","","","2012","2012/06/26 00:00:00+00","178","","Human","Debris and open burning","","","","","1","B","31.745102","-99.046211","MISSING/NOT SPECIFIED","TX","Brown","48049","Brown County"
"-96.655398134","32.400836429","1630069","201703900","TFS-TXFD2012-407583","NONFED","ST-TXTXS","ST/C&L","USTXTXS","Texas A & M Forest Service","TXVFD","Garrett Area Rural Volunteer Fire Department","","407583","","5601 N I45","","","","","","2012","2012/06/27 00:00:00+00","179","","Human","Missing data/not specified/undetermined","","","","","4","B","32.4008421","-96.6554056","MISSING/NOT SPECIFIED","TX","Ellis","48139","Ellis County"
"-99.484797829","32.410612448","1630070","201703901","TFS-TXFD2012-400842","NONFED","ST-TXTXS","ST/C&L","USTXTXS","Texas A & M Forest Service","TXVFD","Clyde VFD","","400842","","1825 S ACCESS","","","","","","2012","2012/06/27 00:00:00+00","179","","Human","Debris and open burning","","","","","0.1","A","32.410618","-99.484806","MISSING/NOT SPECIFIED","TX","Callahan","48059","Callahan County"
"-95.167258916","32.381975271","1630071","201703902","TFS-TXFD2012-412442","NONFED","ST-TXTXS","ST/C&L","USTXTXS","Texas A & M Forest Service","TXVFD","Jackson Heights VFD","","412442","","GRASSFIRE","","","","","","2012","2012/06/27 00:00:00+00","179","","Human","Debris and open burning","","","","","1","B","32.381981","-95.167266","MISSING/NOT SPECIFIED","TX","Smith","48423","Smith County"
"-95.07603614","32.36878937","1630072","201703903","TFS-TXFD2012-412446","NONFED","ST-TXTXS","ST/C&L","USTXTXS","Texas A & M Forest Service","TXVFD","Jackson Heights VFD","","412446","","GRASS FIRE","","","","","","2012","2012/06/27 00:00:00+00","179","","Human","Debris and open burning","","","","","0.25","A","32.3687951","-95.0760432","MISSING/NOT SPECIFIED","TX","Smith","48423","Smith County"
"-99.806490757","32.303272481","1630073","201703904","TFS-TXFD2012-419677","NONFED","ST-TXTXS","ST/C&L","USTXTXS","Texas A & M Forest Service","TXVFD","Buffalo Gap VFD","","419677","","HALLAWAY","","","","","","2012","2012/06/27 00:00:00+00","179","","Human","Arson/incendiarism","","","","","2","B","32.303278","-99.806499","MISSING/NOT SPECIFIED","TX","Taylor","48441","Taylor County"
"-94.532874471","32.552244911","1630074","201703905","TFS-TXFD2012-398452","NONFED","ST-TXTXS","ST/C&L","USTXTXS","Texas A & M Forest Service","TXVFD","Hallsville VFD","","398452","","12-0000126","","","","","","2012","2012/06/27 00:00:00+00","179","","Human","Debris and open burning","","","","","2","B","32.5522507","-94.5328814","MISSING/NOT SPECIFIED","TX","Harrison","48203","Harrison County"
"-94.116959379","32.561013393","1630075","201703906","TFS-TXFD2012-400994","NONFED","ST-TXTXS","ST/C&L","USTXTXS","Texas A & M Forest Service","TXVFD","Waskom VFD/EMS Services, Inc.","","400994","","GRASS FIRE","","","","","","2012","2012/06/27 00:00:00+00","179","","Human","Missing data/not specified/undetermined","","","","","0.5","B","32.5610192","-94.1169662","MISSING/NOT SPECIFIED","TX","Harrison","48203","Harrison County"
"-94.351523111","32.668636181","1630076","201703907","TFS-TXFD2012-398225","NONFED","ST-TXTXS","ST/C&L","USTXTXS","Texas A & M Forest Service","TXVFD","Woodlawn VFD","","398225","","HELEN OGLES","","","","","","2012","2012/06/27 00:00:00+00","179","","Human","Missing data/not specified/undetermined","","","","","0.25","A","32.668642","-94.35153","MISSING/NOT SPECIFIED","TX","Harrison","48203","Harrison County"
"-94.357102104","32.77832116","1630077","201703909","TFS-TXFD2012-399715","NONFED","ST-TXTXS","ST/C&L","USTXTXS","Texas A & M Forest Service","TXSFD","Jefferson","","399715","","JACK RAMSEY","","","","","","2012","2012/06/27 00:00:00+00","179","","Human","Debris and open burning","","","","","20","C","32.778327","-94.357109","MISSING/NOT SPECIFIED","TX","Marion","48315","Marion County"
"-98.09483545","32.767532321","1630078","201703910","TFS-TXFD2012-408383","NONFED","ST-TXTXS","ST/C&L","USTXTXS","Texas A & M Forest Service","TXVFD","Mineral Wells VFD","","408383","","HOGG MT","","","","","","2012","2012/06/27 00:00:00+00","179","","Human","Debris and open burning","","","","","0.5","B","32.767538","-98.0948433","MISSING/NOT SPECIFIED","TX","Palo Pinto","48363","Palo Pinto County"
"-100.918689462","32.74662885","1630079","201703911","TFS-TXFD2012-398939","NONFED","ST-TXTXS","ST/C&L","USTXTXS","Texas A & M Forest Service","TXVFD","Snyder Volunteer Fire Dept.","","398939","","15282 FM 612","","","","","","2012","2012/06/27 00:00:00+00","179","","Human","Equipment and vehicle use","","","","","0.25","A","32.7466344","-100.918698","MISSING/NOT SPECIFIED","TX","Scurry","48415","Scurry County"
"-97.311055329","33.051367234","1630080","201703912","TFS-TXFD2012-404267","NONFED","ST-TXTXS","ST/C&L","USTXTXS","Texas A & M Forest Service","TXVFD","Justin Community VFD, Inc.","","404267","","ARMETCO","","","","","","2012","2012/06/27 00:00:00+00","179","","Human","Missing data/not specified/undetermined","","","","","1","B","33.051373","-97.311063","MISSING/NOT SPECIFIED","TX","Denton","48121","Denton County"
"-97.480621678","33.190806816","1630081","201703913","TFS-TXFD2012-405351","NONFED","ST-TXTXS","ST/C&L","USTXTXS","Texas A & M Forest Service","TXSFD","East Wise Fire Rescue, Inc.","","405351","","GRASS FIRE","","","","","","2012","2012/06/27 00:00:00+00","179","","Human","Power generation/transmission/distribution","","","","","0.25","A","33.1908126","-97.4806294","MISSING/NOT SPECIFIED","TX","Wise","48497","Wise County"
"-97.271966335","33.11700022","1630082","201703914","TFS-TXFD2012-404265","NONFED","ST-TXTXS","ST/C&L","USTXTXS","Texas A & M Forest Service","TXVFD","Justin Community VFD, Inc.","","404265","","8500 HOLDER","","","","","","2012","2012/06/27 00:00:00+00","179","","Human","Missing data/not specified/undetermined","","","","","3","B","33.117006","-97.271974","MISSING/NOT SPECIFIED","TX","Denton","48121","Denton County"
"-98.651994202","29.101294045","1630083","201703915","TFS-TXFD2012-418064","NONFED","ST-TXTXS","ST/C&L","USTXTXS","Texas A & M Forest Service","TXVFD","Rossville VFD","","418064","","HERNANDEZ FIRE","","","","","","2012","2012/06/27 00:00:00+00","179","","Human","Power generation/transmission/distribution","","","","","1","B","29.101299","-98.652002","MISSING/NOT SPECIFIED","TX","Atascosa","48013","Atascosa County"
"-98.629753207","29.115795042","1630084","201703916","TFS-TXFD2012-418059","NONFED","ST-TXTXS","ST/C&L","USTXTXS","Texas A & M Forest Service","TXVFD","Rossville VFD","","418059","","D55","","","","","","2012","2012/06/27 00:00:00+00","179","","Human","Power generation/transmission/distribution","","","","","1","B","29.1158","-98.629761","MISSING/NOT SPECIFIED","TX","Atascosa","48013","Atascosa County"
"-97.044034562","29.992578814","1630085","201703917","TFS-TXFD2012-398266","NONFED","ST-TXTXS","ST/C&L","USTXTXS","Texas A & M Forest Service","TXVFD","Winchester Area VFD","","398266","","KIRKHAM RD. FIRE ","","","","","","2012","2012/06/27 00:00:00+00","179","","Human","Debris and open burning","","","","","5","B","29.992584","-97.044042","MISSING/NOT SPECIFIED","TX","Fayette","48149","Fayette County"
"-98.123013639","26.11313484","1630086","201703918","TFS-TXFD2012-399408","NONFED","ST-TXTXS","ST/C&L","USTXTXS","Texas A & M Forest Service","TXSFD","Alamo Fire Department","","399408","","GRASS FIRE","","","","","","2012","2012/06/27 00:00:00+00","179","","Human","Debris and open burning","","","","","1","B","26.1131392","-98.1230212","MISSING/NOT SPECIFIED","TX","Hidalgo","48215","Hidalgo County"
"-97.959312521","27.906028364","1630087","201703919","TFS-TXFD2012-400784","NONFED","ST-TXTXS","ST/C&L","USTXTXS","Texas A & M Forest Service","TXVFD","Orange Grove VFD","","400784","","340 CR 3221","","","","","","2012","2012/06/27 00:00:00+00","179","","Human","Debris and open burning","","","","","5","B","27.9060331","-97.9593201","MISSING/NOT SPECIFIED","TX","Jim Wells","48249","Jim Wells County"
"-97.795779493","26.989543448","1630088","201703920","TFS-TXFD2012-398270","NONFED","ST-TXTXS","ST/C&L","USTXTXS","Texas A & M Forest Service","TXSFD","Kenedy County Fire and Emergency Services District","","398270","","UNION PACIFIC FIRE","","","","","","2012","2012/06/27 00:00:00+00","179","","Human","Smoking","","","","","8","B","26.989548","-97.795787","MISSING/NOT SPECIFIED","TX","Kenedy","48261","Kenedy County"
"-99.0613312","26.425228597","1630089","201703921","TFS-TXFD2012-407227","NONFED","ST-TXTXS","ST/C&L","USTXTXS","Texas A & M Forest Service","TXVFD","Salineno Vol. Fire Dept","","407227","","3 SUNRISE RD.","","","","","","2012","2012/06/27 00:00:00+00","179","","Human","Missing data/not specified/undetermined","","","","","1","B","26.425233","-99.061339","MISSING/NOT SPECIFIED","TX","Starr","48427","Starr County"
"-95.383478365","30.382724877","1630090","201703922","TFS-TXFD2012-418137","NONFED","ST-TXTXS","ST/C&L","USTXTXS","Texas A & M Forest Service","TXSFD","Montgomery County Emergency Service District 1","","418137","","12-0017326","","","","","","2012","2012/06/27 00:00:00+00","179","","Human","Debris and open burning","","","","","1","B","30.3827302","-95.3834854","MISSING/NOT SPECIFIED","TX","Montgomery","48339","Montgomery County"
"-93.599732408","30.784017531","1630091","201703923","TFS-TXFD2012-410849","NONFED","ST-TXTXS","ST/C&L","USTXTXS","Texas A & M Forest Service","TXVFD","Bon Wier Volunteer Fire Department","","410849","","KARST","","","","","","2012","2012/06/27 00:00:00+00","179","","Human","Missing data/not specified/undetermined","","","","","2","B","30.784023","-93.599739","MISSING/NOT SPECIFIED","TX","Newton","48351","Newton County"
"-97.708337654","30.837946872","1630092","201703924","TFS-TXFD2012-398348","NONFED","ST-TXTXS","ST/C&L","USTXTXS","Texas A & M Forest Service","TXVFD","Florence VFD","","398348","","GREY/ 487","","","","","","2012","2012/06/27 00:00:00+00","179","","Human","Debris and open burning","","","","","2","B","30.8379522","-97.7083453","MISSING/NOT SPECIFIED","TX","Williamson","48491","Williamson County"
"-95.522918885","31.273795503","1630093","201703925","TFS-TXFD2012-398269","NONFED","ST-TXTXS","ST/C&L","USTXTXS","Texas A & M Forest Service","TXSFD","Crockett FD","","398269","","2012-220","","","","","","2012","2012/06/27 00:00:00+00","179","","Human","Missing data/not specified/undetermined","","","","","0.25","A","31.273801","-95.522926","MISSING/NOT SPECIFIED","TX","Houston","48225","Houston County"
"-97.993176273","31.051599641","1630094","201703926","TFS-TXFD2012-398242","NONFED","ST-TXTXS","ST/C&L","USTXTXS","Texas A & M Forest Service","TXVFD","Kempner VFD Inc.","","398242","","730CR4530","","","","","","2012","2012/06/27 00:00:00+00","179","","Human","Debris and open burning","","","","","1","B","31.051605","-97.993184","MISSING/NOT SPECIFIED","TX","Lampasas","48281","Lampasas County"
"-97.692148349","31.030884534","1630095","201703927","TFS-TXFD2012-405921","NONFED","ST-TXTXS","ST/C&L","USTXTXS","Texas A & M Forest Service","TXVFD","Southwest Bell County Volunteer Fire Department","","405921","","CHAPPARAL RD / E TRIMMIER RD","","","","","","2012","2012/06/27 00:00:00+00","179","","Human","Debris and open burning","","","","","0.01","A","31.0308899","-97.692156","MISSING/NOT SPECIFIED","TX","Bell","48027","Bell County"
"-98.454264188","33.90287893","1630096","201703929","TFS-TXFD2012-407243","NONFED","ST-TXTXS","ST/C&L","USTXTXS","Texas A & M Forest Service","TXSFD","Wichita Falls Fire Dept","","407243","","STAR AVENUE","","","","","","2012","2012/06/27 00:00:00+00","179","","Human","Power generation/transmission/distribution","","","","","16","C","33.9028848","-98.4542722","MISSING/NOT SPECIFIED","TX","Wichita","48485","Wichita County"
"-95.571434719","33.891643999","1630097","201703930","TFS-TXFD2012-417361","NONFED","ST-TXTXS","ST/C&L","USTXTXS","Texas A & M Forest Service","TXVFD","Chicota VFD","","417361","","62712","","","","","","2012","2012/06/27 00:00:00+00","179","","Human","Debris and open burning","","","","","150","D","33.89165","-95.571442","MISSING/NOT SPECIFIED","TX","Lamar","48277","Lamar County"
"-101.933465042","35.254458072","1630098","201703931","TFS-TXFD2012-415556","NONFED","ST-TXTXS","ST/C&L","USTXTXS","Texas A & M Forest Service","TXSFD","Amarillo Fire Department","","415556","","2012-9497","","","","","","2012","2012/06/27 00:00:00+00","179","","Human","Missing data/not specified/undetermined","","","","","1","B","35.254464","-101.933474","MISSING/NOT SPECIFIED","TX","Potter","48375","Potter County"
"-101.785918092","35.064843095","1630099","201703933","TFS-TXFD2012-398873","NONFED","ST-TXTXS","ST/C&L","USTXTXS","Texas A & M Forest Service","TXVFD","Happy VFD","","398873","","LAKE TANGELWOOD FIRE","","","","","","2012","2012/06/27 00:00:00+00","179","","Human","Debris and open burning","","","","","20","C","35.064849","-101.785927","MISSING/NOT SPECIFIED","TX","Randall","48381","Randall County"
"-100.867216322","34.934530069","1630100","201703934","TFS-TXFD2012-400069","NONFED","ST-TXTXS","ST/C&L","USTXTXS","Texas A & M Forest Service","TXVFD","Clarendon Vol. Fire Dept.","","400069","","CR R 4400 BLOCK","","","","","","2012","2012/06/27 00:00:00+00","179","","Human","Missing data/not specified/undetermined","","","","","1","B","34.934536","-100.867225","MISSING/NOT SPECIFIED","TX","Donley","48129","Donley County"
"-95.983850634","33.568104078","1630101","201703935","TFS-TXFD2012-400207","NONFED","ST-TXTXS","ST/C&L","USTXTXS","Texas A & M Forest Service","TXVFD","Honey Grove Volunteer Fire","","400207","","56 @ WELLS BROTHERS","","","","","","2012","2012/06/27 00:00:00+00","179","","Human","Power generation/transmission/distribution","","","","","0.05","A","33.56811","-95.983858","MISSING/NOT SPECIFIED","TX","Fannin","48147","Fannin County"
"-95.986597636","33.528368086","1630102","201703936","TFS-TXFD2012-400206","NONFED","ST-TXTXS","ST/C&L","USTXTXS","Texas A & M Forest Service","TXVFD","Honey Grove Volunteer Fire","","400206","","CR3430@CR3455","","","","","","2012","2012/06/27 00:00:00+00","179","","Human","Power generation/transmission/distribution","","","","","50","C","33.528374","-95.986605","MISSING/NOT SPECIFIED","TX","Fannin","48147","Fannin County"
"-94.251551797","33.357142543","1630103","201703937","TFS-TXFD2012-416200","NONFED","ST-TXTXS","ST/C&L","USTXTXS","Texas A & M Forest Service","TXVFD","Redwater Vol. Fire Dept.","","416200","","GRASS FIRE","","","","","","2012","2012/06/27 00:00:00+00","179","","Human","Debris and open burning","","","","","3.5","B","33.3571485","-94.2515587","MISSING/NOT SPECIFIED","TX","Bowie","48037","Bowie County"
"-96.768428447","33.365296151","1630104","201703938","TFS-TXFD2012-402504","NONFED","ST-TXTXS","ST/C&L","USTXTXS","Texas A & M Forest Service","TXSFD","Celina Fire Department","","402504","","3455 N. PRESTON RD","","","","","","2012","2012/06/27 00:00:00+00","179","","Human","Missing data/not specified/undetermined","","","","","1","B","33.365302","-96.768436","MISSING/NOT SPECIFIED","TX","Collin","48085","Collin County"
"-98.445335025","33.364680227","1630105","201703939","TFS-TXFD2012-404316","NONFED","ST-TXTXS","ST/C&L","USTXTXS","Texas A & M Forest Service","TXVFD","Loving Volunteer Fire Department","","404316","","MARKLEY CEMETARY","","","","","","2012","2012/06/27 00:00:00+00","179","","Human","Equipment and vehicle use","","","","","3","B","33.364686","-98.445343","MISSING/NOT SPECIFIED","TX","Young","48503","Young County"
"-98.369600018","33.763944151","1630106","201703940","TFS-TXFD2012-398502","NONFED","ST-TXTXS","ST/C&L","USTXTXS","Texas A & M Forest Service","TXVFD","Arrowhead Ranch Estates VFD","","398502","","LA DAM","","","","","","2012","2012/06/27 00:00:00+00","179","","Human","Missing data/not specified/undetermined","","","","","1","B","33.76395","-98.369608","MISSING/NOT SPECIFIED","TX","Clay","48077","Clay County"
"-98.060524106","33.604034166","1630107","201703941","TFS-TXFD2012-404600","NONFED","ST-TXTXS","ST/C&L","USTXTXS","Texas A & M Forest Service","TXVFD","Vashti VFD","","404600","","GILL HILL PASTURE FIRE","","","","","","2012","2012/06/27 00:00:00+00","179","","Human","Equipment and vehicle use","","","","","20","C","33.60404","-98.060532","MISSING/NOT SPECIFIED","TX","Clay","48077","Clay County"
"-96.636335466","33.589619104","1630108","201703942","TFS-TXFD2012-398373","NONFED","ST-TXTXS","ST/C&L","USTXTXS","Texas A & M Forest Service","TXSFD","Sherman Fire Dept","","398373","","HWY 1417 ","","","","","","2012","2012/06/28 00:00:00+00","180","","Human","Power generation/transmission/distribution","","","","","1","B","33.589625","-96.636343","MISSING/NOT SPECIFIED","TX","Grayson","48181","Grayson County"
"-100.991812383","33.68034829","1630109","201703943","TFS-TXFD2012-408049","NONFED","ST-TXTXS","ST/C&L","USTXTXS","Texas A & M Forest Service","TXVFD","McAdoo VFD","","408049","","US82/CR111 ","","","","","","2012","2012/06/28 00:00:00+00","180","","Human","Missing data/not specified/undetermined","","","","","0.5","B","33.680354","-100.991821","MISSING/NOT SPECIFIED","TX","Dickens","48125","Dickens County"
"-95.722839693","33.689418044","1630110","201703944","TFS-TXFD2012-398407","NONFED","ST-TXTXS","ST/C&L","USTXTXS","Texas A & M Forest Service","TXSFD","Hopewell","","398407","","TIGERTOWN062812A","","","","","","2012","2012/06/28 00:00:00+00","180","","Human","Debris and open burning","","","","","5","B","33.689424","-95.722847","MISSING/NOT SPECIFIED","TX","Lamar","48277","Lamar County"
"-97.890829134","33.816983119","1630111","201703945","TFS-TXFD2012-421947","NONFED","ST-TXTXS","ST/C&L","USTXTXS","Texas A & M Forest Service","TXVFD","Ringgold Volunteer Fire Department","","421947","","MORTON","","","","","","2012","2012/06/28 00:00:00+00","180","","Human","Debris and open burning","","","","","1.5","B","33.816989","-97.890837","MISSING/NOT SPECIFIED","TX","Montague","48337","Montague County"
"-96.687762969","33.330120354","1630112","201703946","TFS-TXFD2012-404320","NONFED","ST-TXTXS","ST/C&L","USTXTXS","Texas A & M Forest Service","TXSFD","Anna Fire Dept","","404320","","2052926","","","","","","2012","2012/06/28 00:00:00+00","180","","Human","Missing data/not specified/undetermined","","","","","1","B","33.3301262","-96.6877705","MISSING/NOT SPECIFIED","TX","Collin","48085","Collin County"
"-96.762678453","33.290784165","1630113","201703947","TFS-TXFD2012-402505","NONFED","ST-TXTXS","ST/C&L","USTXTXS","Texas A & M Forest Service","TXSFD","Celina Fire Department","","402505","","CR 88/CR 86","","","","","","2012","2012/06/28 00:00:00+00","180","","Human","Missing data/not specified/undetermined","","","","","1","B","33.29079","-96.762686","MISSING/NOT SPECIFIED","TX","Collin","48085","Collin County"
"-97.907874152","33.480488181","1630114","201703948","TFS-TXFD2012-418186","NONFED","ST-TXTXS","ST/C&L","USTXTXS","Texas A & M Forest Service","TXVFD","Sunset Volunteer Fire Department","","418186","","FRONTIER SHORES","","","","","","2012","2012/06/28 00:00:00+00","180","","Human","Power generation/transmission/distribution","","","","","50","C","33.480494","-97.907882","MISSING/NOT SPECIFIED","TX","Montague","48337","Montague County"
"-95.57040472","33.891928999","1630115","201703949","TFS-TXFD2012-417367","NONFED","ST-TXTXS","ST/C&L","USTXTXS","Texas A & M Forest Service","TXVFD","Chicota VFD","","417367","","62812","","","","","","2012","2012/06/28 00:00:00+00","180","","Human","Debris and open burning","","","","","10","C","33.891935","-95.570412","MISSING/NOT SPECIFIED","TX","Lamar","48277","Lamar County"
"-98.577790759","33.871321342","1630116","201703952","TFS-TXFD2012-407247","NONFED","ST-TXTXS","ST/C&L","USTXTXS","Texas A & M Forest Service","TXSFD","Wichita Falls Fire Dept","","407247","","BARNETT RD","","","","","","2012","2012/06/28 00:00:00+00","180","","Human","Equipment and vehicle use","","","","","0.01","A","33.8713272","-98.5777988","MISSING/NOT SPECIFIED","TX","Wichita","48485","Wichita County"
"-100.664025255","36.370790819","1630117","201703953","TFS-TXFD2012-408890","NONFED","ST-TXTXS","ST/C&L","USTXTXS","Texas A & M Forest Service","TXVFD","Booker VFD","","408890","","377 & CO RD 24","","","","","","2012","2012/06/28 00:00:00+00","180","","Human","Debris and open burning","","","","","38","C","36.370797","-100.664034","MISSING/NOT SPECIFIED","TX","Ochiltree","48357","Ochiltree County"
"-101.461210123","35.648816981","1630118","201703954","TFS-TXFD2012-398374","NONFED","ST-TXTXS","ST/C&L","USTXTXS","Texas A & M Forest Service","TXSFD","Borger Fire Dept","","398374","","DUDLEY","","","","","","2012","2012/06/28 00:00:00+00","180","","Human","Missing data/not specified/undetermined","","","","","0.1","A","35.648823","-101.461219","MISSING/NOT SPECIFIED","TX","Hutchinson","48233","Hutchinson County"
"-100.393744689","31.002914744","1630119","201703955","TFS-TXFD2012-426312","NONFED","ST-TXTXS","ST/C&L","USTXTXS","Texas A & M Forest Service","TXVFD","Eldorado Vol. Fire Dept.","","426312","","HARKEY LANE FIRE","","","","","","2012","2012/06/28 00:00:00+00","180","","Human","Missing data/not specified/undetermined","","","","","5","B","31.00292","-100.393753","MISSING/NOT SPECIFIED","TX","Schleicher","48413","Schleicher County"
"-94.081071275","30.92342752","1630120","201703956","TFS-TXFD2012-398392","NONFED","ST-TXTXS","ST/C&L","USTXTXS","Texas A & M Forest Service","TXVFD","City of Jasper VFD","","398392","","R2012-06-59","","","","","","2012","2012/06/28 00:00:00+00","180","","Human","Smoking","","","","","0.01","A","30.923433","-94.081078","MISSING/NOT SPECIFIED","TX","Jasper","48241","Jasper County"
"-94.142955253","31.055575495","1630121","201703957","TFS-TXFD2012-402715","NONFED","ST-TXTXS","ST/C&L","USTXTXS","Texas A & M Forest Service","TXVFD","Anglina River VFD","","402715","","FSR 335","","","","","","2012","2012/06/28 00:00:00+00","180","","Human","Missing data/not specified/undetermined","","","","","1","B","31.055581","-94.142962","MISSING/NOT SPECIFIED","TX","Jasper","48241","Jasper County"
"-97.102386662","31.672977387","1630122","201703958","TFS-TXFD2012-399485","NONFED","ST-TXTXS","ST/C&L","USTXTXS","Texas A & M Forest Service","TXSFD","Elm Mott Fire/Rescue","","399485","","GRASSFIRE-LAWSON ST","","","","","","2012","2012/06/28 00:00:00+00","180","","Human","Debris and open burning","","","","","0.5","B","31.6729829","-97.1023942","MISSING/NOT SPECIFIED","TX","McLennan","48309","McLennan County"
"-97.450782374","31.6749995","1630123","201703959","TFS-TXFD2012-401271","NONFED","ST-TXTXS","ST/C&L","USTXTXS","Texas A & M Forest Service","TXVFD","Valley Mills VFD","","401271","","VINYARD GRASS FIRE","","","","","","2012","2012/06/28 00:00:00+00","180","","Human","Missing data/not specified/undetermined","","","","","15","C","31.675005","-97.45079","MISSING/NOT SPECIFIED","TX","Bosque","48035","Bosque County"
"-97.154631456","31.546203513","1630124","201703960","TFS-TXFD2012-410413","NONFED","ST-TXTXS","ST/C&L","USTXTXS","Texas A & M Forest Service","TXSFD","Waco Fire Department","","410413","","2321 SANGER","","","","","","2012","2012/06/28 00:00:00+00","180","","Human","Debris and open burning","","","","","1","B","31.546209","-97.154639","MISSING/NOT SPECIFIED","TX","McLennan","48309","McLennan County"
"-98.131928654","30.751189305","1630125","201703961","TFS-TXFD2012-403920","NONFED","ST-TXTXS","ST/C&L","USTXTXS","Texas A & M Forest Service","TXVFD","Bertram VFD","","403920","","12-0000235","","","","","","2012","2012/06/28 00:00:00+00","180","","Human","Debris and open burning","","","","","1","B","30.7511946","-98.1319364","MISSING/NOT SPECIFIED","TX","Burnet","48053","Burnet County"
"-96.649124636","30.513760696","1630126","201703963","TFS-TXFD2012-406474","NONFED","ST-TXTXS","ST/C&L","USTXTXS","Texas A & M Forest Service","TXSFD","Caldwell Fire and Rescue","","406474","","PIWONKA GRASS FIRE CYRD220","","","","","","2012","2012/06/28 00:00:00+00","180","","Human","Debris and open burning","","","","","3","B","30.513766","-96.649132","MISSING/NOT SPECIFIED","TX","Burleson","48051","Burleson County"
"-95.858322846","30.324764705","1630127","201703964","TFS-TXFD2012-398351","NONFED","ST-TXTXS","ST/C&L","USTXTXS","Texas A & M Forest Service","TXVFD","Plantersville-Stoneham VFD","","398351","","PHILIPS RD.","","","","","","2012","2012/06/28 00:00:00+00","180","","Human","Missing data/not specified/undetermined","","","","","5","B","30.32477","-95.85833","MISSING/NOT SPECIFIED","TX","Grimes","48185","Grimes County"
"-98.01717941","27.810493285","1630128","201703965","TFS-TXFD2012-411191","NONFED","ST-TXTXS","ST/C&L","USTXTXS","Texas A & M Forest Service","TXSFD","Alice Fire Department","","411191","","1/2 MILE E. OF 359 FIRE.","","","","","","2012","2012/06/28 00:00:00+00","180","","Human","Missing data/not specified/undetermined","","","","","8","B","27.810498","-98.017187","MISSING/NOT SPECIFIED","TX","Jim Wells","48249","Jim Wells County"
"-98.085369394","27.791331291","1630129","201703966","TFS-TXFD2012-411781","NONFED","ST-TXTXS","ST/C&L","USTXTXS","Texas A & M Forest Service","TXSFD","Alice Fire Department","","411781","","U.S. HWY.281& C.R. 118 FIRE","","","","","","2012","2012/06/28 00:00:00+00","180","","Human","Missing data/not specified/undetermined","","","","","0.01","A","27.791336","-98.085377","MISSING/NOT SPECIFIED","TX","Jim Wells","48249","Jim Wells County"
"-99.133042099","28.771225126","1630130","201703967","TFS-TXFD2012-399846","NONFED","ST-TXTXS","ST/C&L","USTXTXS","Texas A & M Forest Service","TXVFD","Pearsall Vol.Fire Dept.","","399846","","IH 35 MM 92","","","","","","2012","2012/06/28 00:00:00+00","180","","Human","Missing data/not specified/undetermined","","","","","0.12","A","28.77123","-99.13305","MISSING/NOT SPECIFIED","TX","Frio","48163","Frio County"
"-98.554931535","28.887743485","1630131","201703968","TFS-TXFD2012-421463","NONFED","ST-TXTXS","ST/C&L","USTXTXS","Texas A & M Forest Service","TXVFD","Jourdanton VFD","","421463","","283 CR 323","","","","","","2012","2012/06/28 00:00:00+00","180","","Human","Debris and open burning","","","","","1","B","28.8877484","-98.5549393","MISSING/NOT SPECIFIED","TX","Atascosa","48013","Atascosa County"
"-96.767753579","28.884333028","1630132","201703969","TFS-TXFD2012-411370","NONFED","ST-TXTXS","ST/C&L","USTXTXS","Texas A & M Forest Service","TXSFD","Victoria FD","","411370","","FM 444","","","","","","2012","2012/06/28 00:00:00+00","180","","Human","Missing data/not specified/undetermined","","","","","1","B","28.884338","-96.7677609","MISSING/NOT SPECIFIED","TX","Victoria","48469","Victoria County"
"-97.598802426","29.930338146","1630133","201703970","TFS-TXFD2012-416964","NONFED","ST-TXTXS","ST/C&L","USTXTXS","Texas A & M Forest Service","TXVFD","Dale VFD","","416964","","BARTH RD","","","","","","2012","2012/06/28 00:00:00+00","180","","Human","Debris and open burning","","","","","0.5","B","29.9303433","-97.59881","MISSING/NOT SPECIFIED","TX","Caldwell","48055","Caldwell County"
"-94.846336954","33.148756108","1630134","201703971","TFS-TXFD2012-412233","NONFED","ST-TXTXS","ST/C&L","USTXTXS","Texas A & M Forest Service","TXSFD","Mt. Pleasant Fire Dept.","","412233","","12-594","","","","","","2012","2012/06/28 00:00:00+00","180","","Human","Debris and open burning","","","","","2","B","33.148762","-94.846344","MISSING/NOT SPECIFIED","TX","Titus","48449","Titus County"
"-96.121274928","33.106166872","1630135","201703972","TFS-TXFD2012-424532","NONFED","ST-TXTXS","ST/C&L","USTXTXS","Texas A & M Forest Service","TXSFD","Greenville Fire Dept","","424532","","LAIR","","","","","","2012","2012/06/28 00:00:00+00","180","","Human","Smoking","","","","","4","B","33.1061727","-96.1212823","MISSING/NOT SPECIFIED","TX","Hunt","48231","Hunt County"
"-94.903101937","33.185793104","1630136","201703973","TFS-TXFD2012-403142","NONFED","ST-TXTXS","ST/C&L","USTXTXS","Texas A & M Forest Service","TXVFD","Cookville VFD","","403142","","CR 4030","","","","","","2012","2012/06/28 00:00:00+00","180","","Human","Power generation/transmission/distribution","","","","","1","B","33.185799","-94.903109","MISSING/NOT SPECIFIED","TX","Titus","48449","Titus County"
"-96.584025499","33.284819458","1630137","201703974","TFS-TXFD2012-404322","NONFED","ST-TXTXS","ST/C&L","USTXTXS","Texas A & M Forest Service","TXSFD","Anna Fire Dept","","404322","","2052995","","","","","","2012","2012/06/28 00:00:00+00","180","","Human","Debris and open burning","","","","","4","B","33.2848253","-96.584033","MISSING/NOT SPECIFIED","TX","Collin","48085","Collin County"
"-99.086371889","33.027082318","1630138","201703975","TFS-TXFD2012-398305","NONFED","ST-TXTXS","ST/C&L","USTXTXS","Texas A & M Forest Service","TXVFD","Woodson VFD","","398305","","LAKE ROAD FIRE","","","","","","2012","2012/06/28 00:00:00+00","180","","Human","Missing data/not specified/undetermined","","","","","25","C","33.027088","-99.08638","MISSING/NOT SPECIFIED","TX","Throckmorton","48447","Throckmorton County"
"-96.435043856","32.972353911","1630139","201703976","TFS-TXFD2012-417998","NONFED","ST-TXTXS","ST/C&L","USTXTXS","Texas A & M Forest Service","TXVFD","Rockwall Volunteer Fire Department","","417998","","2012-390","","","","","","2012","2012/06/28 00:00:00+00","180","","Human","Missing data/not specified/undetermined","","","","","1","B","32.9723597","-96.4350513","MISSING/NOT SPECIFIED","TX","Rockwall","48397","Rockwall County"
"-95.001792931","32.854744172","1630140","201703977","TFS-TXFD2012-402994","NONFED","ST-TXTXS","ST/C&L","USTXTXS","Texas A & M Forest Service","TXVFD","Simpsonville VFD","","402994","","FM 2454 GRASS FIRE","","","","","","2012","2012/06/28 00:00:00+00","180","","Human","Debris and open burning","","","","","0.5","B","32.85475","-95.0018","MISSING/NOT SPECIFIED","TX","Upshur","48459","Upshur County"
"-97.672693657","32.742775808","1630141","201703978","TFS-TXFD2012-402777","NONFED","ST-TXTXS","ST/C&L","USTXTXS","Texas A & M Forest Service","TXVFD","Silver Creek Volunteer Fire Department","","402777","","FARMERS RD","","","","","","2012","2012/06/28 00:00:00+00","180","","Human","Missing data/not specified/undetermined","","","","","1","B","32.7427815","-97.6727014","MISSING/NOT SPECIFIED","TX","Parker","48367","Parker County"
"-98.263905708","32.774548527","1630142","201703979","TFS-TXFD2012-408384","NONFED","ST-TXTXS","ST/C&L","USTXTXS","Texas A & M Forest Service","TXVFD","Mineral Wells VFD","","408384","","MINERAL WELLS HWY","","","","","","2012","2012/06/28 00:00:00+00","180","","Human","Arson/incendiarism","","","","","0.5","B","32.7745542","-98.2639136","MISSING/NOT SPECIFIED","TX","Palo Pinto","48363","Palo Pinto County"
"-98.290553301","32.76821523","1630143","201703980","TFS-TXFD2012-432808","NONFED","ST-TXTXS","ST/C&L","USTXTXS","Texas A & M Forest Service","TXSFD","Palo Pinto","","432808","","5570 FIREWORKS","","","","","","2012","2012/06/28 00:00:00+00","180","","Human","Missing data/not specified/undetermined","","","","","0.5","B","32.7682209","-98.2905612","MISSING/NOT SPECIFIED","TX","Palo Pinto","48363","Palo Pinto County"
"-97.765751229","32.820229197","1630144","201703981","TFS-TXFD2012-399444","NONFED","ST-TXTXS","ST/C&L","USTXTXS","Texas A & M Forest Service","TXVFD","Central Community VFD","","399444","","HIGHVIEW","","","","","","2012","2012/06/28 00:00:00+00","180","","Human","Debris and open burning","","","","","0.25","A","32.8202349","-97.765759","MISSING/NOT SPECIFIED","TX","Parker","48367","Parker County"
"-96.419613674","32.732732456","1630145","201703982","TFS-TXFD2012-414459","NONFED","ST-TXTXS","ST/C&L","USTXTXS","Texas A & M Forest Service","TXSFD","Ables Springs Fire Dept","","414459","","CR 312","","","","","","2012","2012/06/28 00:00:00+00","180","","Human","Debris and open burning","","","","","20","C","32.7327382","-96.4196211","MISSING/NOT SPECIFIED","TX","Kaufman","48257","Kaufman County"
"-96.409484578","32.717105258","1630146","201703983","TFS-TXFD2012-398415","NONFED","ST-TXTXS","ST/C&L","USTXTXS","Texas A & M Forest Service","TXSFD","Kaufman FD","","398415","","HELMS TRAIL","","","","","","2012","2012/06/28 00:00:00+00","180","","Human","Missing data/not specified/undetermined","","","","","150","D","32.717111","-96.409492","MISSING/NOT SPECIFIED","TX","Kaufman","48257","Kaufman County"
"-96.665184524","32.529965305","1630147","201703984","TFS-TXFD2012-406103","NONFED","ST-TXTXS","ST/C&L","USTXTXS","Texas A & M Forest Service","TXSFD","Ferris Fire Department","","406103","","MAIN STREET","","","","","","2012","2012/06/28 00:00:00+00","180","","Human","Smoking","","","","","1","B","32.529971","-96.665192","MISSING/NOT SPECIFIED","TX","Ellis","48139","Ellis County"
"-95.246233906","32.205921308","1630148","201703985","TFS-TXFD2012-403756","NONFED","ST-TXTXS","ST/C&L","USTXTXS","Texas A & M Forest Service","TXVFD","Troup Volunteer Fire Department","","403756","","10652 NIX LN. FIRE","","","","","","2012","2012/06/28 00:00:00+00","180","","Human","Debris and open burning","","","","","3","B","32.205927","-95.246241","MISSING/NOT SPECIFIED","TX","Smith","48423","Smith County"
"-96.794955701","32.365047742","1630149","201703986","TFS-TXFD2012-407584","NONFED","ST-TXTXS","ST/C&L","USTXTXS","Texas A & M Forest Service","TXVFD","Garrett Area Rural Volunteer Fire Department","","407584","","PARKS SCHOOL HOUSE RD","","","","","","2012","2012/06/28 00:00:00+00","180","","Human","Equipment and vehicle use","","","","","15","C","32.3650534","-96.7949632","MISSING/NOT SPECIFIED","TX","Ellis","48139","Ellis County"
"-99.648948794","32.336355468","1630150","201703987","TFS-TXFD2012-419682","NONFED","ST-TXTXS","ST/C&L","USTXTXS","Texas A & M Forest Service","TXVFD","Buffalo Gap VFD","","419682","","BROOK LANE","","","","","","2012","2012/06/28 00:00:00+00","180","","Human","Arson/incendiarism","","","","","20","C","32.336361","-99.648957","MISSING/NOT SPECIFIED","TX","Taylor","48441","Taylor County"
"-97.9954436","32.353515594","1630151","201703989","TFS-TXFD2012-423133","NONFED","ST-TXTXS","ST/C&L","USTXTXS","Texas A & M Forest Service","TXVFD","Tolar VFD","","423133","","GLEN CEMETERY","","","","","","2012","2012/06/28 00:00:00+00","180","","Human","Railroad operations and maintenance","","","","","1","B","32.3535212","-97.9954514","MISSING/NOT SPECIFIED","TX","Hood","48221","Hood County"
"-98.796928998","32.404760419","1630152","201703990","TFS-TXFD2012-398640","NONFED","ST-TXTXS","ST/C&L","USTXTXS","Texas A & M Forest Service","TXVFD","Eastland VFD","","398640","","STANLEY FORD REKINDEL","","","","","","2012","2012/06/28 00:00:00+00","180","","Human","Equipment and vehicle use","","","","","15","C","32.404766","-98.796937","MISSING/NOT SPECIFIED","TX","Eastland","48133","Eastland County"
"-98.796392998","32.403148419","1630153","201703991","TFS-TXFD2012-398642","NONFED","ST-TXTXS","ST/C&L","USTXTXS","Texas A & M Forest Service","TXVFD","Eastland VFD","","398642","","STANLEY FORD","","","","","","2012","2012/06/28 00:00:00+00","180","","Human","Equipment and vehicle use","","","","","2","B","32.403154","-98.796401","MISSING/NOT SPECIFIED","TX","Eastland","48133","Eastland County"
"-94.065654897","32.476498307","1630154","201703992","TFS-TXFD2012-400997","NONFED","ST-TXTXS","ST/C&L","USTXTXS","Texas A & M Forest Service","TXVFD","Waskom VFD/EMS Services, Inc.","","400997","","ILLEGAL BURNING","","","","","","2012","2012/06/28 00:00:00+00","180","","Human","Debris and open burning","","","","","0.1","A","32.4765041","-94.0656617","MISSING/NOT SPECIFIED","TX","Harrison","48203","Harrison County"
"-94.635240177","31.964541532","1630155","201703993","TFS-TXFD2012-401949","NONFED","ST-TXTXS","ST/C&L","USTXTXS","Texas A & M Forest Service","TXVFD","Mt. Enterprise VFD","","401949","","TRACEY THOMPSON","","","","","","2012","2012/06/28 00:00:00+00","180","","Human","Debris and open burning","","","","","1","B","31.9645472","-94.6352471","MISSING/NOT SPECIFIED","TX","Rusk","48401","Rusk County"
"-106.580677217","31.968723837","1630156","201703994","TFS-TXFD2012-399246","NONFED","ST-TXTXS","ST/C&L","USTXTXS","Texas A & M Forest Service","TXSFD","West Valley FD","","399246","","COACH FIRE","","","","","","2012","2012/06/28 00:00:00+00","180","","Human","Missing data/not specified/undetermined","","","","","0.1","A","31.968729","-106.580687","MISSING/NOT SPECIFIED","TX","El Paso","48141","El Paso County"
"-94.347789142","32.140505285","1630157","201703995","TFS-TXFD2012-399762","NONFED","ST-TXTXS","ST/C&L","USTXTXS","Texas A & M Forest Service","TXSFD","Carthage FD","","399762","","1100 BLOCK OF S. ADAMS","","","","","","2012","2012/06/28 00:00:00+00","180","","Human","Power generation/transmission/distribution","","","","","0.1","A","32.140511","-94.347796","MISSING/NOT SPECIFIED","TX","Panola","48365","Panola County"
"-98.120605183","32.114852444","1630158","201703996","TFS-TXFD2012-401755","NONFED","ST-TXTXS","ST/C&L","USTXTXS","Texas A & M Forest Service","TXVFD","Erath County Vol. Fire Rescue","","401755","","GRASS FIRE HWY 281 S","","","","","","2012","2012/06/29 00:00:00+00","181","","Human","Arson/incendiarism","","","","","1","B","32.114858","-98.120613","MISSING/NOT SPECIFIED","TX","Erath","48143","Erath County"
"-95.327503892","32.06416834","1630159","201703997","TFS-TXFD2012-399312","NONFED","ST-TXTXS","ST/C&L","USTXTXS","Texas A & M Forest Service","TXVFD","Bullard VFD","","399312","","12-214","","","","","","2012","2012/06/29 00:00:00+00","181","","Human","Debris and open burning","","","","","1","B","32.064174","-95.327511","MISSING/NOT SPECIFIED","TX","Cherokee","48073","Cherokee County"
"-97.493195945","32.013542837","1630160","201703998","TFS-TXFD2012-433186","NONFED","ST-TXTXS","ST/C&L","USTXTXS","Texas A & M Forest Service","TXVFD","Lakeside Village Area VFD","","433186","","CR 1292","","","","","","2012","2012/06/29 00:00:00+00","181","","Human","Debris and open burning","","","","","1","B","32.0135484","-97.4932036","MISSING/NOT SPECIFIED","TX","Bosque","48035","Bosque County"
"-97.655435309","31.92789546","1630161","201703999","TFS-TXFD2012-404998","NONFED","ST-TXTXS","ST/C&L","USTXTXS","Texas A & M Forest Service","TXVFD","Meridian VFD","","404998","","TREE STUMPS, D ST.","","","","","","2012","2012/06/29 00:00:00+00","181","","Human","Missing data/not specified/undetermined","","","","","0.1","A","31.927901","-97.655443","MISSING/NOT SPECIFIED","TX","Bosque","48035","Bosque County"
"-94.665964083","31.700635385","1630162","201704000","TFS-TXFD2012-399910","NONFED","ST-TXTXS","ST/C&L","USTXTXS","Texas A & M Forest Service","TXVFD","Central Heights VFD","","399910","","CR 102 FIRE","","","","","","2012","2012/06/29 00:00:00+00","181","","Human","Debris and open burning","","","","","5","B","31.700641","-94.665971","MISSING/NOT SPECIFIED","TX","Nacogdoches","48347","Nacogdoches County"
"-99.56187381","32.422712449","1630163","201704001","TFS-TXFD2012-400847","NONFED","ST-TXTXS","ST/C&L","USTXTXS","Texas A & M Forest Service","TXVFD","Clyde VFD","","400847","","I20 AND 603","","","","","","2012","2012/06/29 00:00:00+00","181","","Human","Power generation/transmission/distribution","","","","","0.25","A","32.422718","-99.561882","MISSING/NOT SPECIFIED","TX","Callahan","48059","Callahan County"
"-94.917669981","32.374254262","1630164","201704002","TFS-TXFD2012-432559","NONFED","ST-TXTXS","ST/C&L","USTXTXS","Texas A & M Forest Service","TXSFD","Kilgore Fire Department","","432559","","2012","","","","","","2012","2012/06/29 00:00:00+00","181","","Human","Missing data/not specified/undetermined","","","","","0.1","A","32.37426","-94.917677","MISSING/NOT SPECIFIED","TX","Gregg","48183","Gregg County"
"-98.265584741","32.210671132","1630165","201704003","TFS-TXFD2012-404938","NONFED","ST-TXTXS","ST/C&L","USTXTXS","Texas A & M Forest Service","TXSFD","Stephenville Fire Dept.","","404938","","CR 386 GRASS FIRE","","","","","","2012","2012/06/29 00:00:00+00","181","","Human","Missing data/not specified/undetermined","","","","","2","B","32.2106767","-98.2655926","MISSING/NOT SPECIFIED","TX","Erath","48143","Erath County"
"-95.276219779","32.531548746","1630166","201704004","TFS-TXFD2012-412449","NONFED","ST-TXTXS","ST/C&L","USTXTXS","Texas A & M Forest Service","TXVFD","Jackson Heights VFD","","412449","","GRASS FIRE","","","","","","2012","2012/06/29 00:00:00+00","181","","Human","Smoking","","","","","0.5","B","32.5315545","-95.2762269","MISSING/NOT SPECIFIED","TX","Smith","48423","Smith County"
"-96.666063523","32.538133303","1630167","201704005","TFS-TXFD2012-406104","NONFED","ST-TXTXS","ST/C&L","USTXTXS","Texas A & M Forest Service","TXSFD","Ferris Fire Department","","406104","","411 N. MAIN","","","","","","2012","2012/06/29 00:00:00+00","181","","Human","Smoking","","","","","1","B","32.538139","-96.666071","MISSING/NOT SPECIFIED","TX","Ellis","48139","Ellis County"
"-98.436462081","32.507440384","1630168","201704006","TFS-TXFD2012-400230","NONFED","ST-TXTXS","ST/C&L","USTXTXS","Texas A & M Forest Service","TXVFD","Gordon Volunteer Fire Department","","400230","","364MM","","","","","","2012","2012/06/29 00:00:00+00","181","","Human","Equipment and vehicle use","","","","","1","B","32.507446","-98.43647","MISSING/NOT SPECIFIED","TX","Erath","48143","Erath County"
"-94.346974114","32.650788184","1630169","201704007","TFS-TXFD2012-398530","NONFED","ST-TXTXS","ST/C&L","USTXTXS","Texas A & M Forest Service","TXVFD","Woodlawn VFD","","398530","","MEDIAN FIRE","","","","","","2012","2012/06/29 00:00:00+00","181","","Human","Missing data/not specified/undetermined","","","","","0.25","A","32.650794","-94.346981","MISSING/NOT SPECIFIED","TX","Harrison","48203","Harrison County"
"-101.109744417","32.731618462","1630170","201704008","TFS-TXFD2012-398946","NONFED","ST-TXTXS","ST/C&L","USTXTXS","Texas A & M Forest Service","TXVFD","Snyder Volunteer Fire Dept.","","398946","","BASIC ENERGY","","","","","","2012","2012/06/29 00:00:00+00","181","","Human","Power generation/transmission/distribution","","","","","0.1","A","32.731624","-101.109753","MISSING/NOT SPECIFIED","TX","Scurry","48415","Scurry County"
"-96.248809616","32.768217242","1630171","201704009","TFS-TXFD2012-398625","NONFED","ST-TXTXS","ST/C&L","USTXTXS","Texas A & M Forest Service","TXVFD","Terrell Volunteer Fire Dept.","","398625","","H34","","","","","","2012","2012/06/29 00:00:00+00","181","","Human","Smoking","","","","","1","B","32.768223","-96.248817","MISSING/NOT SPECIFIED","TX","Kaufman","48257","Kaufman County"
"-95.44968572","32.777694506","1630172","201704010","TFS-TXFD2012-421244","NONFED","ST-TXTXS","ST/C&L","USTXTXS","Texas A & M Forest Service","TXSFD","Quitman","","421244","","BRUSH FIRE","","","","","","2012","2012/06/29 00:00:00+00","181","","Human","Debris and open burning","","","","","0.5","B","32.7777003","-95.4496929","MISSING/NOT SPECIFIED","TX","Wood","48499","Wood County"
"-94.939585953","32.763954187","1630173","201704011","TFS-TXFD2012-403454","NONFED","ST-TXTXS","ST/C&L","USTXTXS","Texas A & M Forest Service","TXSFD","Gilmer Fire Department","","403454","","12-190","","","","","","2012","2012/06/29 00:00:00+00","181","","Human","Debris and open burning","","","","","1","B","32.76396","-94.939593","MISSING/NOT SPECIFIED","TX","Upshur","48459","Upshur County"
"-95.595466776","32.882176192","1630174","201704012","TFS-TXFD2012-401664","NONFED","ST-TXTXS","ST/C&L","USTXTXS","Texas A & M Forest Service","TXVFD","Lands End VFD","","401664","","6292012","","","","","","2012","2012/06/29 00:00:00+00","181","","Human","Debris and open burning","","","","","0.1","A","32.882182","-95.595474","MISSING/NOT SPECIFIED","TX","Wood","48499","Wood County"
"-96.141556434","32.915401209","1630175","201704013","TFS-TXFD2012-430962","NONFED","ST-TXTXS","ST/C&L","USTXTXS","Texas A & M Forest Service","TXVFD","Quinlan VFD","","430962","","N EDWARD ST FIRE","","","","","","2012","2012/06/29 00:00:00+00","181","","Human","Missing data/not specified/undetermined","","","","","0.12","A","32.915407","-96.1415638","MISSING/NOT SPECIFIED","TX","Hunt","48231","Hunt County"
"-98.587524017","32.94500731","1630176","201704014","TFS-TXFD2012-398967","NONFED","ST-TXTXS","ST/C&L","USTXTXS","Texas A & M Forest Service","TXVFD","Possum Kingdom Westside VFD","","398967","","BEER BARN &1287","","","","","","2012","2012/06/29 00:00:00+00","181","","Human","Debris and open burning","","","","","1","B","32.945013","-98.587532","MISSING/NOT SPECIFIED","TX","Stephens","48429","Stephens County"
"-96.087887645","32.960600198","1630177","201704015","TFS-TXFD2012-401674","NONFED","ST-TXTXS","ST/C&L","USTXTXS","Texas A & M Forest Service","TXSFD","Cash Fire Department","","401674","","723 CR 3505","","","","","","2012","2012/06/29 00:00:00+00","181","","Human","Missing data/not specified/undetermined","","","","","1","B","32.960606","-96.087895","MISSING/NOT SPECIFIED","TX","Hunt","48231","Hunt County"
"-96.228274489","33.287676042","1630178","201704016","TFS-TXFD2012-399575","NONFED","ST-TXTXS","ST/C&L","USTXTXS","Texas A & M Forest Service","TXVFD","Celeste VFD","","399575","","BRUSH FIRE CR 1092","","","","","","2012","2012/06/29 00:00:00+00","181","","Human","Missing data/not specified/undetermined","","","","","5","B","33.2876819","-96.2282819","MISSING/NOT SPECIFIED","TX","Hunt","48231","Hunt County"
"-96.600801508","33.064566201","1630179","201704017","TFS-TXFD2012-411018","NONFED","ST-TXTXS","ST/C&L","USTXTXS","Texas A & M Forest Service","TXSFD","Lucas FD","","411018","","12-0214","","","","","","2012","2012/06/29 00:00:00+00","181","","Human","Debris and open burning","","","","","1","B","33.064572","-96.600809","MISSING/NOT SPECIFIED","TX","Collin","48085","Collin County"
"-97.414076299","33.116204227","1630180","201704018","TFS-TXFD2012-405352","NONFED","ST-TXTXS","ST/C&L","USTXTXS","Texas A & M Forest Service","TXSFD","East Wise Fire Rescue, Inc.","","405352","","GRASS FIRE","","","","","","2012","2012/06/29 00:00:00+00","181","","Human","Debris and open burning","","","","","0.25","A","33.11621","-97.414084","MISSING/NOT SPECIFIED","TX","Wise","48497","Wise County"
"-98.051877404","27.740240301","1630181","201704019","TFS-TXFD2012-413621","NONFED","ST-TXTXS","ST/C&L","USTXTXS","Texas A & M Forest Service","TXSFD","Alice Fire Department","","413621","","1428 S.STADUIM FIRE","","","","","","2012","2012/06/29 00:00:00+00","181","","Human","Power generation/transmission/distribution","","","","","0.01","A","27.740245","-98.051885","MISSING/NOT SPECIFIED","TX","Jim Wells","48249","Jim Wells County"
"-97.077762512","30.845199647","1630182","201704020","TFS-TXFD2012-404622","NONFED","ST-TXTXS","ST/C&L","USTXTXS","Texas A & M Forest Service","TXVFD","Buckholts VFD","","404622","","BURNING TRASH","","","","","","2012","2012/06/29 00:00:00+00","181","","Human","Debris and open burning","","","","","3","B","30.845205","-97.07777","MISSING/NOT SPECIFIED","TX","Milam","48331","Milam County"
"-98.032297575","30.824642287","1630183","201704022","TFS-TXFD2012-403921","NONFED","ST-TXTXS","ST/C&L","USTXTXS","Texas A & M Forest Service","TXVFD","Bertram VFD","","403921","","12-0000236","","","","","","2012","2012/06/29 00:00:00+00","181","","Human","Debris and open burning","","","","","25","C","30.8246476","-98.0323053","MISSING/NOT SPECIFIED","TX","Burnet","48053","Burnet County"
"-97.811729235","30.7141137","1630184","201704024","TFS-TXFD2012-399380","NONFED","ST-TXTXS","ST/C&L","USTXTXS","Texas A & M Forest Service","TXSFD","Georgetown Fire Dept","","399380","","181 YOUNG RANCH RD","","","","","","2012","2012/06/29 00:00:00+00","181","","Human","Missing data/not specified/undetermined","","","","","0.25","A","30.714119","-97.8117369","MISSING/NOT SPECIFIED","TX","Williamson","48491","Williamson County"
"-94.418557202","30.620772594","1630185","201704025","TFS-TXFD2012-424190","NONFED","ST-TXTXS","ST/C&L","USTXTXS","Texas A & M Forest Service","TXVFD","Ivanhoe VFD","","424190","","1943 WEST","","","","","","2012","2012/06/29 00:00:00+00","181","","Human","Debris and open burning","","","","","1","B","30.620778","-94.418564","MISSING/NOT SPECIFIED","TX","Tyler","48457","Tyler County"
"-94.751983074","31.44475944","1630186","201704026","TFS-TXFD2012-400745","NONFED","ST-TXTXS","ST/C&L","USTXTXS","Texas A & M Forest Service","TXVFD","Central VFD","","400745","","GRASS/WOODS/KIRKLAND RD.","","","","","","2012","2012/06/29 00:00:00+00","181","","Human","Debris and open burning","","","","","1","B","31.444765","-94.75199","MISSING/NOT SPECIFIED","TX","Angelina","48005","Angelina County"
"-94.670470083","31.682559389","1630187","201704027","TFS-TXFD2012-399911","NONFED","ST-TXTXS","ST/C&L","USTXTXS","Texas A & M Forest Service","TXVFD","Central Heights VFD","","399911","","BEAVERS FIRE","","","","","","2012","2012/06/29 00:00:00+00","181","","Human","Debris and open burning","","","","","1","B","31.682565","-94.670477","MISSING/NOT SPECIFIED","TX","Nacogdoches","48347","Nacogdoches County"
"-98.794719041","31.664480557","1630188","201704028","TFS-TXFD2012-399315","NONFED","ST-TXTXS","ST/C&L","USTXTXS","Texas A & M Forest Service","TXVFD","Zephyr VFD","","399315","","CR261","","","","","","2012","2012/06/29 00:00:00+00","181","","Human","Power generation/transmission/distribution","","","","","1","B","31.664486","-98.794727","MISSING/NOT SPECIFIED","TX","Brown","48049","Brown County"
"-96.093885721","31.601487461","1630189","201704029","TFS-TXFD2012-399503","NONFED","ST-TXTXS","ST/C&L","USTXTXS","Texas A & M Forest Service","TXVFD","Dew VFD","","399503","","GRASS FIRE FCR 451","","","","","","2012","2012/06/29 00:00:00+00","181","","Human","Missing data/not specified/undetermined","","","","","0.12","A","31.601493","-96.093893","MISSING/NOT SPECIFIED","TX","Freestone","48161","Freestone County"
"-97.788265327","30.989109646","1630190","201704030","TFS-TXFD2012-405922","NONFED","ST-TXTXS","ST/C&L","USTXTXS","Texas A & M Forest Service","TXVFD","Southwest Bell County Volunteer Fire Department","","405922","","891 PECAN CREEK RD","","","","","","2012","2012/06/29 00:00:00+00","181","","Human","Debris and open burning","","","","","1","B","30.989115","-97.788273","MISSING/NOT SPECIFIED","TX","Bell","48027","Bell County"
"-101.398006088","36.256795879","1630191","201704031","TFS-TXFD2012-418745","NONFED","ST-TXTXS","ST/C&L","USTXTXS","Texas A & M Forest Service","TXSFD","Gruver Fire Dept.","","418745","","COOPER'S FIREWORKS FIRE","","","","","","2012","2012/06/29 00:00:00+00","181","","Human","Missing data/not specified/undetermined","","","","","30","C","36.256802","-101.398015","MISSING/NOT SPECIFIED","TX","Hansford","48195","Hansford County"
"-102.712545785","36.139913971","1630192","201704032","TFS-TXFD2012-411535","NONFED","ST-TXTXS","ST/C&L","USTXTXS","Texas A & M Forest Service","TXVFD","Dalhart VFD","","411535","","BRORMAN RD.","","","","","","2012","2012/06/29 00:00:00+00","181","","Human","Equipment and vehicle use","","","","","0.25","A","36.13992","-102.712555","MISSING/NOT SPECIFIED","TX","Dallam","48111","Dallam County"
"-98.497331476","33.910388631","1630193","201704033","TFS-TXFD2012-407269","NONFED","ST-TXTXS","ST/C&L","USTXTXS","Texas A & M Forest Service","TXSFD","Wichita Falls Fire Dept","","407269","","7TH ST","","","","","","2012","2012/06/29 00:00:00+00","181","","Human","Missing data/not specified/undetermined","","","","","0.25","A","33.9103945","-98.4973395","MISSING/NOT SPECIFIED","TX","Wichita","48485","Wichita County"
"-98.563177457","33.959280925","1630194","201704034","TFS-TXFD2012-407266","NONFED","ST-TXTXS","ST/C&L","USTXTXS","Texas A & M Forest Service","TXSFD","Wichita Falls Fire Dept","","407266","","5080 KIEL","","","","","","2012","2012/06/29 00:00:00+00","181","","Human","Missing data/not specified/undetermined","","","","","0.5","B","33.9592868","-98.5631855","MISSING/NOT SPECIFIED","TX","Wichita","48485","Wichita County"
"-102.551441988","34.041934305","1630195","201704035","TFS-TXFD2012-399274","NONFED","ST-TXTXS","ST/C&L","USTXTXS","Texas A & M Forest Service","TXVFD","Sudan VFD","","399274","","GRASS 2012-8","","","","","","2012","2012/06/29 00:00:00+00","181","","Natural","Natural","","","","","1","B","34.04194","-102.551451","MISSING/NOT SPECIFIED","TX","Lamb","48279","Lamb County"
"-102.943250822","35.031064162","1630196","201704036","TFS-TXFD2012-399183","NONFED","ST-TXTXS","ST/C&L","USTXTXS","Texas A & M Forest Service","TXVFD","Bootleg VFD","","399183","","BIPPUS","","","","","","2012","2012/06/29 00:00:00+00","181","","Natural","Natural","","","","","3","B","35.03107","-102.94326","MISSING/NOT SPECIFIED","TX","Deaf Smith","48117","Deaf Smith County"
"-101.869026061","35.206794076","1630197","201704037","TFS-TXFD2012-415605","NONFED","ST-TXTXS","ST/C&L","USTXTXS","Texas A & M Forest Service","TXSFD","Amarillo Fire Department","","415605","","2012-9596","","","","","","2012","2012/06/29 00:00:00+00","181","","Human","Debris and open burning","","","","","1","B","35.2068","-101.869035","MISSING/NOT SPECIFIED","TX","Potter","48375","Potter County"
"-102.803510869","34.838554186","1630198","201704038","TFS-TXFD2012-399181","NONFED","ST-TXTXS","ST/C&L","USTXTXS","Texas A & M Forest Service","TXSFD","Hereford Fire Dept.","","399181","","PULMAN","","","","","","2012","2012/06/29 00:00:00+00","181","","Natural","Natural","","","","","3","B","34.83856","-102.80352","MISSING/NOT SPECIFIED","TX","Deaf Smith","48117","Deaf Smith County"
"-98.06773311","33.511337183","1630199","201704039","TFS-TXFD2012-404604","NONFED","ST-TXTXS","ST/C&L","USTXTXS","Texas A & M Forest Service","TXVFD","Vashti VFD","","404604","","WATKINS PLACE FIRE","","","","","","2012","2012/06/29 00:00:00+00","181","","Human","Debris and open burning","","","","","1","B","33.511343","-98.067741","MISSING/NOT SPECIFIED","TX","Clay","48077","Clay County"
"-96.756240453","33.306567162","1630200","201704040","TFS-TXFD2012-402506","NONFED","ST-TXTXS","ST/C&L","USTXTXS","Texas A & M Forest Service","TXSFD","Celina Fire Department","","402506","","CR 90/CR 92","","","","","","2012","2012/06/29 00:00:00+00","181","","Human","Missing data/not specified/undetermined","","","","","2","B","33.306573","-96.756248","MISSING/NOT SPECIFIED","TX","Collin","48085","Collin County"
"-94.200734408","33.395198533","1630201","201704041","TFS-TXFD2012-416198","NONFED","ST-TXTXS","ST/C&L","USTXTXS","Texas A & M Forest Service","TXVFD","Redwater Vol. Fire Dept.","","416198","","GRASS FIRE","","","","","","2012","2012/06/29 00:00:00+00","181","","Human","Debris and open burning","","","","","2","B","33.3952045","-94.2007413","MISSING/NOT SPECIFIED","TX","Bowie","48037","Bowie County"
"-96.152765599","33.446190109","1630202","201704042","TFS-TXFD2012-429203","NONFED","ST-TXTXS","ST/C&L","USTXTXS","Texas A & M Forest Service","TXVFD","Bailey VFD","","429203","","1552 E 1 MILE","","","","","","2012","2012/06/29 00:00:00+00","181","","Human","Equipment and vehicle use","","","","","5","B","33.446196","-96.152773","MISSING/NOT SPECIFIED","TX","Fannin","48147","Fannin County"
"-98.750773921","33.793979164","1630203","201704043","TFS-TXFD2012-405022","NONFED","ST-TXTXS","ST/C&L","USTXTXS","Texas A & M Forest Service","TXVFD","Bowman Community Volunteer Fire Department","","405022","","REPUBLICAN ROAD FIRE","","","","","","2012","2012/06/29 00:00:00+00","181","","Human","Missing data/not specified/undetermined","","","","","300","E","33.793985","-98.750782","MISSING/NOT SPECIFIED","TX","Archer","48009","Archer County"
"-97.74930217","33.805462115","1630204","201704044","TFS-TXFD2012-398451","NONFED","ST-TXTXS","ST/C&L","USTXTXS","Texas A & M Forest Service","TXVFD","Nocona Rural VFD","","398451","","2012070","","","","","","2012","2012/06/29 00:00:00+00","181","","Human","Equipment and vehicle use","","","","","0.25","A","33.805468","-97.74931","MISSING/NOT SPECIFIED","TX","Montague","48337","Montague County"
"-98.388182013","33.765773152","1630205","201704045","TFS-TXFD2012-425790","NONFED","ST-TXTXS","ST/C&L","USTXTXS","Texas A & M Forest Service","TXVFD","Jolly VFD","","425790","","ARROWHEAD SPILLLWAY FIRE","","","","","","2012","2012/06/29 00:00:00+00","181","","Human","Arson/incendiarism","","","","","100","D","33.765779","-98.38819","MISSING/NOT SPECIFIED","TX","Clay","48077","Clay County"
"-95.740692685","33.754739032","1630206","201704046","TFS-TXFD2012-399211","NONFED","ST-TXTXS","ST/C&L","USTXTXS","Texas A & M Forest Service","TXSFD","Lamar Point/Caviness/Emberson","","399211","","UTS","","","","","","2012","2012/06/29 00:00:00+00","181","","Human","Debris and open burning","","","","","1","B","33.754745","-95.7407","MISSING/NOT SPECIFIED","TX","Lamar","48277","Lamar County"
"-95.537960737","33.759306022","1630207","201704047","TFS-TXFD2012-399205","NONFED","ST-TXTXS","ST/C&L","USTXTXS","Texas A & M Forest Service","TXSFD","Lamar Point/Caviness/Emberson","","399205","","MACK ROSS 062912B","","","","","","2012","2012/06/29 00:00:00+00","181","","Human","Missing data/not specified/undetermined","","","","","0.25","A","33.759312","-95.537968","MISSING/NOT SPECIFIED","TX","Lamar","48277","Lamar County"
"-97.327358288","33.632052127","1630208","201704048","TFS-TXFD2012-404751","NONFED","ST-TXTXS","ST/C&L","USTXTXS","Texas A & M Forest Service","TXVFD","Myra Volunteer Fire Dept","","404751","","1055 CR 302","","","","","","2012","2012/06/29 00:00:00+00","181","","Human","Equipment and vehicle use","","","","","2","B","33.632058","-97.327366","MISSING/NOT SPECIFIED","TX","Cooke","48097","Cooke County"
"-97.321873589","33.631207427","1630209","201704049","TFS-TXFD2012-398857","NONFED","ST-TXTXS","ST/C&L","USTXTXS","Texas A & M Forest Service","TXVFD","Muenster VFD","","398857","","HENSCHEID GRASS FIRE","","","","","","2012","2012/06/29 00:00:00+00","181","","Human","Equipment and vehicle use","","","","","3","B","33.6312133","-97.3218813","MISSING/NOT SPECIFIED","TX","Cooke","48097","Cooke County"
"-95.591749731","33.633336048","1630210","201704050","TFS-TXFD2012-431983","NONFED","ST-TXTXS","ST/C&L","USTXTXS","Texas A & M Forest Service","TXVFD","Brookston VFD","","431983","","BROOKSTON","","","","","","2012","2012/06/30 00:00:00+00","182","","Human","Smoking","","","","","1","B","33.633342","-95.591757","MISSING/NOT SPECIFIED","TX","Lamar","48277","Lamar County"
"-99.250147812","33.588243224","1630211","201704051","TFS-TXFD2012-399116","NONFED","ST-TXTXS","ST/C&L","USTXTXS","Texas A & M Forest Service","TXVFD","Seymour  VFD","","399116","","GRASS/MCLAIN ST","","","","","","2012","2012/06/30 00:00:00+00","182","","Human","Missing data/not specified/undetermined","","","","","0.5","B","33.588249","-99.250156","MISSING/NOT SPECIFIED","TX","Baylor","48023","Baylor County"
"-94.994136889","33.586268031","1630212","201704052","TFS-TXFD2012-400657","NONFED","ST-TXTXS","ST/C&L","USTXTXS","Texas A & M Forest Service","TXSFD","Clarksville Fire Department","","400657","","FORD","","","","","","2012","2012/06/30 00:00:00+00","182","","Human","Missing data/not specified/undetermined","","","","","1","B","33.586274","-94.994144","MISSING/NOT SPECIFIED","TX","Red River","48387","Red River County"
"-96.855175411","33.578030116","1630213","201704053","TFS-TXFD2012-415036","NONFED","ST-TXTXS","ST/C&L","USTXTXS","Texas A & M Forest Service","TXSFD","Sadler","","415036","","HWY 901 FIRE","","","","","","2012","2012/06/30 00:00:00+00","182","","Human","Equipment and vehicle use","","","","","10","C","33.578036","-96.855183","MISSING/NOT SPECIFIED","TX","Grayson","48181","Grayson County"
"-101.237288331","33.578581319","1630214","201704054","TFS-TXFD2012-414243","NONFED","ST-TXTXS","ST/C&L","USTXTXS","Texas A & M Forest Service","TXVFD","Crosbyton Vol. Fire Dept","","414243","","S K RANCH DITCH","","","","","","2012","2012/06/30 00:00:00+00","182","","Human","Missing data/not specified/undetermined","","","","","2","B","33.578587","-101.237297","MISSING/NOT SPECIFIED","TX","Crosby","48107","Crosby County"
"-98.399726011","33.761732153","1630215","201704055","TFS-TXFD2012-399225","NONFED","ST-TXTXS","ST/C&L","USTXTXS","Texas A & M Forest Service","TXVFD","Arrowhead Ranch Estates VFD","","399225","","STATE PARK 2","","","","","","2012","2012/06/30 00:00:00+00","182","","Human","Missing data/not specified/undetermined","","","","","20","C","33.761738","-98.399734","MISSING/NOT SPECIFIED","TX","Clay","48077","Clay County"
"-98.387925013","33.766344152","1630216","201704056","TFS-TXFD2012-425791","NONFED","ST-TXTXS","ST/C&L","USTXTXS","Texas A & M Forest Service","TXVFD","Jolly VFD","","425791","","ARROWHEAD SPILLLWAY FIRE","","","","","","2012","2012/06/30 00:00:00+00","182","","Human","Arson/incendiarism","","","","","5","B","33.76635","-98.387933","MISSING/NOT SPECIFIED","TX","Clay","48077","Clay County"
"-98.385994014","33.766870151","1630217","201704057","TFS-TXFD2012-399234","NONFED","ST-TXTXS","ST/C&L","USTXTXS","Texas A & M Forest Service","TXVFD","Arrowhead Ranch Estates VFD","","399234","","STATE PARK 3","","","","","","2012","2012/06/30 00:00:00+00","182","","Human","Missing data/not specified/undetermined","","","","","20","C","33.766876","-98.386002","MISSING/NOT SPECIFIED","TX","Clay","48077","Clay County"
"-96.40055474","33.368932134","1630218","201704058","TFS-TXFD2012-398620","NONFED","ST-TXTXS","ST/C&L","USTXTXS","Texas A & M Forest Service","TXVFD","Blue Ridge Vol. Fire Dept","","398620","","HWY 78 GRASS FIRE","","","","","","2012","2012/06/30 00:00:00+00","182","","Human","Power generation/transmission/distribution","","","","","1","B","33.368938","-96.4005622","MISSING/NOT SPECIFIED","TX","Collin","48085","Collin County"
"-96.523603508","33.373078139","1630219","201704059","TFS-TXFD2012-404323","NONFED","ST-TXTXS","ST/C&L","USTXTXS","Texas A & M Forest Service","TXSFD","Anna Fire Dept","","404323","","2053607","","","","","","2012","2012/06/30 00:00:00+00","182","","Human","Equipment and vehicle use","","","","","0.5","B","33.373084","-96.523611","MISSING/NOT SPECIFIED","TX","Collin","48085","Collin County"
"-101.84550007","35.161846082","1630220","201704060","TFS-TXFD2012-427446","NONFED","ST-TXTXS","ST/C&L","USTXTXS","Texas A & M Forest Service","TXSFD","Amarillo Fire Department","","427446","","2012-9673","","","","","","2012","2012/06/30 00:00:00+00","182","","Human","Arson/incendiarism","","","","","1","B","35.161852","-101.845509","MISSING/NOT SPECIFIED","TX","Randall","48381","Randall County"
"-98.513279965","34.025199111","1630221","201704061","TFS-TXFD2012-401649","NONFED","ST-TXTXS","ST/C&L","USTXTXS","Texas A & M Forest Service","TXSFD","Friberg-Cooper","","401649","","BOBBY POINT RD","","","","","","2012","2012/06/30 00:00:00+00","182","","Human","Missing data/not specified/undetermined","","","","","1","B","34.025205","-98.513288","MISSING/NOT SPECIFIED","TX","Wichita","48485","Wichita County"
"-102.927122887","34.217474294","1630222","201704062","TFS-TXFD2012-401601","NONFED","ST-TXTXS","ST/C&L","USTXTXS","Texas A & M Forest Service","TXVFD","Muleshoe VFD","","401601","","2012044","","","","","","2012","2012/06/30 00:00:00+00","182","","Natural","Natural","","","","","80","C","34.21748","-102.927132","MISSING/NOT SPECIFIED","TX","Bailey","48017","Bailey County"
"-102.927808887","34.216623295","1630223","201704063","TFS-TXFD2012-401604","NONFED","ST-TXTXS","ST/C&L","USTXTXS","Texas A & M Forest Service","TXVFD","Muleshoe VFD","","401604","","2012045","","","","","","2012","2012/06/30 00:00:00+00","182","","Human","Missing data/not specified/undetermined","","","","","20","C","34.216629","-102.927818","MISSING/NOT SPECIFIED","TX","Bailey","48017","Bailey County"
"-98.306686019","33.97638611","1630224","201704064","TFS-TXFD2012-398796","NONFED","ST-TXTXS","ST/C&L","USTXTXS","Texas A & M Forest Service","TXVFD","Petrolia VFD","","398796","","WERUK RD 10-22 FIREWORKS#2","","","","","","2012","2012/06/30 00:00:00+00","182","","Human","Missing data/not specified/undetermined","","","","","1","B","33.976392","-98.306694","MISSING/NOT SPECIFIED","TX","Clay","48077","Clay County"
"-101.185039295","35.575018279","1630225","201704065","TFS-TXFD2012-405394","NONFED","ST-TXTXS","ST/C&L","USTXTXS","Texas A & M Forest Service","TXVFD","Skellytown Volunteer Fire Dept","","405394","","HWY 152 & Y","","","","","","2012","2012/06/30 00:00:00+00","182","","Human","Smoking","","","","","0.01","A","35.5750243","-101.1850481","MISSING/NOT SPECIFIED","TX","Carson","48065","Carson County"
"-93.748273146","31.252079641","1630226","201704066","TFS-TXFD2012-399369","NONFED","ST-TXTXS","ST/C&L","USTXTXS","Texas A & M Forest Service","TXVFD","Six Mile Vol. Fire dept., Inc.","","399369","","222 WINFREE DR","","","","","","2012","2012/06/30 00:00:00+00","182","","Human","Power generation/transmission/distribution","","","","","0.5","B","31.2520852","-93.7482798","MISSING/NOT SPECIFIED","TX","Sabine","48403","Sabine County"
"-96.331151575","31.34696112","1630227","201704067","TFS-TXFD2012-399770","NONFED","ST-TXTXS","ST/C&L","USTXTXS","Texas A & M Forest Service","TXVFD","Seale-Round Prairie VFD","","399770","","RED BUD CT","","","","","","2012","2012/06/30 00:00:00+00","182","","Human","Missing data/not specified/undetermined","","","","","0.1","A","31.3469666","-96.3311589","MISSING/NOT SPECIFIED","TX","Robertson","48395","Robertson County"
"-99.47788888","31.552568606","1630228","201704068","TFS-TXFD2012-404568","NONFED","ST-TXTXS","ST/C&L","USTXTXS","Texas A & M Forest Service","TXVFD","South Coleman County VFD","","404568","","DOWNEY FIRE","","","","","","2012","2012/06/30 00:00:00+00","182","","Human","Power generation/transmission/distribution","","","","","4","B","31.552574","-99.477897","MISSING/NOT SPECIFIED","TX","Coleman","48083","Coleman County"
"-96.553157203","31.635829372","1630229","201704069","TFS-TXFD2012-399999","NONFED","ST-TXTXS","ST/C&L","USTXTXS","Texas A & M Forest Service","TXVFD","Lake Mexia VFD","","399999","","GRASS FIRE","","","","","","2012","2012/06/30 00:00:00+00","182","","Human","Debris and open burning","","","","","1","B","31.6358349","-96.5531646","MISSING/NOT SPECIFIED","TX","Limestone","48293","Limestone County"
"-94.020445202","30.691801565","1630230","201704070","TFS-TXFD2012-428578","NONFED","ST-TXTXS","ST/C&L","USTXTXS","Texas A & M Forest Service","TXVFD","Tri-Community VFD","","428578","","ANGELIQUE BARNETT","","","","","","2012","2012/06/30 00:00:00+00","182","","Human","Debris and open burning","","","","","0.5","B","30.691807","-94.0204519","MISSING/NOT SPECIFIED","TX","Jasper","48241","Jasper County"
"-99.415361083","27.39234041","1630231","201704071","TFS-TXFD2012-417232","NONFED","ST-TXTXS","ST/C&L","USTXTXS","Texas A & M Forest Service","TXVFD","El Cenizo Volunteer Fire Department","","417232","","STORAGE TANKER ON FIRE","","","","","","2012","2012/06/30 00:00:00+00","182","","Natural","Natural","","","","","1","B","27.392345","-99.415369","MISSING/NOT SPECIFIED","TX","Webb","48479","Webb County"
"-98.239738323","28.642384124","1630232","201704072","TFS-TXFD2012-411681","NONFED","ST-TXTXS","ST/C&L","USTXTXS","Texas A & M Forest Service","TXSFD","Whitsett","","411681","","GRASS FIRE IH 37 (79)","","","","","","2012","2012/06/30 00:00:00+00","182","","Human","Equipment and vehicle use","","","","","2","B","28.642389","-98.239746","MISSING/NOT SPECIFIED","TX","Live Oak","48297","Live Oak County"
"-98.159401348","28.500975149","1630233","201704073","TFS-TXFD2012-411684","NONFED","ST-TXTXS","ST/C&L","USTXTXS","Texas A & M Forest Service","TXSFD","Whitsett","","411684","","GRASS FIRE IH 37 (70)","","","","","","2012","2012/06/30 00:00:00+00","182","","Human","Equipment and vehicle use","","","","","4","B","28.50098","-98.159409","MISSING/NOT SPECIFIED","TX","Live Oak","48297","Live Oak County"
"-98.807551146","29.523023968","1630234","201704074","TFS-TXFD2012-415446","NONFED","ST-TXTXS","ST/C&L","USTXTXS","Texas A & M Forest Service","TXVFD","Castroville Volunteer Fire Company","","415446","","8977 FM471N","","","","","","2012","2012/06/30 00:00:00+00","182","","Human","Arson/incendiarism","","","","","1","B","29.523029","-98.807559","MISSING/NOT SPECIFIED","TX","Medina","48325","Medina County"
"-96.592218507","33.11889319","1630235","201704075","TFS-TXFD2012-411017","NONFED","ST-TXTXS","ST/C&L","USTXTXS","Texas A & M Forest Service","TXSFD","Lucas FD","","411017","","12-215","","","","","","2012","2012/06/30 00:00:00+00","182","","Human","Debris and open burning","","","","","0.1","A","33.118899","-96.592226","MISSING/NOT SPECIFIED","TX","Collin","48085","Collin County"
"-95.026237907","33.160254114","1630236","201704076","TFS-TXFD2012-412226","NONFED","ST-TXTXS","ST/C&L","USTXTXS","Texas A & M Forest Service","TXSFD","Mt. Pleasant Fire Dept.","","412226","","12-602","","","","","","2012","2012/06/30 00:00:00+00","182","","Human","Debris and open burning","","","","","1","B","33.16026","-95.026245","MISSING/NOT SPECIFIED","TX","Titus","48449","Titus County"
"-97.367021312","33.091674229","1630237","201704077","TFS-TXFD2012-404271","NONFED","ST-TXTXS","ST/C&L","USTXTXS","Texas A & M Forest Service","TXVFD","Justin Community VFD, Inc.","","404271","","FM 407 @ B JUDGE","","","","","","2012","2012/06/30 00:00:00+00","182","","Human","Missing data/not specified/undetermined","","","","","0.25","A","33.09168","-97.367029","MISSING/NOT SPECIFIED","TX","Denton","48121","Denton County"
"-94.16612913","33.175988074","1630238","201704078","TFS-TXFD2012-399870","NONFED","ST-TXTXS","ST/C&L","USTXTXS","Texas A & M Forest Service","TXSFD","Cass County Emergency Services District #2","","399870","","2012113","","","","","","2012","2012/06/30 00:00:00+00","182","","Human","Debris and open burning","","","","","1","B","33.175994","-94.166136","MISSING/NOT SPECIFIED","TX","Cass","48067","Cass County"
"-97.817966193","33.19373123","1630239","201704079","TFS-TXFD2012-411146","NONFED","ST-TXTXS","ST/C&L","USTXTXS","Texas A & M Forest Service","TXVFD","Runaway Bay VFD, City of","","411146","","LAKE BRIDGEPORT","","","","","","2012","2012/06/30 00:00:00+00","182","","Human","Missing data/not specified/undetermined","","","","","10","C","33.193737","-97.817974","MISSING/NOT SPECIFIED","TX","Wise","48497","Wise County"
"-95.06005491","32.961284154","1630240","201704080","TFS-TXFD2012-401245","NONFED","ST-TXTXS","ST/C&L","USTXTXS","Texas A & M Forest Service","TXSFD","Pittsburg FD","","401245","","1519 COMMAND","","","","","","2012","2012/06/30 00:00:00+00","182","","Human","Debris and open burning","","","","","1","B","32.96129","-95.060062","MISSING/NOT SPECIFIED","TX","Camp","48063","Camp County"
"-96.022461661","32.979447192","1630241","201704081","TFS-TXFD2012-399038","NONFED","ST-TXTXS","ST/C&L","USTXTXS","Texas A & M Forest Service","TXSFD","Cash Fire Department","","399038","","5847 CR 3515","","","","","","2012","2012/06/30 00:00:00+00","182","","Human","Missing data/not specified/undetermined","","","","","1","B","32.979453","-96.022469","MISSING/NOT SPECIFIED","TX","Hunt","48231","Hunt County"
"-95.00050992","33.041599136","1630242","201704082","TFS-TXFD2012-401252","NONFED","ST-TXTXS","ST/C&L","USTXTXS","Texas A & M Forest Service","TXSFD","Pittsburg FD","","401252","","2215 COMMAND","","","","","","2012","2012/06/30 00:00:00+00","182","","Human","Debris and open burning","","","","","1","B","33.041605","-95.000517","MISSING/NOT SPECIFIED","TX","Camp","48063","Camp County"
"-94.996042933","32.854694172","1630243","201704083","TFS-TXFD2012-402995","NONFED","ST-TXTXS","ST/C&L","USTXTXS","Texas A & M Forest Service","TXVFD","Simpsonville VFD","","402995","","LLAMA RD TREE FIRE","","","","","","2012","2012/06/30 00:00:00+00","182","","Natural","Natural","","","","","0.1","A","32.8547","-94.99605","MISSING/NOT SPECIFIED","TX","Upshur","48459","Upshur County"
