"ï»¿X","Y","OBJECTID","FOD_ID","FPA_ID","SOURCE_SYSTEM_TYPE","SOURCE_SYSTEM","NWCG_REPORTING_AGENCY","NWCG_REPORTING_UNIT_ID","NWCG_REPORTING_UNIT_NAME","SOURCE_REPORTING_UNIT","SOURCE_REPORTING_UNIT_NAME","LOCAL_FIRE_REPORT_ID","LOCAL_INCIDENT_ID","FIRE_CODE","FIRE_NAME","ICS_209_PLUS_INCIDENT_JOIN_ID","ICS_209_PLUS_COMPLEX_JOIN_ID","MTBS_ID","MTBS_FIRE_NAME","COMPLEX_NAME","FIRE_YEAR","DISCOVERY_DATE","DISCOVERY_DOY","DISCOVERY_TIME","NWCG_CAUSE_CLASSIFICATION","NWCG_GENERAL_CAUSE","NWCG_CAUSE_AGE_CATEGORY","CONT_DATE","CONT_DOY","CONT_TIME","FIRE_SIZE","FIRE_SIZE_CLASS","LATITUDE","LONGITUDE","OWNER_DESCR","STATE","COUNTY","FIPS_CODE","FIPS_NAME"
"-120.713525997","38.199694894","215001","218136","W-561879","FED","DOI-WFMI","BLM","USCACND","Central California District","CABBD","Bakersfield District","","","D44Z","LOPEZ","","","","","","1999","1999/06/04 00:00:00+00","155","1732","Human","Equipment and vehicle use","","1999/06/04 00:00:00+00","155","1745","0.1","A","38.1997","-120.713539","PRIVATE","CA","Calaveras","06009","Calaveras County"
"-120.993867893","38.692833873","215002","218138","W-560539","FED","DOI-WFMI","BLM","USCACND","Central California District","CABBD","Bakersfield District","","","D44Z","NAPA","","","","","","1999","1999/06/05 00:00:00+00","156","1444","Human","Missing data/not specified/undetermined","","1999/06/05 00:00:00+00","156","1453","0.1","A","38.692839","-120.993881","PRIVATE","CA","El Dorado","06017","El Dorado County"
"-121.0307868","39.381925817","215003","218139","W-561337","FED","DOI-WFMI","BLM","USCACND","Central California District","CABBD","Bakersfield District","","","D44Z","PATTERSON","","","","","","1999","1999/06/05 00:00:00+00","156","2054","Human","Recreation and ceremony","","1999/06/05 00:00:00+00","156","2141","1","B","39.381931","-121.0308","PRIVATE","CA","Nevada","06057","Nevada County"
"-121.084547809","39.248394833","215004","218140","W-561338","FED","DOI-WFMI","BLM","USCACND","Central California District","CABBD","Bakersfield District","","","D44Z","MULLIN","","","","","","1999","1999/06/06 00:00:00+00","157","0915","Human","Debris and open burning","","1999/06/06 00:00:00+00","157","0925","0.3","B","39.2484","-121.084561","PRIVATE","CA","Nevada","06057","Nevada County"
"-120.241387116","37.824475893","215005","218141","W-561880","FED","DOI-WFMI","BLM","USCACND","Central California District","CABBD","Bakersfield District","","","D44Z","DUNLAP","","","","","","1999","1999/06/06 00:00:00+00","157","1200","Human","Debris and open burning","","1999/06/06 00:00:00+00","157","1325","0.1","A","37.824481","-120.2414","BLM","CA","Tuolumne","06109","Tuolumne County"
"-120.923886878","38.905075849","215006","218142","W-560543","FED","DOI-WFMI","BLM","USCACND","Central California District","CABBD","Bakersfield District","","","D44Z","FORNI 2","","","","","","1999","1999/06/06 00:00:00+00","157","1324","Human","Equipment and vehicle use","","1999/06/06 00:00:00+00","157","1334","0.1","A","38.905081","-120.9239","PRIVATE","CA","El Dorado","06017","El Dorado County"
"-120.923886878","38.905075849","215007","218143","W-560547","FED","DOI-WFMI","BLM","USCACND","Central California District","CABBD","Bakersfield District","","","D44Z","GOLD 5","","","","","","1999","1999/06/06 00:00:00+00","157","1359","Human","Equipment and vehicle use","","1999/06/06 00:00:00+00","157","1420","0.1","A","38.905081","-120.9239","PRIVATE","CA","El Dorado","06017","El Dorado County"
"-120.923886878","38.905075849","215008","218144","W-560548","FED","DOI-WFMI","BLM","USCACND","Central California District","CABBD","Bakersfield District","","","D44Z","GOLD 6","","","","","","1999","1999/06/06 00:00:00+00","157","1359","Human","Equipment and vehicle use","","1999/06/06 00:00:00+00","157","1420","0.1","A","38.905081","-120.9239","PRIVATE","CA","El Dorado","06017","El Dorado County"
"-120.923886878","38.905075849","215009","218145","W-560549","FED","DOI-WFMI","BLM","USCACND","Central California District","CABBD","Bakersfield District","","","D44Z","GOLD 7","","","","","","1999","1999/06/06 00:00:00+00","157","1359","Human","Equipment and vehicle use","","1999/06/06 00:00:00+00","157","1420","0.1","A","38.905081","-120.9239","PRIVATE","CA","El Dorado","06017","El Dorado County"
"-120.923886878","38.905075849","215010","218146","W-560544","FED","DOI-WFMI","BLM","USCACND","Central California District","CABBD","Bakersfield District","","","D44Z","GOLD 2","","","","","","1999","1999/06/06 00:00:00+00","157","1359","Human","Equipment and vehicle use","","1999/06/06 00:00:00+00","157","1420","0.1","A","38.905081","-120.9239","PRIVATE","CA","El Dorado","06017","El Dorado County"
"-120.923886878","38.905075849","215011","218147","W-560545","FED","DOI-WFMI","BLM","USCACND","Central California District","CABBD","Bakersfield District","","","D44Z","GOLD 3","","","","","","1999","1999/06/06 00:00:00+00","157","1359","Human","Equipment and vehicle use","","1999/06/06 00:00:00+00","157","1420","0.1","A","38.905081","-120.9239","PRIVATE","CA","El Dorado","06017","El Dorado County"
"-120.923886878","38.905075849","215012","218148","W-560540","FED","DOI-WFMI","BLM","USCACND","Central California District","CABBD","Bakersfield District","","","D44Z","GOLD 1","","","","","","1999","1999/06/06 00:00:00+00","157","1359","Human","Equipment and vehicle use","","1999/06/06 00:00:00+00","157","1401","0.1","A","38.905081","-120.9239","PRIVATE","CA","El Dorado","06017","El Dorado County"
"-120.923886878","38.905075849","215013","218149","W-560552","FED","DOI-WFMI","BLM","USCACND","Central California District","CABBD","Bakersfield District","","","D44Z","GOLD 10","","","","","","1999","1999/06/06 00:00:00+00","157","1359","Human","Equipment and vehicle use","","1999/06/06 00:00:00+00","157","1420","0.1","A","38.905081","-120.9239","PRIVATE","CA","El Dorado","06017","El Dorado County"
"-120.923886878","38.905075849","215014","218150","W-560551","FED","DOI-WFMI","BLM","USCACND","Central California District","CABBD","Bakersfield District","","","D44Z","GOLD 9","","","","","","1999","1999/06/06 00:00:00+00","157","1359","Human","Equipment and vehicle use","","1999/06/06 00:00:00+00","157","1420","0.1","A","38.905081","-120.9239","PRIVATE","CA","El Dorado","06017","El Dorado County"
"-120.923886878","38.905075849","215015","218151","W-560550","FED","DOI-WFMI","BLM","USCACND","Central California District","CABBD","Bakersfield District","","","D44Z","GOLD 8","","","","","","1999","1999/06/06 00:00:00+00","157","1359","Human","Equipment and vehicle use","","1999/06/06 00:00:00+00","157","1420","0.1","A","38.905081","-120.9239","PRIVATE","CA","El Dorado","06017","El Dorado County"
"-120.923886878","38.905075849","215016","218152","W-560546","FED","DOI-WFMI","BLM","USCACND","Central California District","CABBD","Bakersfield District","","","D44Z","GOLD 4","","","","","","1999","1999/06/06 00:00:00+00","157","1359","Human","Equipment and vehicle use","","1999/06/06 00:00:00+00","157","1420","0.1","A","38.905081","-120.9239","PRIVATE","CA","El Dorado","06017","El Dorado County"
"-120.259948113","37.824683894","215017","218153","W-561881","FED","DOI-WFMI","BLM","USCACND","Central California District","CABBD","Bakersfield District","","","D44Z","HARPER","","","","","","1999","1999/06/07 00:00:00+00","158","0159","Human","Recreation and ceremony","","1999/06/07 00:00:00+00","158","0238","0.1","A","37.824689","-120.259961","BLM","CA","Tuolumne","06109","Tuolumne County"
"-120.727676312","35.184045174","215018","218154","W-561832","FED","DOI-WFMI","BLM","USCACND","Central California District","CABBD","Bakersfield District","","","D44Z","SLU2150","","","","","","1999","1999/06/07 00:00:00+00","158","1036","Human","Equipment and vehicle use","","1999/06/07 00:00:00+00","158","1041","0.5","B","35.18405","-120.727689","PRIVATE","CA","San Luis Obispo","06079","San Luis Obispo County"
"-119.568270492","35.230128098","215019","218155","W-560884","FED","DOI-WFMI","BLM","USCACND","Central California District","CABBD","Bakersfield District","","","D44Z","UNNAMED FIRE 0751","","","","","","1999","1999/06/07 00:00:00+00","158","1137","Human","Power generation/transmission/distribution","","1999/06/07 00:00:00+00","158","1137","0.3","B","35.230133","-119.568283","PRIVATE","CA","Kern","06029","Kern County"
"-120.882697913","38.678313865","215020","218156","W-560541","FED","DOI-WFMI","BLM","USCACND","Central California District","CABBD","Bakersfield District","","","D44Z","STUDEBAKER","","","","","","1999","1999/06/07 00:00:00+00","158","1308","Human","Debris and open burning","","1999/06/07 00:00:00+00","158","1403","1","B","38.678319","-120.882711","PRIVATE","CA","El Dorado","06017","El Dorado County"
"-121.093767818","39.16648384","215021","218157","W-561339","FED","DOI-WFMI","BLM","USCACND","Central California District","CABBD","Bakersfield District","","","D44Z","AUBURN","","","","","","1999","1999/06/07 00:00:00+00","158","1409","Human","Debris and open burning","","1999/06/07 00:00:00+00","158","1427","1","B","39.166489","-121.093781","PRIVATE","CA","Nevada","06057","Nevada County"
"-121.146047807","39.185044843","215022","218158","W-561340","FED","DOI-WFMI","BLM","USCACND","Central California District","CABBD","Bakersfield District","","","D44Z","GATES","","","","","","1999","1999/06/07 00:00:00+00","158","2004","Human","Equipment and vehicle use","","1999/06/07 00:00:00+00","158","2058","0.1","A","39.18505","-121.146061","PRIVATE","CA","Nevada","06057","Nevada County"
"-120.423248072","37.955163895","215023","218159","W-561882","FED","DOI-WFMI","BLM","USCACND","Central California District","CABBD","Bakersfield District","","","D44Z","LOT","","","","","","1999","1999/06/08 00:00:00+00","159","1058","Human","Equipment and vehicle use","","1999/06/08 00:00:00+00","159","1115","0.1","A","37.955169","-120.423261","PRIVATE","CA","Tuolumne","06109","Tuolumne County"
"-121.144886845","38.890733867","215024","218160","W-561341","FED","DOI-WFMI","BLM","USCACND","Central California District","CABBD","Bakersfield District","","","D44Z","FOLEY","","","","","","1999","1999/06/08 00:00:00+00","159","1203","Human","Debris and open burning","","1999/06/08 00:00:00+00","159","1211","0.3","B","38.890739","-121.1449","PRIVATE","CA","Placer","06061","Placer County"
"-120.825125938","38.546894872","215025","218161","W-560542","FED","DOI-WFMI","BLM","USCACND","Central California District","CABBD","Bakersfield District","","","D44Z","STORY","","","","","","1999","1999/06/08 00:00:00+00","159","1316","Human","Equipment and vehicle use","","1999/06/08 00:00:00+00","159","1334","0.1","A","38.5469","-120.825139","PRIVATE","CA","Amador","06005","Amador County"
"-119.584626483","35.304181091","215026","218162","W-560885","FED","DOI-WFMI","BLM","USCACND","Central California District","CABBD","Bakersfield District","","","D44Z","UNNAMED FIRE 0436","","","","","","1999","1999/06/08 00:00:00+00","159","1424","Human","Equipment and vehicle use","","1999/06/08 00:00:00+00","159","1424","0.1","A","35.304186","-119.584639","PRIVATE","CA","Kern","06029","Kern County"
"-119.567068493","35.227528098","215027","218163","W-560886","FED","DOI-WFMI","BLM","USCACND","Central California District","CABBD","Bakersfield District","","","D44Z","UNNAMED FIRE 0437","","","","","","1999","1999/06/08 00:00:00+00","159","1804","Human","Missing data/not specified/undetermined","","1999/06/08 00:00:00+00","159","1804","0.1","A","35.227533","-119.567081","PRIVATE","CA","Kern","06029","Kern County"
"-119.953456193","37.557283897","215028","218165","W-561168","FED","DOI-WFMI","BLM","USCACND","Central California District","CABBD","Bakersfield District","","","D44Z","HOLDEN","","","","","","1999","1999/06/09 00:00:00+00","160","2042","Human","Debris and open burning","","1999/06/09 00:00:00+00","160","2127","0.1","A","37.557289","-119.953469","PRIVATE","CA","Mariposa","06043","Mariposa County"
"-120.368576072","38.027713884","215029","218166","W-561883","FED","DOI-WFMI","BLM","USCACND","Central California District","CABBD","Bakersfield District","","","D44Z","GUNSIGHT","","","","","","1999","1999/06/10 00:00:00+00","161","1035","Human","Equipment and vehicle use","","1999/06/10 00:00:00+00","161","1050","0.1","A","38.027719","-120.368589","PRIVATE","CA","Tuolumne","06109","Tuolumne County"
"-120.904786883","38.890875849","215030","218167","W-560553","FED","DOI-WFMI","BLM","USCACND","Central California District","CABBD","Bakersfield District","","","D44Z","MOOSE","","","","","","1999","1999/06/10 00:00:00+00","161","2057","Human","Recreation and ceremony","","1999/06/10 00:00:00+00","161","2129","0.1","A","38.890881","-120.9048","PRIVATE","CA","El Dorado","06017","El Dorado County"
"-119.644615474","35.298931095","215031","218168","W-560887","FED","DOI-WFMI","BLM","USCACND","Central California District","CABBD","Bakersfield District","","","D44Z","UNNAMED FIRE 0908","","","","","","1999","1999/06/11 00:00:00+00","162","0327","Human","Power generation/transmission/distribution","","1999/06/11 00:00:00+00","162","0327","200","D","35.298936","-119.644628","PRIVATE","CA","Kern","06029","Kern County"
"-121.034525856","38.935755855","215032","218169","W-561342","FED","DOI-WFMI","BLM","USCACND","Central California District","CABBD","Bakersfield District","","","D44Z","BAXTER","","","","","","1999","1999/06/11 00:00:00+00","162","0552","Human","Missing data/not specified/undetermined","","1999/06/11 00:00:00+00","162","0610","0.1","A","38.935761","-121.034539","BOR","CA","Placer","06061","Placer County"
"-119.647587473","35.301595095","215033","218170","W-437","FED","DOI-WFMI","BLM","USCACND","Central California District","CABBD","Bakersfield District","","","U944","REWARD","","","","","","1999","1999/06/11 00:00:00+00","162","1000","Human","Power generation/transmission/distribution","","1999/06/11 00:00:00+00","162","1200","52","C","35.3016","-119.6476","PRIVATE","CA","","",""
"-121.380067767","39.214594859","215034","218171","W-561343","FED","DOI-WFMI","BLM","USCACND","Central California District","CABBD","Bakersfield District","","","D44Z","HAMMONDTON","","","","","","1999","1999/06/11 00:00:00+00","162","1220","Human","Equipment and vehicle use","","1999/06/11 00:00:00+00","162","1255","0.1","A","39.2146","-121.380081","PRIVATE","CA","Yuba","06115","Yuba County"
"-121.07162586","38.862094864","215035","218172","W-561344","FED","DOI-WFMI","BLM","USCACND","Central California District","CABBD","Bakersfield District","","","D44Z","MALEZA","","","","","","1999","1999/06/11 00:00:00+00","162","1351","Human","Missing data/not specified/undetermined","","1999/06/11 00:00:00+00","162","1404","0.1","A","38.8621","-121.071639","PRIVATE","CA","Placer","06061","Placer County"
"-119.366768369","36.814563927","215036","218173","W-560800","FED","DOI-WFMI","BLM","USCACND","Central California District","CABBD","Bakersfield District","","","D44Z","BLM 1","","","","","","1999","1999/06/11 00:00:00+00","162","1442","Human","Missing data/not specified/undetermined","","1999/06/11 00:00:00+00","162","1446","1","B","36.814569","-119.366781","PRIVATE","CA","Fresno","06019","Fresno County"
"-120.973475813","39.351344816","215037","218174","W-561345","FED","DOI-WFMI","BLM","USCACND","Central California District","CABBD","Bakersfield District","","","D44Z","SIMONE","","","","","","1999","1999/06/11 00:00:00+00","162","1453","Human","Debris and open burning","","1999/06/11 00:00:00+00","162","1815","2","B","39.35135","-120.973489","PRIVATE","CA","Nevada","06057","Nevada County"
"-119.287818427","36.378183964","215038","218175","W-562041","FED","DOI-WFMI","BLM","USCACND","Central California District","CABBD","Bakersfield District","","","D44Z","TULARE CO 38","","","","","","1999","1999/06/11 00:00:00+00","162","2158","Human","Missing data/not specified/undetermined","","1999/06/11 00:00:00+00","162","2209","0.1","A","36.378189","-119.287831","PRIVATE","CA","Tulare","06107","Tulare County"
"-120.456098038","38.200455875","215039","218176","W-561884","FED","DOI-WFMI","BLM","USCACND","Central California District","CABBD","Bakersfield District","","","D44Z","WHISMAN","","","","","","1999","1999/06/12 00:00:00+00","163","1231","Human","Debris and open burning","","1999/06/12 00:00:00+00","163","1300","0.2","A","38.200461","-120.456111","BLM","CA","Calaveras","06009","Calaveras County"
"-120.997925866","38.906594855","215040","218177","W-560554","FED","DOI-WFMI","BLM","USCACND","Central California District","CABBD","Bakersfield District","","","D44Z","OTTER","","","","","","1999","1999/06/12 00:00:00+00","163","1239","Human","Equipment and vehicle use","","1999/06/12 00:00:00+00","163","1400","5","B","38.9066","-120.997939","PRIVATE","CA","El Dorado","06017","El Dorado County"
"-119.509437507","35.1708261","215041","218178","W-560889","FED","DOI-WFMI","BLM","USCACND","Central California District","CABBD","Bakersfield District","","","D44Z","UNNAMED FIRE 0891","","","","","","1999","1999/06/12 00:00:00+00","163","1242","Human","Power generation/transmission/distribution","","1999/06/12 00:00:00+00","163","1242","7","B","35.170831","-119.50945","PRIVATE","CA","Kern","06029","Kern County"
"-119.519677489","35.354245082","215042","218179","W-438","FED","DOI-WFMI","BLM","USCACND","Central California District","CABBD","Bakersfield District","","","U945","HENRY II","","","","","","1999","1999/06/12 00:00:00+00","163","1243","Human","Power generation/transmission/distribution","","1999/06/12 00:00:00+00","163","1700","17","C","35.35425","-119.51969","PRIVATE","CA","Kern","06029","Kern County"
"-120.956986896","38.721663867","215043","218180","W-560555","FED","DOI-WFMI","BLM","USCACND","Central California District","CABBD","Bakersfield District","","","D44Z","MEADOW","","","","","","1999","1999/06/12 00:00:00+00","163","1255","Human","Equipment and vehicle use","","1999/06/12 00:00:00+00","163","1330","3","B","38.721669","-120.957","BLM","CA","El Dorado","06017","El Dorado County"
"-120.606807013","38.211224885","215044","218181","W-440","FED","DOI-WFMI","BLM","USCACND","Central California District","CABBD","Bakersfield District","","","U947","ESPERANZA","","","","","","1999","1999/06/12 00:00:00+00","163","1410","Human","Arson/incendiarism","","1999/06/12 00:00:00+00","163","2115","32","C","38.21123","-120.60682","PRIVATE","CA","","",""
"-120.604837001","38.315375876","215045","218182","W-561887","FED","DOI-WFMI","BLM","USCACND","Central California District","CABBD","Bakersfield District","","","D44Z","ESPERANZA 4","","","","","","1999","1999/06/12 00:00:00+00","163","1416","Human","Arson/incendiarism","","1999/06/12 00:00:00+00","163","1416","2","B","38.315381","-120.60485","PRIVATE","CA","Calaveras","06009","Calaveras County"
"-120.604837001","38.315375876","215046","218183","W-561885","FED","DOI-WFMI","BLM","USCACND","Central California District","CABBD","Bakersfield District","","","D44Z","ESPERANZA 2","","","","","","1999","1999/06/12 00:00:00+00","163","1416","Human","Arson/incendiarism","","1999/06/12 00:00:00+00","163","1614","3","B","38.315381","-120.60485","PRIVATE","CA","Calaveras","06009","Calaveras County"
"-120.585426004","38.316194874","215047","218184","W-561886","FED","DOI-WFMI","BLM","USCACND","Central California District","CABBD","Bakersfield District","","","D44Z","ESPERANZA 3","","","","","","1999","1999/06/12 00:00:00+00","163","1416","Human","Arson/incendiarism","","1999/06/12 00:00:00+00","163","1700","1","B","38.3162","-120.585439","PRIVATE","CA","Calaveras","06009","Calaveras County"
"-118.409577646","35.629534984","215048","218185","W-439","FED","DOI-WFMI","BLM","USCACND","Central California District","CABBD","Bakersfield District","","","U946","SHADOW","","","","","","1999","1999/06/12 00:00:00+00","163","1632","Human","Debris and open burning","","1999/06/12 00:00:00+00","163","1800","65","C","35.62954","-118.40959","PRIVATE","CA","Kern","06029","Kern County"
"-118.890906478","36.522244924","215049","218186","W-562042","FED","DOI-WFMI","BLM","USCACND","Central California District","CABBD","Bakersfield District","","","D44Z","NORTH FORK","","","","","","1999","1999/06/13 00:00:00+00","164","1458","Human","Missing data/not specified/undetermined","","1999/06/13 00:00:00+00","164","1500","3","B","36.52225","-118.890919","PRIVATE","CA","Tulare","06107","Tulare County"
"-120.90442589","38.833813854","215050","218188","W-560556","FED","DOI-WFMI","BLM","USCACND","Central California District","CABBD","Bakersfield District","","","D44Z","SLIGER","","","","","","1999","1999/06/13 00:00:00+00","164","1819","Human","Debris and open burning","","1999/06/13 00:00:00+00","164","1900","1","B","38.833819","-120.904439","BLM","CA","El Dorado","06017","El Dorado County"
"-119.45000952","35.1320781","215051","218189","W-560890","FED","DOI-WFMI","BLM","USCACND","Central California District","CABBD","Bakersfield District","","","D44Z","UNNAMED FIRE 0845","","","","","","1999","1999/06/14 00:00:00+00","165","0024","Human","Missing data/not specified/undetermined","","1999/06/14 00:00:00+00","165","0024","2","B","35.132083","-119.450022","PRIVATE","CA","Kern","06029","Kern County"
"-119.585248492","35.199262102","215052","218190","W-560891","FED","DOI-WFMI","BLM","USCACND","Central California District","CABBD","Bakersfield District","","","D44Z","UNNAMED FIRE 0438","","","","","","1999","1999/06/14 00:00:00+00","165","1340","Human","Equipment and vehicle use","","1999/06/14 00:00:00+00","165","1340","0.1","A","35.199267","-119.585261","PRIVATE","CA","Kern","06029","Kern County"
"-119.724187497","34.896045141","215053","218191","W-561624","FED","DOI-WFMI","BLM","USCACND","Central California District","CABBD","Bakersfield District","","","D44Z","UNNAMED FIRE 0339","","","","","","1999","1999/06/15 00:00:00+00","166","","Human","Missing data/not specified/undetermined","","1999/06/15 00:00:00+00","166","","18","C","34.89605","-119.7242","PRIVATE","CA","Santa Barbara","06083","Santa Barbara County"
"-119.567497243","37.670444859","215054","218193","W-452","FED","DOI-WFMI","BLM","USCACND","Central California District","CABBD","Bakersfield District","","","D002","HIGHWAY","","","","","","1999","1999/06/15 00:00:00+00","166","0411","Human","Power generation/transmission/distribution","","1999/06/15 00:00:00+00","166","1100","111","D","37.67045","-119.56751","PRIVATE","CA","","",""
"-121.158655799","39.23263384","215055","218194","W-561346","FED","DOI-WFMI","BLM","USCACND","Central California District","CABBD","Bakersfield District","","","D44Z","ROUGH","","","","","","1999","1999/06/15 00:00:00+00","166","1316","Human","Debris and open burning","","1999/06/15 00:00:00+00","166","1430","0.2","A","39.232639","-121.158669","PRIVATE","CA","Nevada","06057","Nevada County"
"-120.991775806","39.380083815","215056","218195","W-561347","FED","DOI-WFMI","BLM","USCACND","Central California District","CABBD","Bakersfield District","","","D44Z","OLD BEAR","","","","","","1999","1999/06/15 00:00:00+00","166","1340","Human","Equipment and vehicle use","","1999/06/15 00:00:00+00","166","1407","1.5","B","39.380089","-120.991789","PRIVATE","CA","Nevada","06057","Nevada County"
"-118.368362683","35.311253015","215057","218196","W-560892","FED","DOI-WFMI","BLM","USCACND","Central California District","CABBD","Bakersfield District","","","D44Z","UNNAMED FIRE 0603","","","","","","1999","1999/06/16 00:00:00+00","167","1414","Human","Misuse of fire by a minor","Minor","1999/06/16 00:00:00+00","167","1414","0.1","A","35.311258","-118.368375","PRIVATE","CA","Kern","06029","Kern County"
"-119.491826443","35.884295027","215058","218197","W-562043","FED","DOI-WFMI","BLM","USCACND","Central California District","CABBD","Bakersfield District","","","D44Z","BELLFLOWER","","","","","","1999","1999/06/16 00:00:00+00","167","1629","Human","Debris and open burning","","1999/06/16 00:00:00+00","167","1730","10","C","35.8843","-119.491839","PRIVATE","CA","Tulare","06107","Tulare County"
"-121.074917818","39.185694837","215059","218198","W-561348","FED","DOI-WFMI","BLM","USCACND","Central California District","CABBD","Bakersfield District","","","D44Z","SUNNYVALE","","","","","","1999","1999/06/17 00:00:00+00","168","0411","Human","Debris and open burning","","1999/06/17 00:00:00+00","168","0540","0.2","A","39.1857","-121.074931","PRIVATE","CA","Nevada","06057","Nevada County"
"-121.112375815","39.166294842","215060","218199","W-561349","FED","DOI-WFMI","BLM","USCACND","Central California District","CABBD","Bakersfield District","","","D44Z","MCCOURTNEY","","","","","","1999","1999/06/17 00:00:00+00","168","0958","Human","Debris and open burning","","1999/06/17 00:00:00+00","168","1115","0.2","A","39.1663","-121.112389","PRIVATE","CA","Nevada","06057","Nevada County"
"-120.423548062","38.042575887","215061","218200","W-561889","FED","DOI-WFMI","BLM","USCACND","Central California District","CABBD","Bakersfield District","","","D44Z","ZIGLER","","","","","","1999","1999/06/17 00:00:00+00","168","1449","Human","Missing data/not specified/undetermined","","1999/06/17 00:00:00+00","168","1514","0.1","A","38.042581","-120.423561","PRIVATE","CA","Tuolumne","06109","Tuolumne County"
"-118.923051628","34.900267092","215062","218201","W-560904","FED","DOI-WFMI","BLM","USCACND","Central California District","CABBD","Bakersfield District","","","D44Z","STATE OF CA","","","","","","1999","1999/06/17 00:00:00+00","168","1749","Human","Missing data/not specified/undetermined","","1999/06/17 00:00:00+00","168","1749","15","C","34.900272","-118.923064","PRIVATE","CA","Kern","06029","Kern County"
"-120.306087117","37.731813906","215063","218202","W-561169","FED","DOI-WFMI","BLM","USCACND","Central California District","CABBD","Bakersfield District","","","D44Z","ELGEN","","","","","","1999","1999/06/17 00:00:00+00","168","1805","Human","Equipment and vehicle use","","1999/06/17 00:00:00+00","168","1818","0.1","A","37.731819","-120.3061","PRIVATE","CA","Mariposa","06043","Mariposa County"
"-120.435126103","37.673644921","215064","218203","W-561890","FED","DOI-WFMI","BLM","USCACND","Central California District","CABBD","Bakersfield District","","","D44Z","TID 3","","","","","","1999","1999/06/18 00:00:00+00","169","0324","Human","Power generation/transmission/distribution","","1999/06/18 00:00:00+00","169","0543","25","C","37.67365","-120.435139","PRIVATE","CA","Tuolumne","06109","Tuolumne County"
"-119.464256513","35.187409095","215065","218204","W-560893","FED","DOI-WFMI","BLM","USCACND","Central California District","CABBD","Bakersfield District","","","D44Z","UNNAMED FIRE 0251","","","","","","1999","1999/06/18 00:00:00+00","169","1653","Human","Power generation/transmission/distribution","","1999/06/18 00:00:00+00","169","1653","0.5","B","35.187414","-119.464269","PRIVATE","CA","Kern","06029","Kern County"
"-120.821825855","39.208313816","215066","218205","W-561350","FED","DOI-WFMI","BLM","USCACND","Central California District","CABBD","Bakersfield District","","","D44Z","BEAR","","","","","","1999","1999/06/18 00:00:00+00","169","1845","Human","Missing data/not specified/undetermined","","1999/06/18 00:00:00+00","169","1900","0.2","A","39.208319","-120.821839","PRIVATE","CA","Placer","06061","Placer County"
"-120.328437277","36.20196405","215067","218206","W-560801","FED","DOI-WFMI","BLM","USCACND","Central California District","CABBD","Bakersfield District","","","D44Z","SHELL","","","","","","1999","1999/06/18 00:00:00+00","169","1926","Human","Missing data/not specified/undetermined","","1999/06/18 00:00:00+00","169","1949","1","B","36.201969","-120.32845","PRIVATE","CA","Fresno","06019","Fresno County"
"-118.922920627","34.909712091","215068","218207","W-560907","FED","DOI-WFMI","BLM","USCACND","Central California District","CABBD","Bakersfield District","","","D44Z","UNNAMED FIRE 0606","","","","","","1999","1999/06/20 00:00:00+00","171","0613","Human","Equipment and vehicle use","","1999/06/20 00:00:00+00","171","0613","0.1","A","34.909717","-118.922933","PRIVATE","CA","Kern","06029","Kern County"
"-119.753423448","35.388470093","215069","218208","W-560894","FED","DOI-WFMI","BLM","USCACND","Central California District","CABBD","Bakersfield District","","","D44Z","UNNAMED FIRE 0366","","","","","","1999","1999/06/20 00:00:00+00","171","0641","Human","Power generation/transmission/distribution","","1999/06/20 00:00:00+00","171","0641","3","B","35.388475","-119.753436","PRIVATE","CA","Kern","06029","Kern County"
"-120.844105924","38.634525866","215070","218209","W-560557","FED","DOI-WFMI","BLM","USCACND","Central California District","CABBD","Bakersfield District","","","D44Z","DOLOMITE","","","","","","1999","1999/06/20 00:00:00+00","171","1002","Human","Equipment and vehicle use","","1999/06/20 00:00:00+00","171","1020","1","B","38.634531","-120.844119","PRIVATE","CA","El Dorado","06017","El Dorado County"
"-120.570037056","37.895163911","215071","218210","W-561891","FED","DOI-WFMI","BLM","USCACND","Central California District","CABBD","Bakersfield District","","","D44Z","TULLOCH","","","","","","1999","1999/06/20 00:00:00+00","171","1423","Human","Missing data/not specified/undetermined","","1999/06/20 00:00:00+00","171","2000","0.1","A","37.895169","-120.57005","PRIVATE","CA","Tuolumne","06109","Tuolumne County"
"-120.259968112","37.839213893","215072","218211","W-561892","FED","DOI-WFMI","BLM","USCACND","Central California District","CABBD","Bakersfield District","","","D44Z","PGE 8","","","","","","1999","1999/06/21 00:00:00+00","172","0614","Human","Power generation/transmission/distribution","","1999/06/21 00:00:00+00","172","0640","0.2","A","37.839219","-120.259981","PRIVATE","CA","Tuolumne","06109","Tuolumne County"
"-119.43001252","35.177578094","215073","218212","W-560895","FED","DOI-WFMI","BLM","USCACND","Central California District","CABBD","Bakersfield District","","","D44Z","UNNAMED FIRE 0093","","","","","","1999","1999/06/21 00:00:00+00","172","1355","Human","Power generation/transmission/distribution","","1999/06/21 00:00:00+00","172","1355","20","C","35.177583","-119.430025","BLM","CA","Kern","06029","Kern County"
"-119.64527628","37.221113907","215074","218213","W-561170","FED","DOI-WFMI","BLM","USCACND","Central California District","CABBD","Bakersfield District","","","D44Z","INDIAN","","","","","","1999","1999/06/21 00:00:00+00","172","1600","Human","Missing data/not specified/undetermined","","1999/06/21 00:00:00+00","172","1625","0.5","B","37.221119","-119.645289","PRIVATE","CA","Madera","06039","Madera County"
"-120.900667908","38.692913865","215075","218214","W-560558","FED","DOI-WFMI","BLM","USCACND","Central California District","CABBD","Bakersfield District","","","D44Z","GREEN","","","","","","1999","1999/06/22 00:00:00+00","173","1502","Human","Equipment and vehicle use","","1999/06/22 00:00:00+00","173","1852","10","C","38.692919","-120.900681","PRIVATE","CA","El Dorado","06017","El Dorado County"
"-120.604675988","38.417863867","215076","218215","W-560559","FED","DOI-WFMI","BLM","USCACND","Central California District","CABBD","Bakersfield District","","","D44Z","HALE","","","","","","1999","1999/06/22 00:00:00+00","173","2315","Human","Missing data/not specified/undetermined","","1999/06/23 00:00:00+00","174","0025","1","B","38.417869","-120.604689","PRIVATE","CA","Amador","06005","Amador County"
"-120.956825897","38.707333869","215077","218216","W-560561","FED","DOI-WFMI","BLM","USCACND","Central California District","CABBD","Bakersfield District","","","D44Z","STARBUCK","","","","","","1999","1999/06/23 00:00:00+00","174","1234","Human","Equipment and vehicle use","","1999/06/23 00:00:00+00","174","1235","1","B","38.707339","-120.956839","PRIVATE","CA","El Dorado","06017","El Dorado County"
"-119.600031489","35.213681101","215078","218217","W-560896","FED","DOI-WFMI","BLM","USCACND","Central California District","CABBD","Bakersfield District","","","D44Z","UNNAMED FIRE 0439","","","","","","1999","1999/06/23 00:00:00+00","174","1242","Human","Equipment and vehicle use","","1999/06/23 00:00:00+00","174","1242","0.1","A","35.213686","-119.600044","PRIVATE","CA","Kern","06029","Kern County"
"-119.603687488","35.216595101","215079","218218","W-627","FED","DOI-WFMI","BLM","USCACND","Central California District","CABBD","Bakersfield District","","","D007","SPRINGS","","","","","","1999","1999/06/23 00:00:00+00","174","1243","Human","Equipment and vehicle use","","1999/06/23 00:00:00+00","174","1400","0.1","A","35.2166","-119.6037","BLM","CA","Kern","06029","Kern County"
"-120.942225873","38.920083849","215080","218219","W-560562","FED","DOI-WFMI","BLM","USCACND","Central California District","CABBD","Bakersfield District","","","D44Z","COYOTE","","","","","","1999","1999/06/23 00:00:00+00","174","1946","Human","Missing data/not specified/undetermined","","1999/06/23 00:00:00+00","174","2030","1","B","38.920089","-120.942239","PRIVATE","CA","El Dorado","06017","El Dorado County"
"-120.62268698","38.459894865","215081","218220","W-689","FED","DOI-WFMI","BLM","USCACND","Central California District","CABBD","Bakersfield District","","","D010","VOLCANO","","","","","","1999","1999/06/23 00:00:00+00","174","2130","Human","Misuse of fire by a minor","Minor","1999/06/23 00:00:00+00","174","2212","0.5","B","38.4599","-120.6227","BLM","CA","Amador","06005","Amador County"
"-120.69679797","38.445463871","215082","218221","W-560563","FED","DOI-WFMI","BLM","USCACND","Central California District","CABBD","Bakersfield District","","","D44Z","STONE JUG","","","","","","1999","1999/06/23 00:00:00+00","174","2130","Human","Missing data/not specified/undetermined","","1999/06/23 00:00:00+00","174","2203","0.3","B","38.445469","-120.696811","PRIVATE","CA","Amador","06005","Amador County"
"-120.660267976","38.446155869","215083","218222","W-560560","FED","DOI-WFMI","BLM","USCACND","Central California District","CABBD","Bakersfield District","","","D44Z","PONDEROSA 2","","","","","","1999","1999/06/24 00:00:00+00","175","0811","Human","Arson/incendiarism","","1999/06/24 00:00:00+00","175","0820","0.1","A","38.446161","-120.660281","PRIVATE","CA","Amador","06005","Amador County"
"-119.444381519","35.155242098","215084","218223","W-560897","FED","DOI-WFMI","BLM","USCACND","Central California District","CABBD","Bakersfield District","","","D44Z","UNNAMED FIRE 0604","","","","","","1999","1999/06/24 00:00:00+00","175","1356","Human","Missing data/not specified/undetermined","","1999/06/24 00:00:00+00","175","1356","0.1","A","35.155247","-119.444394","PRIVATE","CA","Kern","06029","Kern County"
"-119.597993487","35.231234099","215085","218224","W-560898","FED","DOI-WFMI","BLM","USCACND","Central California District","CABBD","Bakersfield District","","","D44Z","UNNAMED FIRE 0752","","","","","","1999","1999/06/24 00:00:00+00","175","1604","Human","Power generation/transmission/distribution","","1999/06/24 00:00:00+00","175","1604","0.3","B","35.231239","-119.598006","PRIVATE","CA","Kern","06029","Kern County"
"-118.431993673","35.29865302","215086","218225","W-560899","FED","DOI-WFMI","BLM","USCACND","Central California District","CABBD","Bakersfield District","","","D44Z","UNNAMED FIRE 0846","","","","","","1999","1999/06/24 00:00:00+00","175","1804","Human","Arson/incendiarism","","1999/06/24 00:00:00+00","175","1804","2","B","35.298658","-118.432006","BLM","CA","Kern","06029","Kern County"
"-118.425387673","35.312995018","215087","218226","W-691","FED","DOI-WFMI","BLM","USCACND","Central California District","CABBD","Bakersfield District","","","D012","CALIENTE","","","","","","1999","1999/06/24 00:00:00+00","175","1804","Human","Smoking","","1999/06/24 00:00:00+00","175","1930","2","B","35.313","-118.4254","BLM","CA","Kern","06029","Kern County"
"-120.659505961","38.574813857","215088","218227","W-560564","FED","DOI-WFMI","BLM","USCACND","Central California District","CABBD","Bakersfield District","","","D44Z","OMO","","","","","","1999","1999/06/24 00:00:00+00","175","2004","Human","Debris and open burning","","1999/06/24 00:00:00+00","175","2100","0.1","A","38.574819","-120.659519","PRIVATE","CA","El Dorado","06017","El Dorado County"
"-119.447731524","35.098581104","215089","218228","W-560900","FED","DOI-WFMI","BLM","USCACND","Central California District","CABBD","Bakersfield District","","","D44Z","UNNAMED FIRE 0878","","","","","","1999","1999/06/25 00:00:00+00","176","0335","Human","Power generation/transmission/distribution","","1999/06/25 00:00:00+00","176","0335","5","B","35.098586","-119.447744","PRIVATE","CA","Kern","06029","Kern County"
"-120.42378706","38.056544886","215090","218229","W-561893","FED","DOI-WFMI","BLM","USCACND","Central California District","CABBD","Bakersfield District","","","D44Z","MARBLEQUARRY","","","","","","1999","1999/06/25 00:00:00+00","176","1359","Human","Missing data/not specified/undetermined","","1999/06/25 00:00:00+00","176","1359","0.1","A","38.05655","-120.4238","PRIVATE","CA","Tuolumne","06109","Tuolumne County"
"-120.69511795","38.618844856","215091","218230","W-560565","FED","DOI-WFMI","BLM","USCACND","Central California District","CABBD","Bakersfield District","","","D44Z","ROADSIDE","","","","","","1999","1999/06/25 00:00:00+00","176","1955","Human","Equipment and vehicle use","","1999/06/25 00:00:00+00","176","2030","0.1","A","38.61885","-120.695131","PRIVATE","CA","El Dorado","06017","El Dorado County"
"-121.083175814","39.204955836","215092","218231","W-561351","FED","DOI-WFMI","BLM","USCACND","Central California District","CABBD","Bakersfield District","","","D44Z","GREENHORN","","","","","","1999","1999/06/25 00:00:00+00","176","2135","Human","Recreation and ceremony","","1999/06/25 00:00:00+00","176","2230","0.1","A","39.204961","-121.083189","PRIVATE","CA","Nevada","06057","Nevada County"
"-120.530517997","38.446233859","215093","218232","W-560566","FED","DOI-WFMI","BLM","USCACND","Central California District","CABBD","Bakersfield District","","","D44Z","TIGER","","","","","","1999","1999/06/26 00:00:00+00","177","0956","Human","Missing data/not specified/undetermined","","1999/06/26 00:00:00+00","177","1007","0.1","A","38.446239","-120.530531","PRIVATE","CA","Amador","06005","Amador County"
"-119.762470422","35.644517068","215094","218233","W-560983","FED","DOI-WFMI","BLM","USCACND","Central California District","CABBD","Bakersfield District","","","D44Z","UNNAMED FIRE 0016","","","","","","1999","1999/06/26 00:00:00+00","177","1501","Human","Power generation/transmission/distribution","","1999/06/26 00:00:00+00","177","1501","0.1","A","35.644522","-119.762483","PRIVATE","CA","Kern","06029","Kern County"
"-120.831247911","38.759444854","215095","218234","W-560567","FED","DOI-WFMI","BLM","USCACND","Central California District","CABBD","Bakersfield District","","","D44Z","HWY 49","","","","","","1999","1999/06/27 00:00:00+00","178","0941","Human","Equipment and vehicle use","","1999/06/27 00:00:00+00","178","0955","0.2","A","38.75945","-120.831261","PRIVATE","CA","El Dorado","06017","El Dorado County"
"-120.605847994","38.373475871","215096","218235","W-561894","FED","DOI-WFMI","BLM","USCACND","Central California District","CABBD","Bakersfield District","","","D44Z","WHISKEY","","","","","","1999","1999/06/27 00:00:00+00","178","1058","Human","Equipment and vehicle use","","1999/06/27 00:00:00+00","178","1134","0.1","A","38.373481","-120.605861","BLM","CA","Calaveras","06009","Calaveras County"
"-120.831086896","38.875283845","215097","218236","W-560568","FED","DOI-WFMI","BLM","USCACND","Central California District","CABBD","Bakersfield District","","","D44Z","BEAR","","","","","","1999","1999/06/27 00:00:00+00","178","1231","Human","Missing data/not specified/undetermined","","1999/06/27 00:00:00+00","178","1245","0.1","A","38.875289","-120.8311","PRIVATE","CA","El Dorado","06017","El Dorado County"
"-120.602537018","38.169833889","215098","218237","W-561895","FED","DOI-WFMI","BLM","USCACND","Central California District","CABBD","Bakersfield District","","","D44Z","JOHNSON","","","","","","1999","1999/06/27 00:00:00+00","178","1400","Human","Debris and open burning","","1999/06/27 00:00:00+00","178","1429","1","B","38.169839","-120.60255","PRIVATE","CA","Calaveras","06009","Calaveras County"
"-120.16130616","37.557025912","215099","218238","W-561171","FED","DOI-WFMI","BLM","USCACND","Central California District","CABBD","Bakersfield District","","","D44Z","BEAR","","","","","","1999","1999/06/27 00:00:00+00","178","2254","Human","Missing data/not specified/undetermined","","1999/06/28 00:00:00+00","179","0100","1","B","37.557031","-120.161319","PRIVATE","CA","Mariposa","06043","Mariposa County"
"-119.823626227","37.438933899","215100","218239","W-561172","FED","DOI-WFMI","BLM","USCACND","Central California District","CABBD","Bakersfield District","","","D44Z","METCALF","","","","","","1999","1999/06/28 00:00:00+00","179","1230","Human","Equipment and vehicle use","","1999/06/28 00:00:00+00","179","1500","0.6","B","37.438939","-119.823639","PRIVATE","CA","Mariposa","06043","Mariposa County"
"-119.699406267","37.264783907","215101","218240","W-561173","FED","DOI-WFMI","BLM","USCACND","Central California District","CABBD","Bakersfield District","","","D44Z","COARSEGOLD","","","","","","1999","1999/06/28 00:00:00+00","179","1542","Human","Arson/incendiarism","","1999/06/28 00:00:00+00","179","2000","4","B","37.264789","-119.699419","PRIVATE","CA","Madera","06039","Madera County"
"-118.468687637","35.620194989","215102","218241","W-701","FED","DOI-WFMI","BLM","USCACND","Central California District","CABBD","Bakersfield District","","","D015","RANGE","","","","","","1999","1999/06/28 00:00:00+00","179","1845","Human","Arson/incendiarism","","1999/06/29 00:00:00+00","180","1300","10","C","35.6202","-118.4687","BLM","CA","Kern","06029","Kern County"
"-120.84403691","38.747975856","215103","218243","W-560569","FED","DOI-WFMI","BLM","USCACND","Central California District","CABBD","Bakersfield District","","","D44Z","EL DORADO","","","","","","1999","1999/06/28 00:00:00+00","179","2147","Human","Missing data/not specified/undetermined","","1999/06/28 00:00:00+00","179","2151","0.1","A","38.747981","-120.84405","PRIVATE","CA","El Dorado","06017","El Dorado County"
"-120.84403691","38.747975856","215104","218244","W-560570","FED","DOI-WFMI","BLM","USCACND","Central California District","CABBD","Bakersfield District","","","D44Z","EL DORADO 2","","","","","","1999","1999/06/28 00:00:00+00","179","2147","Human","Missing data/not specified/undetermined","","1999/06/28 00:00:00+00","179","2151","0.1","A","38.747981","-120.84405","PRIVATE","CA","El Dorado","06017","El Dorado County"
"-120.465668268","36.074176072","215105","218245","W-560802","FED","DOI-WFMI","BLM","USCACND","Central California District","CABBD","Bakersfield District","","","D44Z","HIWAY","","","","","","1999","1999/06/28 00:00:00+00","179","2234","Human","Arson/incendiarism","","1999/06/28 00:00:00+00","179","2254","0.1","A","36.074181","-120.465681","PRIVATE","CA","Fresno","06019","Fresno County"
"-120.408187274","36.103126065","215106","218246","W-560803","FED","DOI-WFMI","BLM","USCACND","Central California District","CABBD","Bakersfield District","","","D44Z","ALCALDE","","","","","","1999","1999/06/28 00:00:00+00","179","2237","Human","Equipment and vehicle use","","1999/06/28 00:00:00+00","179","2242","0.1","A","36.103131","-120.4082","PRIVATE","CA","Fresno","06019","Fresno County"
"-120.993905895","38.678244874","215107","218247","W-560571","FED","DOI-WFMI","BLM","USCACND","Central California District","CABBD","Bakersfield District","","","D44Z","PUMA","","","","","","1999","1999/06/29 00:00:00+00","180","0004","Human","Equipment and vehicle use","","1999/06/29 00:00:00+00","180","0032","0.1","A","38.67825","-120.993919","PRIVATE","CA","El Dorado","06017","El Dorado County"
"-120.734136966","38.431113875","215108","218248","W-560572","FED","DOI-WFMI","BLM","USCACND","Central California District","CABBD","Bakersfield District","","","D44Z","BOOGER HOLLO","","","","","","1999","1999/06/29 00:00:00+00","180","1030","Human","Debris and open burning","","1999/06/29 00:00:00+00","180","1300","1","B","38.431119","-120.73415","PRIVATE","CA","Amador","06005","Amador County"
"-118.923468628","34.895167093","215109","218249","W-560902","FED","DOI-WFMI","BLM","USCACND","Central California District","CABBD","Bakersfield District","","","D44Z","UNNAMED FIRE 0605","","","","","","1999","1999/06/29 00:00:00+00","180","1145","Human","Missing data/not specified/undetermined","","1999/06/29 00:00:00+00","180","1145","0.1","A","34.895172","-118.923481","PRIVATE","CA","Kern","06029","Kern County"
"-120.886347884","38.905513846","215110","218251","W-560573","FED","DOI-WFMI","BLM","USCACND","Central California District","CABBD","Bakersfield District","","","D44Z","WATERFALL","","","","","","1999","1999/06/29 00:00:00+00","180","1524","Human","Debris and open burning","","1999/06/29 00:00:00+00","180","1634","1","B","38.905519","-120.886361","PRIVATE","CA","El Dorado","06017","El Dorado County"
"-120.713247941","38.661733854","215111","218252","W-560574","FED","DOI-WFMI","BLM","USCACND","Central California District","CABBD","Bakersfield District","","","D44Z","BUCKS","","","","","","1999","1999/06/30 00:00:00+00","181","1050","Human","Equipment and vehicle use","","1999/06/30 00:00:00+00","181","1200","0.3","B","38.661739","-120.713261","PRIVATE","CA","El Dorado","06017","El Dorado County"
"-119.541304502","35.175948101","215112","218253","W-560905","FED","DOI-WFMI","BLM","USCACND","Central California District","CABBD","Bakersfield District","","","D44Z","UNNAMED FIRE 0775","","","","","","1999","1999/06/30 00:00:00+00","181","1230","Human","Power generation/transmission/distribution","","1999/06/30 00:00:00+00","181","1230","0.5","B","35.175953","-119.541317","PRIVATE","CA","Kern","06029","Kern County"
"-120.844136944","38.47550588","215113","218254","W-560575","FED","DOI-WFMI","BLM","USCACND","Central California District","CABBD","Bakersfield District","","","D44Z","RANDOLPH","","","","","","1999","1999/07/01 00:00:00+00","182","1452","Human","Equipment and vehicle use","","1999/07/01 00:00:00+00","182","1530","0.2","A","38.475511","-120.84415","PRIVATE","CA","Amador","06005","Amador County"
"-119.530987501","35.201595098","215114","218255","W-960","FED","DOI-WFMI","BLM","USCACND","Central California District","CABBD","Bakersfield District","","","D017","VINTAGE","","","","","","1999","1999/07/01 00:00:00+00","182","1925","Human","Power generation/transmission/distribution","","1999/07/01 00:00:00+00","182","2330","30","C","35.2016","-119.531","PRIVATE","CA","","",""
"-119.526034502","35.203823098","215115","218256","W-560906","FED","DOI-WFMI","BLM","USCACND","Central California District","CABBD","Bakersfield District","","","D44Z","UNNAMED FIRE 0552","","","","","","1999","1999/07/01 00:00:00+00","182","1927","Human","Power generation/transmission/distribution","","1999/07/01 00:00:00+00","182","1927","25","C","35.203828","-119.526047","PRIVATE","CA","Kern","06029","Kern County"
"-118.907718477","36.507733926","215116","218257","W-562044","FED","DOI-WFMI","BLM","USCACND","Central California District","CABBD","Bakersfield District","","","D44Z","LOVE","","","","","","1999","1999/07/01 00:00:00+00","182","1928","Human","Arson/incendiarism","","1999/07/01 00:00:00+00","182","1940","0.3","B","36.507739","-118.907731","PRIVATE","CA","Tulare","06107","Tulare County"
"-121.034675858","38.921144856","215117","218258","W-561352","FED","DOI-WFMI","BLM","USCACND","Central California District","CABBD","Bakersfield District","","","D44Z","FORESTHILL","","","","","","1999","1999/07/02 00:00:00+00","183","0508","Human","Equipment and vehicle use","","1999/07/02 00:00:00+00","183","0800","10","C","38.92115","-121.034689","BOR","CA","Placer","06061","Placer County"
"-118.910087354","37.644894815","215118","218259","W-1830","FED","DOI-WFMI","BLM","USCACND","Central California District","CABBD","Bakersfield District","","","U973","GEO","","","","","","1999","1999/07/02 00:00:00+00","183","1200","Human","Equipment and vehicle use","","1999/07/02 00:00:00+00","183","1217","0.1","A","37.6449","-118.9101","BLM","CA","","",""
"-120.399187105","37.702433916","215119","218260","W-561896","FED","DOI-WFMI","BLM","USCACND","Central California District","CABBD","Bakersfield District","","","D44Z","DON PEDRO 3","","","","","","1999","1999/07/02 00:00:00+00","183","1258","Human","Missing data/not specified/undetermined","","1999/07/02 00:00:00+00","183","1313","0.1","A","37.702439","-120.3992","PRIVATE","CA","Tuolumne","06109","Tuolumne County"
"-120.603505968","38.588375852","215120","218261","W-560576","FED","DOI-WFMI","BLM","USCACND","Central California District","CABBD","Bakersfield District","","","D44Z","SLUG","","","","","","1999","1999/07/02 00:00:00+00","183","1405","Human","Debris and open burning","","1999/07/02 00:00:00+00","183","1700","0.1","A","38.588381","-120.603519","PRIVATE","CA","El Dorado","06017","El Dorado County"
"-120.515756054","37.983044899","215121","218262","W-561897","FED","DOI-WFMI","BLM","USCACND","Central California District","CABBD","Bakersfield District","","","D44Z","SANCHEZ","","","","","","1999","1999/07/02 00:00:00+00","183","2143","Human","Equipment and vehicle use","","1999/07/02 00:00:00+00","183","2218","0.1","A","37.98305","-120.515769","BOR","CA","Tuolumne","06109","Tuolumne County"
"-119.471756517","35.135117101","215122","218263","W-560908","FED","DOI-WFMI","BLM","USCACND","Central California District","CABBD","Bakersfield District","","","D44Z","UNNAMED FIRE 0607","","","","","","1999","1999/07/02 00:00:00+00","183","2301","Human","Missing data/not specified/undetermined","","1999/07/02 00:00:00+00","183","2301","0.1","A","35.135122","-119.471769","PRIVATE","CA","Kern","06029","Kern County"
"-120.513487012","38.344894867","215123","218264","W-970","FED","DOI-WFMI","BLM","USCACND","Central California District","CABBD","Bakersfield District","","","D018","BRIDGE","","","","","","1999","1999/07/03 00:00:00+00","184","0917","Human","Fireworks","","1999/07/03 00:00:00+00","184","1500","0.1","A","38.3449","-120.5135","BLM","CA","","",""
"-118.468848461","37.354275812","215124","218265","W-560681","FED","DOI-WFMI","BLM","USCACND","Central California District","CABBD","Bakersfield District","","","D44Z","COTTONWOOD","","","","","","1999","1999/07/03 00:00:00+00","184","1105","Human","Debris and open burning","","1999/07/03 00:00:00+00","184","1300","0.1","A","37.354281","-118.468861","PRIVATE","CA","Inyo","06027","Inyo County"
"-119.458909518","35.1429371","215125","218266","W-560909","FED","DOI-WFMI","BLM","USCACND","Central California District","CABBD","Bakersfield District","","","D44Z","UNNAMED FIRE 0608","","","","","","1999","1999/07/03 00:00:00+00","184","1136","Human","Misuse of fire by a minor","Minor","1999/07/03 00:00:00+00","184","1136","0.1","A","35.142942","-119.458922","PRIVATE","CA","Kern","06029","Kern County"
"-118.582587441","37.360994819","215126","218267","W-1831","FED","DOI-WFMI","BLM","USCACND","Central California District","CABBD","Bakersfield District","","","U974","LOPEZ","","","","","","1999","1999/07/03 00:00:00+00","184","1249","Human","Equipment and vehicle use","","1999/07/03 00:00:00+00","184","1426","1","B","37.361","-118.5826","BLM","CA","","",""
"-120.275648087","38.027683877","215127","218268","W-561899","FED","DOI-WFMI","BLM","USCACND","Central California District","CABBD","Bakersfield District","","","D44Z","LATTUDA","","","","","","1999","1999/07/03 00:00:00+00","184","1323","Human","Debris and open burning","","1999/07/03 00:00:00+00","184","1420","0.1","A","38.027689","-120.275661","PRIVATE","CA","Tuolumne","06109","Tuolumne County"
"-120.715886983","38.316375884","215128","218269","W-560577","FED","DOI-WFMI","BLM","USCACND","Central California District","CABBD","Bakersfield District","","","D44Z","ELECTRA","","","","","","1999","1999/07/03 00:00:00+00","184","1435","Human","Equipment and vehicle use","","1999/07/03 00:00:00+00","184","1530","0.1","A","38.316381","-120.7159","PRIVATE","CA","Amador","06005","Amador County"
"-118.245348548","36.891055843","215129","218270","W-560682","FED","DOI-WFMI","BLM","USCACND","Central California District","CABBD","Bakersfield District","","","D44Z","395","","","","","","1999","1999/07/03 00:00:00+00","184","1452","Human","Missing data/not specified/undetermined","","1999/07/04 00:00:00+00","185","1200","2","B","36.891061","-118.245361","PRIVATE","CA","Inyo","06027","Inyo County"
"-118.596501648","35.277739033","215130","218271","W-560910","FED","DOI-WFMI","BLM","USCACND","Central California District","CABBD","Bakersfield District","","","D44Z","UNNAMED FIRE 0544","","","","","","1999","1999/07/03 00:00:00+00","184","1704","Human","Railroad operations and maintenance","","1999/07/03 00:00:00+00","184","1704","12","C","35.277744","-118.596514","PRIVATE","CA","Kern","06029","Kern County"
"-120.696975972","38.431094873","215131","218272","W-560578","FED","DOI-WFMI","BLM","USCACND","Central California District","CABBD","Bakersfield District","","","D44Z","GULCH 3","","","","","","1999","1999/07/03 00:00:00+00","184","1858","Human","Arson/incendiarism","","1999/07/03 00:00:00+00","184","1930","0.1","A","38.4311","-120.696989","PRIVATE","CA","Amador","06005","Amador County"
"-120.642075984","38.402925871","215132","218273","W-560579","FED","DOI-WFMI","BLM","USCACND","Central California District","CABBD","Bakersfield District","","","D44Z","GRINDING","","","","","","1999","1999/07/03 00:00:00+00","184","2110","Human","Arson/incendiarism","","1999/07/03 00:00:00+00","184","2125","0.1","A","38.402931","-120.642089","PRIVATE","CA","Amador","06005","Amador County"
"-119.115137437","36.564983934","215133","218274","W-562046","FED","DOI-WFMI","BLM","USCACND","Central California District","CABBD","Bakersfield District","","","D44Z","BENZENBURG 21","","","","","","1999","1999/07/03 00:00:00+00","184","2222","Human","Arson/incendiarism","","1999/07/03 00:00:00+00","184","2235","1","B","36.564989","-119.11515","PRIVATE","CA","Tulare","06107","Tulare County"
"-118.830918539","36.013505971","215134","218275","W-562048","FED","DOI-WFMI","BLM","USCACND","Central California District","CABBD","Bakersfield District","","","D44Z","LOWE2","","","","","","1999","1999/07/04 00:00:00+00","185","0335","Human","Arson/incendiarism","","1999/07/04 00:00:00+00","185","0356","0.1","A","36.013511","-118.830931","PRIVATE","CA","Tulare","06107","Tulare County"
"-118.830918539","36.013505971","215135","218276","W-562047","FED","DOI-WFMI","BLM","USCACND","Central California District","CABBD","Bakersfield District","","","D44Z","LOWE1","","","","","","1999","1999/07/04 00:00:00+00","185","0335","Human","Arson/incendiarism","","1999/07/04 00:00:00+00","185","0356","0.1","A","36.013511","-118.830931","PRIVATE","CA","Tulare","06107","Tulare County"
"-121.19585578","39.332244835","215136","218277","W-561354","FED","DOI-WFMI","BLM","USCACND","Central California District","CABBD","Bakersfield District","","","D44Z","MEADOW","","","","","","1999","1999/07/04 00:00:00+00","185","0459","Human","Equipment and vehicle use","","1999/07/04 00:00:00+00","185","0503","0.1","A","39.33225","-121.195869","PRIVATE","CA","Yuba","06115","Yuba County"
"-119.115137437","36.564983934","215137","218278","W-562049","FED","DOI-WFMI","BLM","USCACND","Central California District","CABBD","Bakersfield District","","","D44Z","BENZENBURG 19","","","","","","1999","1999/07/04 00:00:00+00","185","0954","Human","Arson/incendiarism","","1999/07/04 00:00:00+00","185","1030","4","B","36.564989","-119.11515","PRIVATE","CA","Tulare","06107","Tulare County"
"-121.047647813","39.263225829","215138","218280","W-561355","FED","DOI-WFMI","BLM","USCACND","Central California District","CABBD","Bakersfield District","","","D44Z","CHAMPION","","","","","","1999","1999/07/04 00:00:00+00","185","1320","Human","Equipment and vehicle use","","1999/07/04 00:00:00+00","185","1445","1","B","39.263231","-121.047661","PRIVATE","CA","Nevada","06057","Nevada County"
"-120.47350604","38.15716388","215139","218281","W-561900","FED","DOI-WFMI","BLM","USCACND","Central California District","CABBD","Bakersfield District","","","D44Z","MUNCH","","","","","","1999","1999/07/04 00:00:00+00","185","1349","Human","Equipment and vehicle use","","1999/07/04 00:00:00+00","185","1410","0.1","A","38.157169","-120.473519","PRIVATE","CA","Calaveras","06009","Calaveras County"
"-121.378126107","36.264445114","215140","218282","W-560708","FED","DOI-WFMI","BLM","USCACND","Central California District","CABBD","Bakersfield District","","","D44Z","SYCAMORE","","","","","","1999","1999/07/04 00:00:00+00","185","1358","Human","Equipment and vehicle use","","1999/07/04 00:00:00+00","185","1420","0.1","A","36.26445","-121.378139","PRIVATE","CA","Monterey","06053","Monterey County"
"-120.404818068","38.013744888","215141","218283","W-561901","FED","DOI-WFMI","BLM","USCACND","Central California District","CABBD","Bakersfield District","","","D44Z","COLUMBIA","","","","","","1999","1999/07/04 00:00:00+00","185","1742","Human","Arson/incendiarism","","1999/07/04 00:00:00+00","185","1751","0.1","A","38.01375","-120.404831","PRIVATE","CA","Tuolumne","06109","Tuolumne County"
"-121.02988681","39.307394824","215142","218284","W-561353","FED","DOI-WFMI","BLM","USCACND","Central California District","CABBD","Bakersfield District","","","D44Z","PURDON","","","","","","1999","1999/07/04 00:00:00+00","185","1857","Human","Equipment and vehicle use","","1999/07/04 00:00:00+00","185","1858","0.1","A","39.3074","-121.0299","PRIVATE","CA","Nevada","06057","Nevada County"
"-119.92520643","35.285595114","215143","218285","W-561833","FED","DOI-WFMI","BLM","USCACND","Central California District","CABBD","Bakersfield District","","","D44Z","BETTENCOURT","","","","","","1999","1999/07/04 00:00:00+00","185","2111","Human","Missing data/not specified/undetermined","","1999/07/04 00:00:00+00","185","2219","10","C","35.2856","-119.925219","PRIVATE","CA","San Luis Obispo","06079","San Luis Obispo County"
"-119.45594552","35.131695101","215144","218286","W-560966","FED","DOI-WFMI","BLM","USCACND","Central California District","CABBD","Bakersfield District","","","D44Z","UNNAMED FIRE 0615","","","","","","1999","1999/07/04 00:00:00+00","185","2119","Human","Missing data/not specified/undetermined","","1999/07/04 00:00:00+00","185","2119","0.1","A","35.1317","-119.455958","PRIVATE","CA","Kern","06029","Kern County"
"-120.515756054","37.983044899","215145","218287","W-561898","FED","DOI-WFMI","BLM","USCACND","Central California District","CABBD","Bakersfield District","","","D44Z","MELONES 4","","","","","","1999","1999/07/04 00:00:00+00","185","2148","Human","Equipment and vehicle use","","1999/07/04 00:00:00+00","185","2148","0.1","A","37.98305","-120.515769","BOR","CA","Tuolumne","06109","Tuolumne County"
"-119.115137437","36.564983934","215146","218288","W-562045","FED","DOI-WFMI","BLM","USCACND","Central California District","CABBD","Bakersfield District","","","D44Z","BENZENBURG 20","","","","","","1999","1999/07/04 00:00:00+00","185","2222","Human","Arson/incendiarism","","1999/07/04 00:00:00+00","185","2240","0.2","A","36.564989","-119.11515","PRIVATE","CA","Tulare","06107","Tulare County"
"-120.497087054","38.011794895","215147","218289","W-561902","FED","DOI-WFMI","BLM","USCACND","Central California District","CABBD","Bakersfield District","","","D44Z","MELONES 5","","","","","","1999","1999/07/05 00:00:00+00","186","0050","Human","Missing data/not specified/undetermined","","1999/07/05 00:00:00+00","186","0500","100","D","38.0118","-120.4971","BOR","CA","Calaveras","06009","Calaveras County"
"-120.938297898","38.721744866","215148","218290","W-560580","FED","DOI-WFMI","BLM","USCACND","Central California District","CABBD","Bakersfield District","","","D44Z","MOTTO","","","","","","1999","1999/07/05 00:00:00+00","186","1108","Human","Equipment and vehicle use","","1999/07/05 00:00:00+00","186","1128","0.5","B","38.72175","-120.938311","PRIVATE","CA","El Dorado","06017","El Dorado County"
"-118.29844851","37.166344819","215149","218291","W-560683","FED","DOI-WFMI","BLM","USCACND","Central California District","CABBD","Bakersfield District","","","D44Z","BIG PINE","","","","","","1999","1999/07/05 00:00:00+00","186","1241","Human","Missing data/not specified/undetermined","","1999/07/05 00:00:00+00","186","1615","2","B","37.16635","-118.298461","PRIVATE","CA","Inyo","06027","Inyo County"
"-119.456118519","35.132417101","215150","218292","W-560912","FED","DOI-WFMI","BLM","USCACND","Central California District","CABBD","Bakersfield District","","","D44Z","UNNAMED FIRE 0609","","","","","","1999","1999/07/05 00:00:00+00","186","1307","Human","Misuse of fire by a minor","Minor","1999/07/05 00:00:00+00","186","1307","0.1","A","35.132422","-119.456131","PRIVATE","CA","Kern","06029","Kern County"
"-120.836025856","39.185255819","215151","218293","W-561356","FED","DOI-WFMI","BLM","USCACND","Central California District","CABBD","Bakersfield District","","","D44Z","FREEWAY","","","","","","1999","1999/07/05 00:00:00+00","186","1315","Human","Equipment and vehicle use","","1999/07/05 00:00:00+00","186","1325","0.1","A","39.185261","-120.836039","PRIVATE","CA","Placer","06061","Placer County"
"-119.453429517","35.165170097","215152","218294","W-560913","FED","DOI-WFMI","BLM","USCACND","Central California District","CABBD","Bakersfield District","","","D44Z","UNNAMED FIRE 0610","","","","","","1999","1999/07/05 00:00:00+00","186","1644","Human","Misuse of fire by a minor","Minor","1999/07/05 00:00:00+00","186","1644","0.1","A","35.165175","-119.453442","BLM","CA","Kern","06029","Kern County"
"-120.881255971","38.199663907","215153","218295","W-561903","FED","DOI-WFMI","BLM","USCACND","Central California District","CABBD","Bakersfield District","","","D44Z","WAFER","","","","","","1999","1999/07/05 00:00:00+00","186","1720","Human","Missing data/not specified/undetermined","","1999/07/05 00:00:00+00","186","1746","0.1","A","38.199669","-120.881269","PRIVATE","CA","Calaveras","06009","Calaveras County"
"-121.92354788","37.599664034","215154","218296","W-561630","FED","DOI-WFMI","BLM","USCACND","Central California District","CABBD","Bakersfield District","","","D44Z","SIMMS PARK","","","","","","1999","1999/07/05 00:00:00+00","186","2222","Human","Missing data/not specified/undetermined","","1999/07/05 00:00:00+00","186","2240","0.1","A","37.599669","-121.923561","PRIVATE","CA","Alameda","06001","Alameda County"
"-119.402623521","35.208870089","215155","218297","W-560914","FED","DOI-WFMI","BLM","USCACND","Central California District","CABBD","Bakersfield District","","","D44Z","UNNAMED FIRE 0113","","","","","","1999","1999/07/06 00:00:00+00","187","0139","Human","Missing data/not specified/undetermined","","1999/07/06 00:00:00+00","187","0139","0.1","A","35.208875","-119.402636","PRIVATE","CA","Kern","06029","Kern County"
"-120.732117945","38.60477586","215156","218298","W-560581","FED","DOI-WFMI","BLM","USCACND","Central California District","CABBD","Bakersfield District","","","D44Z","OUTINGDALE","","","","","","1999","1999/07/06 00:00:00+00","187","1341","Human","Equipment and vehicle use","","1999/07/06 00:00:00+00","187","1500","2","B","38.604781","-120.732131","PRIVATE","CA","El Dorado","06017","El Dorado County"
"-121.010397922","38.434413896","215157","218299","W-560582","FED","DOI-WFMI","BLM","USCACND","Central California District","CABBD","Bakersfield District","","","D44Z","LAMBERT","","","","","","1999","1999/07/06 00:00:00+00","187","1900","Human","Missing data/not specified/undetermined","","1999/07/06 00:00:00+00","187","2200","12","C","38.434419","-121.010411","PRIVATE","CA","Amador","06005","Amador County"
"-118.3381565","37.195613819","215158","218300","W-560684","FED","DOI-WFMI","BLM","USCACND","Central California District","CABBD","Bakersfield District","","","D44Z","FORK","","","","","","1999","1999/07/06 00:00:00+00","187","2218","Human","Missing data/not specified/undetermined","","1999/07/06 00:00:00+00","187","2330","0.2","A","37.195619","-118.338169","PRIVATE","CA","Inyo","06027","Inyo County"
"-121.129425812","39.166394843","215159","218301","W-561358","FED","DOI-WFMI","BLM","USCACND","Central California District","CABBD","Bakersfield District","","","D44Z","SPRING","","","","","","1999","1999/07/07 00:00:00+00","188","0315","Human","Equipment and vehicle use","","1999/07/07 00:00:00+00","188","0355","0.1","A","39.1664","-121.129439","PRIVATE","CA","Nevada","06057","Nevada County"
"-121.010625816","39.278675824","215160","218302","W-561357","FED","DOI-WFMI","BLM","USCACND","Central California District","CABBD","Bakersfield District","","","D44Z","HWY 20","","","","","","1999","1999/07/07 00:00:00+00","188","0916","Human","Equipment and vehicle use","","1999/07/07 00:00:00+00","188","0920","1","B","39.278681","-121.010639","PRIVATE","CA","Nevada","06057","Nevada County"
"-120.867417898","38.817544852","215161","218303","W-560583","FED","DOI-WFMI","BLM","USCACND","Central California District","CABBD","Bakersfield District","","","D44Z","JOHNTOWN","","","","","","1999","1999/07/07 00:00:00+00","188","1054","Human","Equipment and vehicle use","","1999/07/07 00:00:00+00","188","1215","0.1","A","38.81755","-120.867431","PRIVATE","CA","El Dorado","06017","El Dorado County"
"-120.660467974","38.460483867","215162","218304","W-560584","FED","DOI-WFMI","BLM","USCACND","Central California District","CABBD","Bakersfield District","","","D44Z","GULCH 6","","","","","","1999","1999/07/07 00:00:00+00","188","1205","Human","Missing data/not specified/undetermined","","1999/07/07 00:00:00+00","188","1209","0.1","A","38.460489","-120.660481","PRIVATE","CA","Amador","06005","Amador County"
"-118.576968428","37.485105807","215163","218305","W-560685","FED","DOI-WFMI","BLM","USCACND","Central California District","CABBD","Bakersfield District","","","D44Z","LOPEZ","","","","","","1999","1999/07/07 00:00:00+00","188","1255","Human","Equipment and vehicle use","","1999/07/07 00:00:00+00","188","1400","0.1","A","37.485111","-118.576981","BLM","CA","Mono","06051","Mono County"
"-119.488290508","35.198639096","215164","218306","W-560915","FED","DOI-WFMI","BLM","USCACND","Central California District","CABBD","Bakersfield District","","","D44Z","UNNAMED FIRE 0535","","","","","","1999","1999/07/07 00:00:00+00","188","2031","Human","Power generation/transmission/distribution","","1999/07/07 00:00:00+00","188","2031","5","B","35.198644","-119.488303","PRIVATE","CA","Kern","06029","Kern County"
"-119.599234484","35.270848095","215165","218307","W-560916","FED","DOI-WFMI","BLM","USCACND","Central California District","CABBD","Bakersfield District","","","D44Z","UNNAMED FIRE 0861","","","","","","1999","1999/07/07 00:00:00+00","188","2128","Human","Power generation/transmission/distribution","","1999/07/07 00:00:00+00","188","2128","3","B","35.270853","-119.599247","PRIVATE","CA","Kern","06029","Kern County"
"-120.845717961","38.330583893","215166","218308","W-560585","FED","DOI-WFMI","BLM","USCACND","Central California District","CABBD","Bakersfield District","","","D44Z","RANCHERA","","","","","","1999","1999/07/09 00:00:00+00","190","0116","Human","Arson/incendiarism","","1999/07/09 00:00:00+00","190","0200","0.1","A","38.330589","-120.845731","PRIVATE","CA","Amador","06005","Amador County"
"-120.404568075","37.955344893","215167","218309","W-561904","FED","DOI-WFMI","BLM","USCACND","Central California District","CABBD","Bakersfield District","","","D44Z","MAPLE","","","","","","1999","1999/07/09 00:00:00+00","190","1404","Human","Missing data/not specified/undetermined","","1999/07/09 00:00:00+00","190","1404","0.1","A","37.95535","-120.404581","PRIVATE","CA","Tuolumne","06109","Tuolumne County"
"-120.277248094","37.969475883","215168","218310","W-561905","FED","DOI-WFMI","BLM","USCACND","Central California District","CABBD","Bakersfield District","","","D44Z","REED","","","","","","1999","1999/07/09 00:00:00+00","190","1440","Human","Misuse of fire by a minor","Minor","1999/07/09 00:00:00+00","190","1512","4","B","37.969481","-120.277261","PRIVATE","CA","Tuolumne","06109","Tuolumne County"
"-119.420118522","35.165323095","215169","218311","W-560917","FED","DOI-WFMI","BLM","USCACND","Central California District","CABBD","Bakersfield District","","","D44Z","UNNAMED FIRE 0271","","","","","","1999","1999/07/09 00:00:00+00","190","1456","Human","Power generation/transmission/distribution","","1999/07/09 00:00:00+00","190","1456","1","B","35.165328","-119.420131","BLM","CA","Kern","06029","Kern County"
"-119.036006466","36.406313945","215170","218312","W-562050","FED","DOI-WFMI","BLM","USCACND","Central California District","CABBD","Bakersfield District","","","D44Z","LOMITAS","","","","","","1999","1999/07/10 00:00:00+00","191","0032","Human","Arson/incendiarism","","1999/07/10 00:00:00+00","191","0126","4","B","36.406319","-119.036019","PRIVATE","CA","Tulare","06107","Tulare County"
"-120.436506098","37.717163917","215171","218313","W-561906","FED","DOI-WFMI","BLM","USCACND","Central California District","CABBD","Bakersfield District","","","D44Z","59 3","","","","","","1999","1999/07/10 00:00:00+00","191","1048","Human","Smoking","","1999/07/10 00:00:00+00","191","1055","0.1","A","37.717169","-120.436519","PRIVATE","CA","Tuolumne","06109","Tuolumne County"
"-120.11853716","37.615233903","215172","218314","W-561174","FED","DOI-WFMI","BLM","USCACND","Central California District","CABBD","Bakersfield District","","","D44Z","BAGBY","","","","","","1999","1999/07/10 00:00:00+00","191","1252","Human","Missing data/not specified/undetermined","","1999/07/10 00:00:00+00","191","1400","0.1","A","37.615239","-120.11855","BLM","CA","Mariposa","06043","Mariposa County"
"-120.904675879","38.919013847","215173","218315","W-560586","FED","DOI-WFMI","BLM","USCACND","Central California District","CABBD","Bakersfield District","","","D44Z","RUSH","","","","","","1999","1999/07/10 00:00:00+00","191","1456","Human","Equipment and vehicle use","","1999/07/10 00:00:00+00","191","1540","3","B","38.919019","-120.904689","PRIVATE","CA","El Dorado","06017","El Dorado County"
"-121.049925883","38.707155876","215174","218316","W-560587","FED","DOI-WFMI","BLM","USCACND","Central California District","CABBD","Bakersfield District","","","D44Z","ROCKY","","","","","","1999","1999/07/11 00:00:00+00","192","1055","Human","Equipment and vehicle use","","1999/07/11 00:00:00+00","192","1106","0.1","A","38.707161","-121.049939","PRIVATE","CA","El Dorado","06017","El Dorado County"
"-121.745787013","36.628295106","215175","218317","W-1272","FED","DOI-WFMI","BLM","USCACND","Central California District","CABBD","Bakersfield District","","","D036","BARLOY","","","","","","1999","1999/07/11 00:00:00+00","192","1200","Human","Firearms and explosives use","","1999/07/11 00:00:00+00","192","1800","2.5","B","36.6283","-121.7458","OTHER FEDERAL","CA","","",""
"-120.603505968","38.588375852","215176","218318","W-560588","FED","DOI-WFMI","BLM","USCACND","Central California District","CABBD","Bakersfield District","","","D44Z","PARK","","","","","","1999","1999/07/11 00:00:00+00","192","1315","Human","Recreation and ceremony","","1999/07/11 00:00:00+00","192","1633","0.5","B","38.588381","-120.603519","PRIVATE","CA","El Dorado","06017","El Dorado County"
"-118.518468646","35.434428011","215177","218319","W-560918","FED","DOI-WFMI","BLM","USCACND","Central California District","CABBD","Bakersfield District","","","D44Z","UNNAMED FIRE 0945","","","","","","1999","1999/07/11 00:00:00+00","192","1432","Natural","Natural","","1999/07/11 00:00:00+00","192","1432","0.1","A","35.434433","-118.518481","PRIVATE","CA","Kern","06029","Kern County"
"-118.434287666","35.374395012","215178","218321","W-1270","FED","DOI-WFMI","BLM","USCACND","Central California District","CABBD","Bakersfield District","","","D034","SIERRA","","","","","","1999","1999/07/11 00:00:00+00","192","1533","Natural","Natural","","1999/07/11 00:00:00+00","192","2300","1.5","B","35.3744","-118.4343","BLM","CA","","",""
"-118.907718477","36.507733926","215179","218322","W-562051","FED","DOI-WFMI","BLM","USCACND","Central California District","CABBD","Bakersfield District","","","D44Z","BLM3 ELLIOT","","","","","","1999","1999/07/11 00:00:00+00","192","1843","Human","Arson/incendiarism","","1999/07/11 00:00:00+00","192","1853","0.1","A","36.507739","-118.907731","PRIVATE","CA","Tulare","06107","Tulare County"
"-120.564976007","38.316963873","215180","218323","W-561907","FED","DOI-WFMI","BLM","USCACND","Central California District","CABBD","Bakersfield District","","","D44Z","LIGHTNING 3","","","","","","1999","1999/07/11 00:00:00+00","192","1920","Natural","Natural","","1999/07/11 00:00:00+00","192","2212","0.3","B","38.316969","-120.564989","PRIVATE","CA","Calaveras","06009","Calaveras County"
"-120.868505903","38.775205856","215181","218325","W-560589","FED","DOI-WFMI","BLM","USCACND","Central California District","CABBD","Bakersfield District","","","D44Z","RIVERWOOD","","","","","","1999","1999/07/12 00:00:00+00","193","1233","Human","Equipment and vehicle use","","1999/07/12 00:00:00+00","193","1320","1","B","38.775211","-120.868519","PRIVATE","CA","El Dorado","06017","El Dorado County"
"-120.940225849","39.108413833","215182","218326","W-561359","FED","DOI-WFMI","BLM","USCACND","Central California District","CABBD","Bakersfield District","","","D44Z","COLFAX","","","","","","1999","1999/07/12 00:00:00+00","193","1241","Human","Missing data/not specified/undetermined","","1999/07/12 00:00:00+00","193","1405","0.3","B","39.108419","-120.940239","PRIVATE","CA","Placer","06061","Placer County"
"-119.753656486","34.971195135","215183","218327","W-561625","FED","DOI-WFMI","BLM","USCACND","Central California District","CABBD","Bakersfield District","","","D44Z","UNNAMED FIRE 0003","","","","","","1999","1999/07/13 00:00:00+00","194","","Human","Missing data/not specified/undetermined","","1999/07/13 00:00:00+00","194","","0.1","A","34.9712","-119.753669","PRIVATE","CA","Santa Barbara","06083","Santa Barbara County"
"-120.47891806","37.983275896","215184","218328","W-561909","FED","DOI-WFMI","BLM","USCACND","Central California District","CABBD","Bakersfield District","","","D44Z","CEDAR","","","","","","1999","1999/07/13 00:00:00+00","194","0005","Human","Missing data/not specified/undetermined","","1999/07/13 00:00:00+00","194","0031","0.1","A","37.983281","-120.478931","BLM","CA","Tuolumne","06109","Tuolumne County"
"-120.900667908","38.692913865","215185","218329","W-560590","FED","DOI-WFMI","BLM","USCACND","Central California District","CABBD","Bakersfield District","","","D44Z","GREEN","","","","","","1999","1999/07/13 00:00:00+00","194","1320","Human","Missing data/not specified/undetermined","","1999/07/13 00:00:00+00","194","1430","2","B","38.692919","-120.900681","PRIVATE","CA","El Dorado","06017","El Dorado County"
"-118.527865643","35.45161701","215186","218330","W-560919","FED","DOI-WFMI","BLM","USCACND","Central California District","CABBD","Bakersfield District","","","D44Z","UNNAMED FIRE 1081","","","","","","1999","1999/07/13 00:00:00+00","194","1414","Natural","Natural","","1999/07/13 00:00:00+00","194","1414","3","B","35.451622","-118.527878","PRIVATE","CA","Kern","06029","Kern County"
"-121.034675858","38.921144856","215187","218332","W-561360","FED","DOI-WFMI","BLM","USCACND","Central California District","CABBD","Bakersfield District","","","D44Z","MOOSEHEAD","","","","","","1999","1999/07/13 00:00:00+00","194","1528","Human","Arson/incendiarism","","1999/07/13 00:00:00+00","194","1550","0.1","A","38.92115","-121.034689","BOR","CA","Placer","06061","Placer County"
"-120.179587143","37.674694902","215188","218333","W-1560","FED","DOI-WFMI","BLM","USCACND","Central California District","CABBD","Bakersfield District","","","D050","49","1999_CA-RSS-MMU9613_                            49","","","","","1999","1999/07/13 00:00:00+00","194","1704","Human","Power generation/transmission/distribution","","1999/07/15 00:00:00+00","196","0800","395","E","37.6747","-120.1796","BLM","CA","","",""
"-118.114787667","35.931594934","215189","218334","W-1550","FED","DOI-WFMI","BLM","USCACND","Central California District","CABBD","Bakersfield District","","","D044","WILSON","","","","","","1999","1999/07/14 00:00:00+00","195","1017","Natural","Natural","","1999/07/14 00:00:00+00","195","1900","0.1","A","35.9316","-118.1148","BLM","CA","","",""
"-120.257998094","37.998725879","215190","218335","W-561910","FED","DOI-WFMI","BLM","USCACND","Central California District","CABBD","Bakersfield District","","","D44Z","CAYLOR","","","","","","1999","1999/07/14 00:00:00+00","195","1109","Human","Equipment and vehicle use","","1999/07/15 00:00:00+00","196","0800","110","D","37.998731","-120.258011","PRIVATE","CA","Tuolumne","06109","Tuolumne County"
"-118.423687669","35.360495013","215191","218337","W-1554","FED","DOI-WFMI","BLM","USCACND","Central California District","CABBD","Bakersfield District","","","D046","SNOW","","","","","","1999","1999/07/14 00:00:00+00","195","1418","Natural","Natural","","1999/07/14 00:00:00+00","195","2000","15.5","C","35.3605","-118.4237","BLM","CA","","",""
"-121.161575789","39.305044834","215192","218338","W-561361","FED","DOI-WFMI","BLM","USCACND","Central California District","CABBD","Bakersfield District","","","D44Z","PLEASENT","","","","","","1999","1999/07/14 00:00:00+00","195","2101","Human","Missing data/not specified/undetermined","","1999/07/14 00:00:00+00","195","2130","0.5","B","39.30505","-121.161589","BLM","CA","Nevada","06057","Nevada County"
"-118.111487668","35.927394934","215193","218339","W-1557","FED","DOI-WFMI","BLM","USCACND","Central California District","CABBD","Bakersfield District","","","D048","WILSON II","","","","","","1999","1999/07/15 00:00:00+00","196","0807","Natural","Natural","","1999/07/15 00:00:00+00","196","2000","0.1","A","35.9274","-118.1115","BLM","CA","","",""
"-118.114787675","35.845794943","215194","218340","W-1559","FED","DOI-WFMI","BLM","USCACND","Central California District","CABBD","Bakersfield District","","","D049","LOOP","","","","","","1999","1999/07/15 00:00:00+00","196","1310","Natural","Natural","","1999/07/16 00:00:00+00","197","0800","0.1","A","35.8458","-118.1148","BLM","CA","","",""
"-119.402484526","35.154823095","215195","218341","W-560921","FED","DOI-WFMI","BLM","USCACND","Central California District","CABBD","Bakersfield District","","","D44Z","UNNAMED FIRE 0068","","","","","","1999","1999/07/15 00:00:00+00","196","1414","Human","Power generation/transmission/distribution","","1999/07/15 00:00:00+00","196","1414","2","B","35.154828","-119.402497","PRIVATE","CA","Kern","06029","Kern County"
"-120.921286867","38.990513842","215196","218342","W-561362","FED","DOI-WFMI","BLM","USCACND","Central California District","CABBD","Bakersfield District","","","D44Z","RUCKY","","","","","","1999","1999/07/15 00:00:00+00","196","1518","Human","Recreation and ceremony","","1999/07/15 00:00:00+00","196","1555","0.1","A","38.990519","-120.9213","PRIVATE","CA","Placer","06061","Placer County"
"-119.611393476","35.336526089","215197","218343","W-560922","FED","DOI-WFMI","BLM","USCACND","Central California District","CABBD","Bakersfield District","","","D44Z","UNNAMED FIRE 0555","","","","","","1999","1999/07/15 00:00:00+00","196","1650","Human","Missing data/not specified/undetermined","","1999/07/15 00:00:00+00","196","1650","40","C","35.336531","-119.611406","PRIVATE","CA","Kern","06029","Kern County"
"-120.361856109","37.717075912","215198","218344","W-561911","FED","DOI-WFMI","BLM","USCACND","Central California District","CABBD","Bakersfield District","","","D44Z","HATTON","","","","","","1999","1999/07/16 00:00:00+00","197","0417","Human","Recreation and ceremony","","1999/07/16 00:00:00+00","197","0522","2","B","37.717081","-120.361869","PRIVATE","CA","Tuolumne","06109","Tuolumne County"
"-120.350456074","38.042125881","215199","218345","W-561912","FED","DOI-WFMI","BLM","USCACND","Central California District","CABBD","Bakersfield District","","","D44Z","BALD","","","","","","1999","1999/07/16 00:00:00+00","197","1706","Human","Debris and open burning","","1999/07/16 00:00:00+00","197","1723","0.1","A","38.042131","-120.350469","PRIVATE","CA","Tuolumne","06109","Tuolumne County"
"-120.175787132","37.776533893","215200","218346","W-561175","FED","DOI-WFMI","BLM","USCACND","Central California District","CABBD","Bakersfield District","","","D44Z","PINE","","","","","","1999","1999/07/17 00:00:00+00","198","0442","Human","Missing data/not specified/undetermined","","1999/07/17 00:00:00+00","198","0545","0.3","B","37.776539","-120.1758","PRIVATE","CA","Mariposa","06043","Mariposa County"
"-121.103567804","39.262483833","215201","218347","W-561363","FED","DOI-WFMI","BLM","USCACND","Central California District","CABBD","Bakersfield District","","","D44Z","EMPIRE FIRE","","","","","","1999","1999/07/17 00:00:00+00","198","0647","Human","Missing data/not specified/undetermined","","1999/07/17 00:00:00+00","198","0700","0.1","A","39.262489","-121.103581","PRIVATE","CA","Nevada","06057","Nevada County"
"-118.078387673","35.931594931","215202","218348","W-1562","FED","DOI-WFMI","BLM","USCACND","Central California District","CABBD","Bakersfield District","","","D051","LONG","","","","","","1999","1999/07/17 00:00:00+00","198","1138","Natural","Natural","","1999/07/18 00:00:00+00","199","0600","0.1","A","35.9316","-118.0784","BLM","CA","","",""
"-120.900147906","38.707455864","215203","218349","W-560591","FED","DOI-WFMI","BLM","USCACND","Central California District","CABBD","Bakersfield District","","","D44Z","GREEN","","","","","","1999","1999/07/17 00:00:00+00","198","1150","Human","Equipment and vehicle use","","1999/07/17 00:00:00+00","198","1230","1.5","B","38.707461","-120.900161","PRIVATE","CA","El Dorado","06017","El Dorado County"
"-120.956825897","38.707333869","215204","218352","W-560592","FED","DOI-WFMI","BLM","USCACND","Central California District","CABBD","Bakersfield District","","","D44Z","PONDEROSA","","","","","","1999","1999/07/17 00:00:00+00","198","1847","Human","Equipment and vehicle use","","1999/07/17 00:00:00+00","198","1910","1","B","38.707339","-120.956839","PRIVATE","CA","El Dorado","06017","El Dorado County"
"-121.412986878","38.278794939","215205","218354","W-1801","FED","DOI-WFMI","BLM","USCACND","Central California District","CABBD","Bakersfield District","","","D057","PRESERVEI","","","","","","1999","1999/07/18 00:00:00+00","199","1200","Human","Missing data/not specified/undetermined","","1999/07/18 00:00:00+00","199","1900","10","C","38.2788","-121.413","BLM","CA","","",""
"-120.286856111","37.805455898","215206","218356","W-561913","FED","DOI-WFMI","BLM","USCACND","Central California District","CABBD","Bakersfield District","","","D44Z","BALL","","","","","","1999","1999/07/18 00:00:00+00","199","1810","Human","Equipment and vehicle use","","1999/07/18 00:00:00+00","199","1814","0.1","A","37.805461","-120.286869","PRIVATE","CA","Tuolumne","06109","Tuolumne County"
"-120.713775989","38.272355888","215207","218357","W-561914","FED","DOI-WFMI","BLM","USCACND","Central California District","CABBD","Bakersfield District","","","D44Z","HWY491","","","","","","1999","1999/07/18 00:00:00+00","199","1820","Human","Equipment and vehicle use","","1999/07/18 00:00:00+00","199","1832","0.3","B","38.272361","-120.713789","PRIVATE","CA","Calaveras","06009","Calaveras County"
"-119.456487517","35.159528098","215208","218358","W-560923","FED","DOI-WFMI","BLM","USCACND","Central California District","CABBD","Bakersfield District","","","D44Z","UNNAMED FIRE 0803","","","","","","1999","1999/07/19 00:00:00+00","200","0029","Human","Smoking","","1999/07/19 00:00:00+00","200","0029","1","B","35.159533","-119.4565","PRIVATE","CA","Kern","06029","Kern County"
"-120.076548177","37.528044909","215209","218359","W-561176","FED","DOI-WFMI","BLM","USCACND","Central California District","CABBD","Bakersfield District","","","D44Z","49ER","","","","","","1999","1999/07/19 00:00:00+00","200","0110","Human","Power generation/transmission/distribution","","1999/07/19 00:00:00+00","200","0557","3","B","37.52805","-120.076561","PRIVATE","CA","Mariposa","06043","Mariposa County"
"-120.641836977","38.460833866","215210","218360","W-560593","FED","DOI-WFMI","BLM","USCACND","Central California District","CABBD","Bakersfield District","","","D44Z","CHARLESTON","","","","","","1999","1999/07/19 00:00:00+00","200","1220","Human","Equipment and vehicle use","","1999/07/19 00:00:00+00","200","1335","1","B","38.460839","-120.64185","BLM","CA","Amador","06005","Amador County"
"-120.409876358","35.22762615","215211","218361","W-561834","FED","DOI-WFMI","BLM","USCACND","Central California District","CABBD","Bakersfield District","","","D44Z","MOUNTAIN","","","","","","1999","1999/07/19 00:00:00+00","200","1643","Human","Missing data/not specified/undetermined","","1999/07/20 00:00:00+00","201","1700","42","C","35.227631","-120.409889","BLM","CA","San Luis Obispo","06079","San Luis Obispo County"
"-120.82323688","39.015663832","215212","218362","W-561365","FED","DOI-WFMI","BLM","USCACND","Central California District","CABBD","Bakersfield District","","","D44Z","BALTIMORE","","","","","","1999","1999/07/20 00:00:00+00","201","","Human","Missing data/not specified/undetermined","","1999/07/20 00:00:00+00","201","","0.3","B","39.015669","-120.82325","PRIVATE","CA","Placer","06061","Placer County"
"-121.029617812","39.292794825","215213","218363","W-561364","FED","DOI-WFMI","BLM","USCACND","Central California District","CABBD","Bakersfield District","","","D44Z","RAYMOND","","","","","","1999","1999/07/20 00:00:00+00","201","1501","Human","Smoking","","1999/07/20 00:00:00+00","201","1600","0.2","A","39.2928","-121.029631","PRIVATE","CA","Nevada","06057","Nevada County"
"-118.924487472","36.523594926","215214","218364","W-1797","FED","DOI-WFMI","BLM","USCACND","Central California District","CABBD","Bakersfield District","","","D054","ADVANCE","","","","","","1999","1999/07/21 00:00:00+00","202","0638","Human","Arson/incendiarism","","1999/07/21 00:00:00+00","202","1030","3","B","36.5236","-118.9245","BLM","CA","","",""
"-119.369151533","35.143959094","215215","218365","W-560924","FED","DOI-WFMI","BLM","USCACND","Central California District","CABBD","Bakersfield District","","","D44Z","UNNAMED FIRE 0331","","","","","","1999","1999/07/21 00:00:00+00","202","0922","Human","Missing data/not specified/undetermined","","1999/07/21 00:00:00+00","202","0922","10","C","35.143964","-119.369164","BLM","CA","Kern","06029","Kern County"
"-120.548847994","38.44638386","215216","218366","W-560594","FED","DOI-WFMI","BLM","USCACND","Central California District","CABBD","Bakersfield District","","","D44Z","PIONEER","","","","","","1999","1999/07/21 00:00:00+00","202","1141","Human","Arson/incendiarism","","1999/07/21 00:00:00+00","202","1230","0.2","A","38.446389","-120.548861","PRIVATE","CA","Amador","06005","Amador County"
"-120.886705896","38.804575855","215217","218367","W-560595","FED","DOI-WFMI","BLM","USCACND","Central California District","CABBD","Bakersfield District","","","D44Z","PONDEROSA","","","","","","1999","1999/07/21 00:00:00+00","202","1230","Human","Debris and open burning","","1999/07/21 00:00:00+00","202","1400","0.3","B","38.804581","-120.886719","PRIVATE","CA","El Dorado","06017","El Dorado County"
"-121.820187002","36.620195112","215218","218368","W-1806","FED","DOI-WFMI","BLM","USCACND","Central California District","CABBD","Bakersfield District","","","D059","BOUNDARY","","","","","","1999","1999/07/21 00:00:00+00","202","1500","Human","Equipment and vehicle use","","1999/07/21 00:00:00+00","202","2300","120","D","36.6202","-121.8202","OTHER FEDERAL","CA","","",""
"-118.09668767","35.931594932","215219","218369","W-1808","FED","DOI-WFMI","BLM","USCACND","Central California District","CABBD","Bakersfield District","","","D061","NOWHERE","","","","","","1999","1999/07/22 00:00:00+00","203","0755","Natural","Natural","","1999/07/22 00:00:00+00","203","1811","0.1","A","35.9316","-118.0967","BLM","CA","","",""
"-120.42378706","38.056544886","215220","218370","W-561915","FED","DOI-WFMI","BLM","USCACND","Central California District","CABBD","Bakersfield District","","","D44Z","PARROT","","","","","","1999","1999/07/22 00:00:00+00","203","1654","Human","Missing data/not specified/undetermined","","1999/07/22 00:00:00+00","203","1713","0.1","A","38.05655","-120.4238","PRIVATE","CA","Tuolumne","06109","Tuolumne County"
"-120.713526006","38.126513901","215221","218371","W-561917","FED","DOI-WFMI","BLM","USCACND","Central California District","CABBD","Bakersfield District","","","D44Z","RIATA 2","","","","","","1999","1999/07/23 00:00:00+00","204","1041","Human","Equipment and vehicle use","","1999/07/24 00:00:00+00","205","1600","17","C","38.126519","-120.713539","PRIVATE","CA","Calaveras","06009","Calaveras County"
"-120.750667998","38.141383902","215222","218372","W-561919","FED","DOI-WFMI","BLM","USCACND","Central California District","CABBD","Bakersfield District","","","D44Z","RIATA 4","","","","","","1999","1999/07/23 00:00:00+00","204","1041","Human","Equipment and vehicle use","","1999/07/24 00:00:00+00","205","1600","1","B","38.141389","-120.750681","PRIVATE","CA","Calaveras","06009","Calaveras County"
"-120.713526006","38.126513901","215223","218373","W-561918","FED","DOI-WFMI","BLM","USCACND","Central California District","CABBD","Bakersfield District","","","D44Z","RIATA 3","","","","","","1999","1999/07/23 00:00:00+00","204","1041","Human","Equipment and vehicle use","","1999/07/24 00:00:00+00","205","1600","1","B","38.126519","-120.713539","PRIVATE","CA","Calaveras","06009","Calaveras County"
"-120.713526006","38.126513901","215224","218374","W-561916","FED","DOI-WFMI","BLM","USCACND","Central California District","CABBD","Bakersfield District","","","D44Z","RIATA 1","","","","","","1999","1999/07/23 00:00:00+00","204","1041","Human","Equipment and vehicle use","","1999/07/24 00:00:00+00","205","1050","1","B","38.126519","-120.713539","PRIVATE","CA","Calaveras","06009","Calaveras County"
"-120.84912589","38.904275843","215225","218375","W-560596","FED","DOI-WFMI","BLM","USCACND","Central California District","CABBD","Bakersfield District","","","D44Z","MOON","","","","","","1999","1999/07/23 00:00:00+00","204","1425","Human","Missing data/not specified/undetermined","","1999/07/23 00:00:00+00","204","1530","0.5","B","38.904281","-120.849139","PRIVATE","CA","El Dorado","06017","El Dorado County"
"-119.26007641","36.595125941","215226","218376","W-562053","FED","DOI-WFMI","BLM","USCACND","Central California District","CABBD","Bakersfield District","","","D44Z","CURTIS","","","","","","1999","1999/07/23 00:00:00+00","204","1653","Human","Arson/incendiarism","","1999/07/23 00:00:00+00","204","1934","65","C","36.595131","-119.260089","PRIVATE","CA","Tulare","06107","Tulare County"
"-120.550837006","38.345605869","215227","218378","W-561921","FED","DOI-WFMI","BLM","USCACND","Central California District","CABBD","Bakersfield District","","","D44Z","HEATH","","","","","","1999","1999/07/24 00:00:00+00","205","1004","Human","Debris and open burning","","1999/07/24 00:00:00+00","205","1100","0.2","A","38.345611","-120.55085","PRIVATE","CA","Calaveras","06009","Calaveras County"
"-121.083705813","39.219455835","215228","218379","W-561366","FED","DOI-WFMI","BLM","USCACND","Central California District","CABBD","Bakersfield District","","","D44Z","ADAM","","","","","","1999","1999/07/24 00:00:00+00","205","1054","Human","Equipment and vehicle use","","1999/07/24 00:00:00+00","205","1103","0.1","A","39.219461","-121.083719","PRIVATE","CA","Nevada","06057","Nevada County"
"-119.167587295","37.788494819","215229","218380","W-1810","FED","DOI-WFMI","BLM","USCACND","Central California District","CABBD","Bakersfield District","","","D063","MOCCASIAN","","","","","","1999","1999/07/24 00:00:00+00","205","1200","Human","Missing data/not specified/undetermined","","1999/07/24 00:00:00+00","205","2300","250","D","37.7885","-119.1676","BLM","CA","","",""
"-119.313118204","38.366580775","215230","218381","W-1835","FED","DOI-WFMI","BLM","USCACND","Central California District","CABBD","Bakersfield District","","","U976","TOPAZ","","","","","","1999","1999/07/24 00:00:00+00","205","1230","Human","Missing data/not specified/undetermined","","1999/07/24 00:00:00+00","205","1415","0.3","B","38.366586","-119.313131","BLM","CA","","",""
"-120.956805839","39.16692583","215231","218382","W-561367","FED","DOI-WFMI","BLM","USCACND","Central California District","CABBD","Bakersfield District","","","D44Z","GREENE","","","","","","1999","1999/07/24 00:00:00+00","205","1519","Human","Debris and open burning","","1999/07/24 00:00:00+00","205","1607","0.1","A","39.166931","-120.956819","PRIVATE","CA","Nevada","06057","Nevada County"
"-120.567518317","35.402795143","215232","218383","W-561835","FED","DOI-WFMI","BLM","USCACND","Central California District","CABBD","Bakersfield District","","","D44Z","DIGGER PINE","","","","","","1999","1999/07/24 00:00:00+00","205","2350","Human","Equipment and vehicle use","","1999/07/25 00:00:00+00","206","0002","0.2","A","35.4028","-120.567531","PRIVATE","CA","San Luis Obispo","06079","San Luis Obispo County"
"-121.056897829","39.123955841","215233","218384","W-561368","FED","DOI-WFMI","BLM","USCACND","Central California District","CABBD","Bakersfield District","","","D44Z","KENNETH","","","","","","1999","1999/07/25 00:00:00+00","206","0621","Human","Equipment and vehicle use","","1999/07/25 00:00:00+00","206","0621","0.1","A","39.123961","-121.056911","PRIVATE","CA","Nevada","06057","Nevada County"
"-119.5490455","35.184359101","215234","218385","W-560926","FED","DOI-WFMI","BLM","USCACND","Central California District","CABBD","Bakersfield District","","","D44Z","UNNAMED FIRE 0612","","","","","","1999","1999/07/25 00:00:00+00","206","0858","Human","Power generation/transmission/distribution","","1999/07/25 00:00:00+00","206","0858","0.1","A","35.184364","-119.549058","PRIVATE","CA","Kern","06029","Kern County"
"-120.992086808","39.365483816","215235","218386","W-561369","FED","DOI-WFMI","BLM","USCACND","Central California District","CABBD","Bakersfield District","","","D44Z","TYLER","","","","","","1999","1999/07/25 00:00:00+00","206","1013","Human","Recreation and ceremony","","1999/07/25 00:00:00+00","206","1130","0.5","B","39.365489","-120.9921","PRIVATE","CA","Nevada","06057","Nevada County"
"-120.993867893","38.692833873","215236","218388","W-560597","FED","DOI-WFMI","BLM","USCACND","Central California District","CABBD","Bakersfield District","","","D44Z","CAMERON","","","","","","1999","1999/07/25 00:00:00+00","206","1431","Human","Misuse of fire by a minor","Minor","1999/07/25 00:00:00+00","206","1600","15","C","38.692839","-120.993881","PRIVATE","CA","El Dorado","06017","El Dorado County"
"-120.194206134","37.733975898","215237","218389","W-561177","FED","DOI-WFMI","BLM","USCACND","Central California District","CABBD","Bakersfield District","","","D44Z","COULTERVILLE","","","","","","1999","1999/07/25 00:00:00+00","206","1723","Human","Missing data/not specified/undetermined","","1999/07/25 00:00:00+00","206","2028","3","B","37.733981","-120.194219","PRIVATE","CA","Mariposa","06043","Mariposa County"
"-121.112405822","39.108375847","215238","218390","W-561370","FED","DOI-WFMI","BLM","USCACND","Central California District","CABBD","Bakersfield District","","","D44Z","RICHMAR","","","","","","1999","1999/07/26 00:00:00+00","207","","Human","Missing data/not specified/undetermined","","1999/07/26 00:00:00+00","207","","1","B","39.108381","-121.112419","PRIVATE","CA","Nevada","06057","Nevada County"
"-119.645026304","37.003094928","215239","218391","W-560804","FED","DOI-WFMI","BLM","USCACND","Central California District","CABBD","Bakersfield District","","","D44Z","SKY HARBOR","","","","","","1999","1999/07/26 00:00:00+00","207","0244","Human","Equipment and vehicle use","","1999/07/26 00:00:00+00","207","0450","4","B","37.0031","-119.645039","PRIVATE","CA","Fresno","06019","Fresno County"
"-120.350456074","38.042125881","215240","218392","W-561923","FED","DOI-WFMI","BLM","USCACND","Central California District","CABBD","Bakersfield District","","","D44Z","QUARTZ","","","","","","1999","1999/07/26 00:00:00+00","207","0450","Human","Missing data/not specified/undetermined","","1999/07/26 00:00:00+00","207","0648","0.1","A","38.042131","-120.350469","PRIVATE","CA","Tuolumne","06109","Tuolumne County"
"-119.668070463","35.371798089","215241","218393","W-560927","FED","DOI-WFMI","BLM","USCACND","Central California District","CABBD","Bakersfield District","","","D44Z","UNNAMED FIRE 0528","","","","","","1999","1999/07/27 00:00:00+00","208","1353","Human","Equipment and vehicle use","","1999/07/27 00:00:00+00","208","1353","3","B","35.371803","-119.668083","PRIVATE","CA","Kern","06029","Kern County"
"-120.094368183","37.441713918","215242","218394","W-561178","FED","DOI-WFMI","BLM","USCACND","Central California District","CABBD","Bakersfield District","","","D44Z","OASIS","","","","","","1999","1999/07/27 00:00:00+00","208","1455","Human","Misuse of fire by a minor","Minor","1999/07/27 00:00:00+00","208","1502","0.1","A","37.441719","-120.094381","PRIVATE","CA","Mariposa","06043","Mariposa County"
"-119.411418534","35.052420106","215243","218395","W-560928","FED","DOI-WFMI","BLM","USCACND","Central California District","CABBD","Bakersfield District","","","D44Z","UNNAMED FIRE 0753","","","","","","1999","1999/07/27 00:00:00+00","208","2250","Human","Smoking","","1999/07/27 00:00:00+00","208","2250","0.3","B","35.052425","-119.411431","PRIVATE","CA","Kern","06029","Kern County"
"-121.758325961","37.091145066","215244","218396","W-561631","FED","DOI-WFMI","BLM","USCACND","Central California District","CABBD","Bakersfield District","","","D44Z","MAZDA","","","","","","1999","1999/07/27 00:00:00+00","208","2346","Human","Arson/incendiarism","","1999/07/28 00:00:00+00","209","0009","0.1","A","37.09115","-121.758339","PRIVATE","CA","Santa Clara","06085","Santa Clara County"
"-118.322718482","37.383405799","215245","218397","W-560688","FED","DOI-WFMI","BLM","USCACND","Central California District","CABBD","Bakersfield District","","","D44Z","DUNCAN","","","","","","1999","1999/07/28 00:00:00+00","209","1755","Human","Equipment and vehicle use","","1999/07/28 00:00:00+00","209","1930","0.1","A","37.383411","-118.322731","PRIVATE","CA","Inyo","06027","Inyo County"
"-120.270037136","37.615175914","215246","218398","W-561179","FED","DOI-WFMI","BLM","USCACND","Central California District","CABBD","Bakersfield District","","","D44Z","MCCLURE","","","","","","1999","1999/07/29 00:00:00+00","210","1250","Human","Power generation/transmission/distribution","","1999/07/29 00:00:00+00","210","1500","3","B","37.615181","-120.27005","PRIVATE","CA","Mariposa","06043","Mariposa County"
"-120.897786823","39.365763808","215247","218399","W-561371","FED","DOI-WFMI","BLM","USCACND","Central California District","CABBD","Bakersfield District","","","D44Z","SUMMIT","","","","","","1999","1999/07/29 00:00:00+00","210","1457","Human","Equipment and vehicle use","","1999/07/29 00:00:00+00","210","1521","0.5","B","39.365769","-120.8978","USFS","CA","Nevada","06057","Nevada County"
