"ï»¿X","Y","OBJECTID","FOD_ID","FPA_ID","SOURCE_SYSTEM_TYPE","SOURCE_SYSTEM","NWCG_REPORTING_AGENCY","NWCG_REPORTING_UNIT_ID","NWCG_REPORTING_UNIT_NAME","SOURCE_REPORTING_UNIT","SOURCE_REPORTING_UNIT_NAME","LOCAL_FIRE_REPORT_ID","LOCAL_INCIDENT_ID","FIRE_CODE","FIRE_NAME","ICS_209_PLUS_INCIDENT_JOIN_ID","ICS_209_PLUS_COMPLEX_JOIN_ID","MTBS_ID","MTBS_FIRE_NAME","COMPLEX_NAME","FIRE_YEAR","DISCOVERY_DATE","DISCOVERY_DOY","DISCOVERY_TIME","NWCG_CAUSE_CLASSIFICATION","NWCG_GENERAL_CAUSE","NWCG_CAUSE_AGE_CATEGORY","CONT_DATE","CONT_DOY","CONT_TIME","FIRE_SIZE","FIRE_SIZE_CLASS","LATITUDE","LONGITUDE","OWNER_DESCR","STATE","COUNTY","FIPS_CODE","FIPS_NAME"
"-111.461655623","35.289716821","1890001","400011113","FS-6834886","FED","FS-FIRESTAT","FS","USAZCOF","Coconino National Forest","0304","Coconino National Forest","118","074","EKV3","NICOTINE","","","","","","2017","2017/07/13 00:00:00+00","194","1134","Natural","Natural","","2017/07/13 00:00:00+00","194","1516","0.1","A","35.28972222","-111.46166667","USFS","AZ","005","04005","Coconino County"
"-111.094155755","34.603328002","1890002","400011114","FS-6847178","FED","FS-FIRESTAT","FS","USAZCOF","Coconino National Forest","0304","Coconino National Forest","175","43","EKV3","MIDDLE","","","","","","2017","2017/08/14 00:00:00+00","226","0955","Natural","Natural","","","","","50","C","34.60333333","-111.09416667","USFS","AZ","005","04005","Coconino County"
"-111.741377778","35.401105713","1890003","400011115","FS-6844732","FED","FS-FIRESTAT","FS","USAZCOF","Coconino National Forest","0304","Coconino National Forest","162","099","EKV3","LUCKY","","","","","","2017","2017/08/04 00:00:00+00","216","1430","Natural","Natural","","2017/08/04 00:00:00+00","216","1455","0.1","A","35.40111111","-111.74138889","USFS","AZ","005","04005","Coconino County"
"-111.205266834","34.711383554","1890004","400011116","FS-6821040","FED","FS-FIRESTAT","FS","USAZCOF","Coconino National Forest","0304","Coconino National Forest","136","31","EKV3","HAY","","","","","","2017","2017/07/20 00:00:00+00","201","1000","Natural","Natural","","","","","0.1","A","34.71138889","-111.20527778","USFS","AZ","005","04005","Coconino County"
"-111.430266785","34.756939111","1890005","400011117","FS-6828212","FED","FS-FIRESTAT","FS","USAZCOF","Coconino National Forest","0304","Coconino National Forest","127","30","EKV3","MULE","","","","","","2017","2017/07/17 00:00:00+00","198","0819","Natural","Natural","","","","","0.1","A","34.75694444","-111.43027778","USFS","AZ","005","04005","Coconino County"
"-111.535266772","34.669716908","1890006","400011118","FS-6821086","FED","FS-FIRESTAT","FS","USAZCOF","Coconino National Forest","0304","Coconino National Forest","158","39","EKV3","JOHNSON","","","","","","2017","2017/07/29 00:00:00+00","210","1016","Natural","Natural","","","","","0.1","A","34.66972222","-111.53527778","USFS","AZ","005","04005","Coconino County"
"-111.366655712","34.457772487","1890007","400011119","FS-6831382","FED","FS-FIRESTAT","FS","USAZCOF","Coconino National Forest","0304","Coconino National Forest","160","40","EKV3","RASPBERRY","","","","","","2017","2017/07/30 00:00:00+00","211","1633","Natural","Natural","","","","","0.1","A","34.45777778","-111.36666667","USFS","AZ","005","04005","Coconino County"
"-111.366655711","34.475828035","1890008","400011120","FS-6821015","FED","FS-FIRESTAT","FS","USAZCOF","Coconino National Forest","0304","Coconino National Forest","161","41","EKV3","CLOVER","","","","","","2017","2017/08/03 00:00:00+00","215","1000","Natural","Natural","","","","","0.01","A","34.47583333","-111.36666667","USFS","AZ","005","04005","Coconino County"
"-111.631933359","35.294161281","1890009","400011121","FS-6834942","FED","FS-FIRESTAT","FS","USAZCOF","Coconino National Forest","0304","Coconino National Forest","144","091","EKV3","WEATHERFORD","","","","","","2017","2017/07/23 00:00:00+00","204","1600","Natural","Natural","","2017/07/27 00:00:00+00","208","1100","0.1","A","35.29416667","-111.63194444","USFS","AZ","005","04005","Coconino County"
"-111.542766724","35.213050176","1890010","400011122","FS-6833238","FED","FS-FIRESTAT","FS","USAZCOF","Coconino National Forest","0304","Coconino National Forest","151","095","EKV3","TOAD","","","","","","2017","2017/07/27 00:00:00+00","208","1600","Natural","Natural","","2017/07/28 00:00:00+00","209","1300","0.1","A","35.21305556","-111.54277778","USFS","AZ","005","04005","Coconino County"
"-111.454711164","35.407216805","1890011","400011123","FS-6833257","FED","FS-FIRESTAT","FS","USAZCOF","Coconino National Forest","0304","Coconino National Forest","134","086","3KV3","BLACK MOUNTAIN","","","","","","2017","2017/07/19 00:00:00+00","200","1800","Natural","Natural","","2017/07/24 00:00:00+00","205","1400","0.1","A","35.40722222","-111.45472222","USFS","AZ","005","04005","Coconino County"
"-111.509155609","35.351661266","1890012","400011124","FS-6844722","FED","FS-FIRESTAT","FS","USAZCOF","Coconino National Forest","0304","Coconino National Forest","152","096","EKV3","UNICORN","","","","","","2017","2017/07/27 00:00:00+00","208","1804","Natural","Natural","","","","","0.1","A","35.35166667","-111.50916667","USFS","AZ","005","04005","Coconino County"
"-111.405544519","35.34943903","1890013","400011125","FS-6844778","FED","FS-FIRESTAT","FS","USAZCOF","Coconino National Forest","0304","Coconino National Forest","168","104","EKV3","POTATO","","","","","","2017","2017/08/08 00:00:00+00","220","1757","Natural","Natural","","2017/08/08 00:00:00+00","220","2330","1.5","B","35.34944444","-111.40555556","USFS","AZ","005","04005","Coconino County"
"-111.592488927","35.296383498","1890014","400011126","FS-6831290","FED","FS-FIRESTAT","FS","USAZCOF","Coconino National Forest","0304","Coconino National Forest","150","094","EKV3","DEER HILL","","","","","","2017","2017/07/27 00:00:00+00","208","1518","Natural","Natural","","","","","0.1","A","35.29638889","-111.5925","USFS","AZ","005","04005","Coconino County"
"-111.806655599","34.776661359","1890015","400011127","FS-6847052","FED","FS-FIRESTAT","FS","USAZCOF","Coconino National Forest","0304","Coconino National Forest","148","35","EKV3","CLARE","","","","","","2017","2017/07/23 00:00:00+00","204","1915","Natural","Natural","","","","","0.1","A","34.77666667","-111.80666667","USFS","AZ","005","04005","Coconino County"
"-111.658044472","35.31166128","1890016","400011128","FS-6845568","FED","FS-FIRESTAT","FS","USAZCOF","Coconino National Forest","0304","Coconino National Forest","164","100","EKV3","MEADOW","","","","","","2017","2017/08/05 00:00:00+00","217","1000","Natural","Natural","","2017/08/18 00:00:00+00","230","1300","0.1","A","35.31166667","-111.65805556","USFS","AZ","005","04005","Coconino County"
"-111.583044531","34.801383563","1890017","400011129","FS-6850702","FED","FS-FIRESTAT","FS","USAZCOF","Coconino National Forest","0304","Coconino National Forest","135","87","EKV3","HILLS","","","","","","2017","2017/07/20 00:00:00+00","201","1000","Natural","Natural","","","","","0.1","A","34.80138889","-111.58305556","USFS","AZ","005","04005","Coconino County"
"-111.68276672","34.936383551","1890018","400011130","FS-6850737","FED","FS-FIRESTAT","FS","USAZCOF","Coconino National Forest","0304","Coconino National Forest","129","81","EKV3","DILL","","","","","","2017","2017/07/18 00:00:00+00","199","2047","Natural","Natural","","","","","0.01","A","34.93638889","-111.68277778","USFS","AZ","005","04005","Coconino County"
"-111.629433391","34.928050219","1890019","400011131","FS-6850696","FED","FS-FIRESTAT","FS","USAZCOF","Coconino National Forest","0304","Coconino National Forest","132","84","EKV3","NUTMEG","","","","","","2017","2017/07/19 00:00:00+00","200","1030","Natural","Natural","","","","","0.1","A","34.92805556","-111.62944444","USFS","AZ","005","04005","Coconino County"
"-111.8163778","34.979161333","1890020","400011132","FS-6850704","FED","FS-FIRESTAT","FS","USAZCOF","Coconino National Forest","0304","Coconino National Forest","140","89","KKV3","FERN","","","","","","2017","2017/07/22 00:00:00+00","203","1153","Natural","Natural","","","","","0.1","A","34.97916667","-111.81638889","USFS","AZ","005","04005","Coconino County"
"-111.821933345","35.027494657","1890021","400011133","FS-6850708","FED","FS-FIRESTAT","FS","USAZCOF","Coconino National Forest","0304","Coconino National Forest","141","90","EKV3","PAD","","","","","","2017","2017/07/22 00:00:00+00","203","1325","Natural","Natural","","","","","0.1","A","35.0275","-111.82194444","USFS","AZ","005","04005","Coconino County"
"-111.903877782","34.985550227","1890022","400011134","FS-6850713","FED","FS-FIRESTAT","FS","USAZCOF","Coconino National Forest","0304","Coconino National Forest","145","92","EKV3","CABIN","","","","","","2017","2017/07/23 00:00:00+00","204","1850","Natural","Natural","","","","","0.1","A","34.98555556","-111.90388889","USFS","AZ","005","04005","Coconino County"
"-111.677766717","34.982772435","1890023","400011135","FS-6850686","FED","FS-FIRESTAT","FS","USAZCOF","Coconino National Forest","0304","Coconino National Forest","156","98","EKV3","ROCK","","","","","","2017","2017/07/28 00:00:00+00","209","1829","Natural","Natural","","","","","0.1","A","34.98277778","-111.67777778","USFS","AZ","005","04005","Coconino County"
"-111.62554452","34.837772451","1890024","400011136","FS-6850669","FED","FS-FIRESTAT","FS","USAZCOF","Coconino National Forest","0304","Coconino National Forest","195","123","EKV3","DUTCH","","","","","","2017","2017/09/04 00:00:00+00","247","2121","Natural","Natural","","","","","1.5","B","34.83777778","-111.62555556","USFS","AZ","005","04005","Coconino County"
"-111.544711173","35.103883521","1890025","400011137","FS-6850666","FED","FS-FIRESTAT","FS","USAZCOF","Coconino National Forest","0304","Coconino National Forest","186","118","EKV3","BEE","","","","","","2017","2017/08/23 00:00:00+00","235","1700","Natural","Natural","","","","","0.01","A","35.10388889","-111.54472222","USFS","AZ","005","04005","Coconino County"
"-111.692766715","34.966939098","1890026","400011138","FS-6850657","FED","FS-FIRESTAT","FS","USAZCOF","Coconino National Forest","0304","Coconino National Forest","226","148","KRT3","TRANSFER","","","","","","2017","2017/09/29 00:00:00+00","272","1751","Human","Recreation and ceremony","","","","","0.1","A","34.96694444","-111.69277778","USFS","AZ","005","04005","Coconino County"
"-111.616377829","35.096661306","1890027","400011139","FS-6850685","FED","FS-FIRESTAT","FS","USAZCOF","Coconino National Forest","0304","Coconino National Forest","149","93","EKV3","HOWARD","","","","","","2017","2017/07/24 00:00:00+00","205","1500","Natural","Natural","","","","","0.1","A","35.09666667","-111.61638889","USFS","AZ","005","04005","Coconino County"
"-111.614988943","35.053605752","1890028","400011140","FS-6850671","FED","FS-FIRESTAT","FS","USAZCOF","Coconino National Forest","0304","Coconino National Forest","223","145","EKV3","KONG","","","","","","2017","2017/09/28 00:00:00+00","271","1805","Natural","Natural","","","","","0.5","B","35.05361111","-111.615","USFS","AZ","005","04005","Coconino County"
"-111.521377847","35.110550189","1890029","400011141","FS-6850661","FED","FS-FIRESTAT","FS","USAZCOF","Coconino National Forest","0304","Coconino National Forest","216","138","EKV3","BEE","","","","","","2017","2017/09/27 00:00:00+00","270","1500","Natural","Natural","","","","","0.1","A","35.11055556","-111.52138889","USFS","AZ","005","04005","Coconino County"
"-111.307211262","34.608883574","1890030","400011142","FS-6852327","FED","FS-FIRESTAT","FS","USAZCOF","Coconino National Forest","0304","Coconino National Forest","266","52","LEM4","SNOW","","","","","","2017","2017/12/12 00:00:00+00","346","1700","Human","Recreation and ceremony","","","","","3.5","B","34.60888889","-111.30722222","USFS","AZ","005","04005","Coconino County"
"-111.451655626","35.285827931","1890031","400011143","FS-6831087","FED","FS-FIRESTAT","FS","USAZCOF","Coconino National Forest","0304","Coconino National Forest","014","012","KRT3","ROCKET","","","","","","2017","2017/04/30 00:00:00+00","120","0955","Human","Recreation and ceremony","","2017/04/30 00:00:00+00","120","1300","0.1","A","35.28583333","-111.45166667","USFS","AZ","005","04005","Coconino County"
"-111.661933368","35.123050195","1890032","400011144","FS-6808363","FED","FS-FIRESTAT","FS","USAZCOF","Coconino National Forest","0304","Coconino National Forest","011","09","KZ0Q","SIERRA","","","","","","2017","2017/04/24 00:00:00+00","114","1716","Human","Recreation and ceremony","","","","","0.1","A","35.12305556","-111.66194444","USFS","AZ","005","04005","Coconino County"
"-111.703600004","35.418883489","1890033","400011145","FS-6834957","FED","FS-FIRESTAT","FS","USAZCOF","Coconino National Forest","0304","Coconino National Forest","006","004","KRT3","WASH","","","","","","2017","2017/04/04 00:00:00+00","94","1700","Human","Recreation and ceremony","","2017/04/04 00:00:00+00","94","1900","0.1","A","35.41888889","-111.70361111","USFS","AZ","005","04005","Coconino County"
"-111.511100049","35.340827927","1890034","400011146","FS-6834120","FED","FS-FIRESTAT","FS","USAZCOF","Coconino National Forest","0304","Coconino National Forest","013","011","KRT3","CINDER","","","","","","2017","2017/04/26 00:00:00+00","116","1400","Human","Recreation and ceremony","","2017/04/30 00:00:00+00","120","0800","4.3","B","35.34083333","-111.51111111","USFS","AZ","005","04005","Coconino County"
"-111.52610005","35.296939044","1890035","400011147","FS-6786597","FED","FS-FIRESTAT","FS","USAZCOF","Coconino National Forest","0304","Coconino National Forest","015","013","KRT3","PIT","","","","","","2017","2017/05/03 00:00:00+00","123","1140","Human","Recreation and ceremony","","2017/05/03 00:00:00+00","123","1415","0.1","A","35.29694444","-111.52611111","USFS","AZ","005","04005","Coconino County"
"-111.458322285","35.280827932","1890036","400011148","FS-6830514","FED","FS-FIRESTAT","FS","USAZCOF","Coconino National Forest","0304","Coconino National Forest","010","008","KRT3","O'NEIL","","","","","","2017","2017/04/23 00:00:00+00","113","1613","Human","Recreation and ceremony","","","","","1","B","35.28083333","-111.45833333","USFS","AZ","005","04005","Coconino County"
"-111.599433382","35.110272413","1890037","400011149","FS-6808096","FED","FS-FIRESTAT","FS","USAZCOF","Coconino National Forest","0304","Coconino National Forest","018","15","KRT3","SOLO","","","","","","2017","2017/05/06 00:00:00+00","126","1135","Human","Recreation and ceremony","","","","","0.1","A","35.11027778","-111.59944444","USFS","AZ","005","04005","Coconino County"
"-111.454711233","34.598605803","1890038","400011150","FS-6831398","FED","FS-FIRESTAT","FS","USAZCOF","Coconino National Forest","0304","Coconino National Forest","024","1","K0VG","SNAKE RIDGE","2017_7241588_SNAKE RIDGE","","AZ3460211145720170519","SNAKE RIDGE","","2017","2017/05/19 00:00:00+00","139","1702","Natural","Natural","","","","","15333","G","34.59861111","-111.45472222","USFS","AZ","005","04005","Coconino County"
"-111.472766731","35.288050162","1890039","400011151","FS-6786890","FED","FS-FIRESTAT","FS","USAZCOF","Coconino National Forest","0304","Coconino National Forest","030","022","KRT3","SHOTGUN","","","","","","2017","2017/05/22 00:00:00+00","142","1212","Human","Missing data/not specified/undetermined","","2017/05/22 00:00:00+00","142","1430","0.1","A","35.28805556","-111.47277778","USFS","AZ","005","04005","Coconino County"
"-111.465544514","35.270827934","1890040","400011152","FS-6831111","FED","FS-FIRESTAT","FS","USAZCOF","Coconino National Forest","0304","Coconino National Forest","047","034","KRT3","RANCH","","","","","","2017","2017/06/02 00:00:00+00","153","1001","Human","Arson/incendiarism","","2017/06/02 00:00:00+00","153","1330","0.1","A","35.27083333","-111.46555556","USFS","AZ","005","04005","Coconino County"
"-111.733044468","35.188883521","1890041","400011153","FS-6834960","FED","FS-FIRESTAT","FS","USAZCOF","Coconino National Forest","0304","Coconino National Forest","023","019","KRT3","NIGHT","","","","","","2017","2017/05/18 00:00:00+00","138","1400","Human","Recreation and ceremony","","2017/05/18 00:00:00+00","138","1600","0.1","A","35.18888889","-111.73305556","USFS","AZ","005","04005","Coconino County"
"-111.708877818","35.021383541","1890042","400011154","FS-6808344","FED","FS-FIRESTAT","FS","USAZCOF","Coconino National Forest","0304","Coconino National Forest","021","18","KRT3","COOKSTOVE","","","","","","2017","2017/05/14 00:00:00+00","134","1427","Human","Missing data/not specified/undetermined","","","","","0.75","B","35.02138889","-111.70888889","USFS","AZ","005","04005","Coconino County"
"-111.611655584","35.398050156","1890043","400011155","FS-6847030","FED","FS-FIRESTAT","FS","USAZCOF","Coconino National Forest","0304","Coconino National Forest","007","005","KRT3","CAR","","","","","","2017","2017/04/11 00:00:00+00","101","1831","Human","Equipment and vehicle use","","2017/04/11 00:00:00+00","101","2030","0.1","A","35.39805556","-111.61166667","USFS","AZ","005","04005","Coconino County"
"-111.658322256","35.15777241","1890044","400011156","FS-6808121","FED","FS-FIRESTAT","FS","USAZCOF","Coconino National Forest","0304","Coconino National Forest","020","17","KRT3","MOUNTAIN","","","","","","2017","2017/05/12 00:00:00+00","132","1657","Human","Missing data/not specified/undetermined","","","","","0.1","A","35.15777778","-111.65833333","USFS","AZ","005","04005","Coconino County"
"-111.438322269","35.507772351","1890045","400011157","FS-6846963","FED","FS-FIRESTAT","FS","USAZCOF","Coconino National Forest","0304","Coconino National Forest","044","032","EKV3","NO WHERE","","","","","","2017","2017/06/01 00:00:00+00","152","1441","Natural","Natural","","2017/06/01 00:00:00+00","152","1741","0.1","A","35.50777778","-111.43833333","USFS","AZ","005","04005","Coconino County"
"-111.402211192","35.213327938","1890046","400011158","FS-6847048","FED","FS-FIRESTAT","FS","USAZCOF","Coconino National Forest","0304","Coconino National Forest","271","186","LEM4","WINONA","","","","","","2017","2017/12/19 00:00:00+00","353","1617","Human","Missing data/not specified/undetermined","","2017/12/19 00:00:00+00","353","1656","0.25","A","35.21333333","-111.40222222","USFS","AZ","005","04005","Coconino County"
"-111.542211174","35.100550191","1890047","400011159","FS-6790997","FED","FS-FIRESTAT","FS","USAZCOF","Coconino National Forest","0304","Coconino National Forest","040","29","KRT3","SKUNK","","","","","","2017","2017/05/31 00:00:00+00","151","1400","Human","Recreation and ceremony","","","","","0.1","A","35.10055556","-111.54222222","USFS","AZ","005","04005","Coconino County"
"-111.658877826","35.035272427","1890048","400011160","FS-6790989","FED","FS-FIRESTAT","FS","USAZCOF","Coconino National Forest","0304","Coconino National Forest","026","20","KRT3","DUFF","","","","","","2017","2017/05/20 00:00:00+00","140","1600","Human","Recreation and ceremony","","","","","0.1","A","35.03527778","-111.65888889","USFS","AZ","005","04005","Coconino County"
"-111.676933365","35.124439076","1890049","400011161","FS-6807961","FED","FS-FIRESTAT","FS","USAZCOF","Coconino National Forest","0304","Coconino National Forest","053","39","KRT3","RUNWAY","","","","","","2017","2017/06/05 00:00:00+00","156","1855","Human","Recreation and ceremony","","","","","0.1","A","35.12444444","-111.67694444","USFS","AZ","005","04005","Coconino County"
"-111.694711124","35.32721683","1890050","400011162","FS-6847041","FED","FS-FIRESTAT","FS","USAZCOF","Coconino National Forest","0304","Coconino National Forest","269","184","LEM4","WATERFALL","","","","","","2017","2017/12/12 00:00:00+00","346","1523","Human","Smoking","","2017/12/12 00:00:00+00","346","1555","0.1","A","35.32722222","-111.69472222","USFS","AZ","005","04005","Coconino County"
"-111.48193339","35.287494603","1890051","400011163","FS-6786610","FED","FS-FIRESTAT","FS","USAZCOF","Coconino National Forest","0304","Coconino National Forest","019","016","KRT3","STUMP","","","","","","2017","2017/05/11 00:00:00+00","131","1752","Human","Recreation and ceremony","","2017/05/11 00:00:00+00","131","2005","0.1","A","35.2875","-111.48194444","USFS","AZ","005","04005","Coconino County"
"-111.404433467","34.552772477","1890052","400011164","FS-6828198","FED","FS-FIRESTAT","FS","USAZCOF","Coconino National Forest","0304","Coconino National Forest","073","011","K2Z2","MAXWELL","","","","","","2017","2017/06/25 00:00:00+00","176","1002","Natural","Natural","","","","","0.5","B","34.55277778","-111.40444444","USFS","AZ","005","04005","Coconino County"
"-111.509988939","35.343050157","1890053","400011165","FS-6808172","FED","FS-FIRESTAT","FS","USAZCOF","Coconino National Forest","0304","Coconino National Forest","049","36","KRT3","BED SPRING","","","","","","2017","2017/06/02 00:00:00+00","153","1130","Human","Recreation and ceremony","","","","","0.1","A","35.34305556","-111.51","USFS","AZ","005","04005","Coconino County"
"-111.570822293","34.928605766","1890054","400011166","FS-6808206","FED","FS-FIRESTAT","FS","USAZCOF","Coconino National Forest","0304","Coconino National Forest","058","42","KRT3","SILVER BACK","","","","","","2017","2017/06/11 00:00:00+00","162","1716","Human","Recreation and ceremony","","","","","0.1","A","34.92861111","-111.57083333","USFS","AZ","005","04005","Coconino County"
"-111.835544503","34.538328053","1890055","400011167","FS-6842404","FED","FS-FIRESTAT","FS","USAZCOF","Coconino National Forest","0304","Coconino National Forest","253","30","LGUB","CAMP VERDE","","","","","","2017","2017/10/28 00:00:00+00","301","1500","Human","Misuse of fire by a minor","Minor","","","","10.5","C","34.53833333","-111.83555556","USFS","AZ","025","04025","Yavapai County"
"-111.692211175","34.739161358","1890056","400011168","FS-6842411","FED","FS-FIRESTAT","FS","USAZCOF","Coconino National Forest","0304","Coconino National Forest","255","31","LEM4","304","","","","","","2017","2017/11/06 00:00:00+00","310","1300","Human","Missing data/not specified/undetermined","","","","","0.25","A","34.73916667","-111.69222222","USFS","AZ","025","04025","Yavapai County"
"-111.722488951","34.717216913","1890057","400011169","FS-6842408","FED","FS-FIRESTAT","FS","USAZCOF","Coconino National Forest","0304","Coconino National Forest","257","32","LEM4","WATERMELON","","","","","","2017","2017/11/11 00:00:00+00","315","1300","Human","Missing data/not specified/undetermined","","","","","0.25","A","34.71722222","-111.7225","USFS","AZ","025","04025","Yavapai County"
"-111.289711232","35.00305019","1890058","400011170","FS-6846941","FED","FS-FIRESTAT","FS","USAZCOF","Coconino National Forest","0304","Coconino National Forest","077","055","EKV3","BASIL","","","","","","2017","2017/06/25 00:00:00+00","176","1828","Natural","Natural","","2017/06/25 00:00:00+00","176","2030","0.1","A","35.00305556","-111.28972222","USFS","AZ","005","04005","Coconino County"
"-111.549711137","35.504161248","1890059","400011171","FS-6835504","FED","FS-FIRESTAT","FS","USAZCOF","Coconino National Forest","0304","Coconino National Forest","063","046","KRT3","TUBE","","","","","","2017","2017/06/18 00:00:00+00","169","1342","Human","Missing data/not specified/undetermined","","2017/06/18 00:00:00+00","169","1430","0.1","A","35.50416667","-111.54972222","USFS","AZ","005","04005","Coconino County"
"-111.667766683","35.399716819","1890060","400011172","FS-6830477","FED","FS-FIRESTAT","FS","USAZCOF","Coconino National Forest","0304","Coconino National Forest","050","037","KRT3","REESE","","","","","","2017","2017/06/03 00:00:00+00","154","1102","Human","Recreation and ceremony","","2017/06/03 00:00:00+00","154","1230","0.1","A","35.39972222","-111.66777778","USFS","AZ","005","04005","Coconino County"
"-111.690822241","35.25221684","1890061","400011173","FS-6830499","FED","FS-FIRESTAT","FS","USAZCOF","Coconino National Forest","0304","Coconino National Forest","061","045","KRT3","180","","","","","","2017","2017/06/16 00:00:00+00","167","1423","Human","Recreation and ceremony","","2017/06/16 00:00:00+00","167","1720","0.75","B","35.25222222","-111.69083333","USFS","AZ","005","04005","Coconino County"
"-111.544155608","35.276383498","1890062","400011174","FS-6831122","FED","FS-FIRESTAT","FS","USAZCOF","Coconino National Forest","0304","Coconino National Forest","054","040","KRT3","CAVE","","","","","","2017","2017/06/07 00:00:00+00","158","1227","Human","Equipment and vehicle use","","2017/06/07 00:00:00+00","158","1250","0.1","A","35.27638889","-111.54416667","USFS","AZ","005","04005","Coconino County"
"-111.318600164","34.428328039","1890063","400011175","FS-6847195","FED","FS-FIRESTAT","FS","USAZCOF","Coconino National Forest","0304","Coconino National Forest","238","051","LFM1","SCOUT","","","","","","2017","2017/10/15 00:00:00+00","288","1035","Human","Recreation and ceremony","","","","","1","B","34.42833333","-111.31861111","USFS","AZ","005","04005","Coconino County"
"-111.672766692","35.285272394","1890064","400011176","FS-6833262","FED","FS-FIRESTAT","FS","USAZCOF","Coconino National Forest","0304","Coconino National Forest","064","047","K2F2","FREIDLEIN","","","","","","2017","2017/06/19 00:00:00+00","170","0905","Human","Recreation and ceremony","","2017/06/19 00:00:00+00","170","1630","1.1","B","35.28527778","-111.67277778","USFS","AZ","005","04005","Coconino County"
"-111.350266823","34.494161372","1890065","400011177","FS-6821079","FED","FS-FIRESTAT","FS","USAZCOF","Coconino National Forest","0304","Coconino National Forest","104","23","EKV3","HUFFER","","","","","","2017","2017/07/09 00:00:00+00","190","1929","Natural","Natural","","","","","0.25","A","34.49416667","-111.35027778","USFS","AZ","005","04005","Coconino County"
"-111.418600147","34.397216939","1890066","400011178","FS-6831401","FED","FS-FIRESTAT","FS","USAZCOF","Coconino National Forest","0304","Coconino National Forest","099","21","EKV3","THUMB","","","","","","2017","2017/07/08 00:00:00+00","189","1851","Natural","Natural","","","","","0.1","A","34.39722222","-111.41861111","USFS","AZ","005","04005","Coconino County"
"-111.644711155","35.082494639","1890067","400011179","FS-6834066","FED","FS-FIRESTAT","FS","USAZCOF","Coconino National Forest","0304","Coconino National Forest","174","110","EKV3","LUPINE","","","","","","2017","2017/08/14 00:00:00+00","226","1000","Natural","Natural","","2017/08/16 00:00:00+00","228","1200","0.1","A","35.0825","-111.64472222","USFS","AZ","005","04005","Coconino County"
"-111.418044597","34.397494718","1890068","400011180","FS-6828203","FED","FS-FIRESTAT","FS","USAZCOF","Coconino National Forest","0304","Coconino National Forest","110","26","K45Y","MILK","","","","","","2017","2017/07/10 00:00:00+00","191","1643","Natural","Natural","","","","","3","B","34.3975","-111.41805556","USFS","AZ","005","04005","Coconino County"
"-111.246655719","34.668605782","1890069","400011181","FS-6846889","FED","FS-FIRESTAT","FS","USAZCOF","Coconino National Forest","0304","Coconino National Forest","111","27","EKV3","BOULDER","","","","","","2017","2017/07/11 00:00:00+00","192","1355","Natural","Natural","","","","","0.1","A","34.66861111","-111.24666667","USFS","AZ","005","04005","Coconino County"
"-111.161933519","34.511661359","1890070","400011182","FS-6847170","FED","FS-FIRESTAT","FS","USAZCOF","Coconino National Forest","0304","Coconino National Forest","115","28","EKV3","SNAG","","","","","","2017","2017/07/12 00:00:00+00","193","0956","Natural","Natural","","","","","0.1","A","34.51166667","-111.16194444","USFS","AZ","005","04005","Coconino County"
"-111.804155557","35.267216844","1890071","400011183","FS-6834003","FED","FS-FIRESTAT","FS","USAZCOF","Coconino National Forest","0304","Coconino National Forest","125","079","EKV3","WING","","","","","","2017","2017/07/16 00:00:00+00","197","1000","Natural","Natural","","2017/07/17 00:00:00+00","198","1300","0.1","A","35.26722222","-111.80416667","USFS","AZ","005","04005","Coconino County"
"-111.425822361","34.452494711","1890072","400011184","FS-6820996","FED","FS-FIRESTAT","FS","USAZCOF","Coconino National Forest","0304","Coconino National Forest","142","32","EKV3","CINCH HOOK","","","","","","2017","2017/07/23 00:00:00+00","204","1400","Natural","Natural","","","","","0.1","A","34.4525","-111.42583333","USFS","AZ","005","04005","Coconino County"
"-111.608877807","35.372772379","1890073","400011185","FS-6844761","FED","FS-FIRESTAT","FS","USAZCOF","Coconino National Forest","0304","Coconino National Forest","167","103","EKV3","BRAVE","","","","","","2017","2017/08/06 00:00:00+00","218","1632","Natural","Natural","","","","","0.1","A","35.37277778","-111.60888889","USFS","AZ","005","04005","Coconino County"
"-111.493322323","34.748883565","1890074","400011186","FS-6846905","FED","FS-FIRESTAT","FS","USAZCOF","Coconino National Forest","0304","Coconino National Forest","157","38","EKV3","CAMPBELL","","","","","","2017","2017/07/29 00:00:00+00","210","1010","Natural","Natural","","","","","0.1","A","34.74888889","-111.49333333","USFS","AZ","005","04005","Coconino County"
"-111.694155573","35.336939049","1890075","400011187","FS-6847712","FED","FS-FIRESTAT","FS","USAZCOF","Coconino National Forest","0304","Coconino National Forest","272","187","LEM4","CHRISTMAS","","","","","","2017","2017/12/26 00:00:00+00","360","1208","Human","Recreation and ceremony","","2017/12/26 00:00:00+00","360","1430","0.1","A","35.33694444","-111.69416667","USFS","AZ","005","04005","Coconino County"
"-111.938877761","35.148050208","1890076","400011188","FS-6850733","FED","FS-FIRESTAT","FS","USAZCOF","Coconino National Forest","0304","Coconino National Forest","128","80","EKV3","BULLFROG","","","","","","2017","2017/07/17 00:00:00+00","198","1037","Natural","Natural","","","","","0.1","A","35.14805556","-111.93888889","USFS","AZ","005","04005","Coconino County"
"-111.633877825","35.108605745","1890077","400011189","FS-6850744","FED","FS-FIRESTAT","FS","USAZCOF","Coconino National Forest","0304","Coconino National Forest","016","14","K0AG","PAPA","","","","","","2017","2017/05/04 00:00:00+00","124","1816","Natural","Natural","","","","","0.7","B","35.10861111","-111.63388889","USFS","AZ","005","04005","Coconino County"
"-111.715822246","35.139994636","1890078","400011190","FS-6850745","FED","FS-FIRESTAT","FS","USAZCOF","Coconino National Forest","0304","Coconino National Forest","080","57","K29Z","POWER","","","","","","2017","2017/06/27 00:00:00+00","178","1810","Human","Missing data/not specified/undetermined","","","","","3.1","B","35.14","-111.71583333","USFS","AZ","005","04005","Coconino County"
"-111.956655542","35.099716875","1890079","400011191","FS-6850757","FED","FS-FIRESTAT","FS","USAZCOF","Coconino National Forest","0304","Coconino National Forest","035","25","KRT3","POCKET","","","","","","2017","2017/05/29 00:00:00+00","149","1100","Human","Recreation and ceremony","","2017/05/31 00:00:00+00","151","1400","0.5","B","35.09972222","-111.95666667","USFS","AZ","005","04005","Coconino County"
"-111.758044474","35.063605759","1890080","400011192","FS-6850788","FED","FS-FIRESTAT","FS","USAZCOF","Coconino National Forest","0304","Coconino National Forest","108","67","EKV3","FRY","","","","","","2017","2017/07/10 00:00:00+00","191","1652","Natural","Natural","","","","","1.6","B","35.06361111","-111.75805556","USFS","AZ","005","04005","Coconino County"
"-111.648877838","34.914716882","1890081","400011193","FS-6850735","FED","FS-FIRESTAT","FS","USAZCOF","Coconino National Forest","0304","Coconino National Forest","114","69","EKV3","FENNEL","","","","","","2017","2017/07/12 00:00:00+00","193","1000","Natural","Natural","","","","","0.1","A","34.91472222","-111.64888889","USFS","AZ","005","04005","Coconino County"
"-111.613877847","34.900550222","1890082","400011194","FS-6850653","FED","FS-FIRESTAT","FS","USAZCOF","Coconino National Forest","0304","Coconino National Forest","230","152","EKV3","SIX","","","","","","2017","2017/10/08 00:00:00+00","281","2322","Natural","Natural","","","","","0.1","A","34.90055556","-111.61388889","USFS","AZ","005","04005","Coconino County"
"-111.899711115","34.960828","1890083","400011195","FS-6850719","FED","FS-FIRESTAT","FS","USAZCOF","Coconino National Forest","0304","Coconino National Forest","124","78","EKV3","SECRET","","","","","","2017","2017/07/14 00:00:00+00","195","1700","Natural","Natural","","","","","0.1","A","34.96083333","-111.89972222","USFS","AZ","025","04025","Yavapai County"
"-111.566933393","35.04832797","1890084","400011196","FS-6850649","FED","FS-FIRESTAT","FS","USAZCOF","Coconino National Forest","0304","Coconino National Forest","243","163","LEM4","BADGER","","","","","","2017","2017/10/18 00:00:00+00","291","1900","Human","Equipment and vehicle use","","","","","0.1","A","35.04833333","-111.56694444","USFS","AZ","005","04005","Coconino County"
"-111.733044487","34.973605769","1890085","400011197","FS-6850638","FED","FS-FIRESTAT","FS","USAZCOF","Coconino National Forest","0304","Coconino National Forest","256","174","LEM4","CRAZY","","","","","","2017","2017/11/11 00:00:00+00","315","1047","Human","Recreation and ceremony","","","","","1.07","B","34.97361111","-111.73305556","USFS","AZ","005","04005","Coconino County"
"-111.67526671","35.070550203","1890086","400011198","FS-6850709","FED","FS-FIRESTAT","FS","USAZCOF","Coconino National Forest","0304","Coconino National Forest","205","129","KRT3","MULLER","","","","","","2017","2017/09/18 00:00:00+00","261","1000","Human","Recreation and ceremony","","","","","0.1","A","35.07055556","-111.67527778","USFS","AZ","005","04005","Coconino County"
"-111.641655604","35.103327967","1890087","400011199","FS-6850761","FED","FS-FIRESTAT","FS","USAZCOF","Coconino National Forest","0304","Coconino National Forest","036","26","K07P","HONOR","","","","","","2017","2017/05/29 00:00:00+00","149","1428","Human","Recreation and ceremony","","","","","1.5","B","35.10333333","-111.64166667","USFS","AZ","005","04005","Coconino County"
"-111.593600068","34.936105766","1890088","400011200","FS-6850775","FED","FS-FIRESTAT","FS","USAZCOF","Coconino National Forest","0304","Coconino National Forest","037","27","KRT3","240","","","","","","2017","2017/05/29 00:00:00+00","149","2047","Human","Missing data/not specified/undetermined","","","","","0.1","A","34.93611111","-111.59361111","USFS","AZ","005","04005","Coconino County"
"-111.669711152","35.058883534","1890089","400011201","FS-6850762","FED","FS-FIRESTAT","FS","USAZCOF","Coconino National Forest","0304","Coconino National Forest","059","43","KRT3","SAGINAW","","","","","","2017","2017/06/13 00:00:00+00","164","1918","Human","Equipment and vehicle use","","","","","0.1","A","35.05888889","-111.66972222","USFS","AZ","005","04005","Coconino County"
"-111.399433426","35.054161299","1890090","400011202","FS-6850643","FED","FS-FIRESTAT","FS","USAZCOF","Coconino National Forest","0304","Coconino National Forest","247","167","LEM4","POWERLINE","","","","","","2017","2017/10/23 00:00:00+00","296","2056","Human","Missing data/not specified/undetermined","","","","","0.75","B","35.05416667","-111.39944444","USFS","AZ","005","04005","Coconino County"
"-111.684155598","35.067772424","1890091","400011203","FS-6850648","FED","FS-FIRESTAT","FS","USAZCOF","Coconino National Forest","0304","Coconino National Forest","233","154","LEM4","332","","","","","","2017","2017/10/13 00:00:00+00","286","1158","Human","Equipment and vehicle use","","","","","0.1","A","35.06777778","-111.68416667","USFS","AZ","005","04005","Coconino County"
"-111.755544468","35.139716858","1890092","400011204","FS-6850760","FED","FS-FIRESTAT","FS","USAZCOF","Coconino National Forest","0304","Coconino National Forest","078","56","KRT3","ROGERS","","","","","","2017","2017/06/26 00:00:00+00","177","1245","Human","Recreation and ceremony","","","","","0.25","A","35.13972222","-111.75555556","USFS","AZ","005","04005","Coconino County"
"-111.604711175","34.938605766","1890093","400011205","FS-6850635","FED","FS-FIRESTAT","FS","USAZCOF","Coconino National Forest","0304","Coconino National Forest","085","60","KRT3","PARK","","","","","","2017","2017/07/02 00:00:00+00","183","1721","Human","Recreation and ceremony","","","","","0.1","A","34.93861111","-111.60472222","USFS","AZ","005","04005","Coconino County"
"-111.829988907","34.981383554","1890094","400011206","FS-6850749","FED","FS-FIRESTAT","FS","USAZCOF","Coconino National Forest","0304","Coconino National Forest","060","44","K14G","EDGE","","","","","","2017","2017/06/13 00:00:00+00","164","2030","Human","Recreation and ceremony","","","","","1","B","34.98138889","-111.83","USFS","AZ","005","04005","Coconino County"
"-111.553044515","35.062216857","1890095","400011207","FS-6850678","FED","FS-FIRESTAT","FS","USAZCOF","Coconino National Forest","0304","Coconino National Forest","198","25","KRT3","ROCKWOOD","","","","","","2017","2017/09/05 00:00:00+00","248","1633","Human","Recreation and ceremony","","","","","0.25","A","35.06222222","-111.55305556","USFS","AZ","005","04005","Coconino County"
"-111.416377889","34.867772435","1890096","400011208","FS-6850644","FED","FS-FIRESTAT","FS","USAZCOF","Coconino National Forest","0304","Coconino National Forest","246","166","LEM4","MINT","","","","","","2017","2017/10/23 00:00:00+00","296","2009","Human","Recreation and ceremony","","","","","0.1","A","34.86777778","-111.41638889","USFS","AZ","005","04005","Coconino County"
"-111.4447112","35.025272416","1890097","400011209","FS-6850642","FED","FS-FIRESTAT","FS","USAZCOF","Coconino National Forest","0304","Coconino National Forest","254","173","LEM4","GRAVEL","","","","","","2017","2017/11/01 00:00:00+00","305","1636","Human","Recreation and ceremony","","","","","0.1","A","35.02527778","-111.44472222","USFS","AZ","005","04005","Coconino County"
"-111.67387782","35.073327972","1890098","400011210","FS-6850662","FED","FS-FIRESTAT","FS","USAZCOF","Coconino National Forest","0304","Coconino National Forest","196","124","KRT3","ORANGE","","","","","","2017","2017/09/04 00:00:00+00","247","2242","Human","Recreation and ceremony","","","","","0.1","A","35.07333333","-111.67388889","USFS","AZ","005","04005","Coconino County"
"-111.428600093","35.018050196","1890099","400011211","FS-6850654","FED","FS-FIRESTAT","FS","USAZCOF","Coconino National Forest","0304","Coconino National Forest","228","150","LEM4","ASHURST","","","","","","2017","2017/10/08 00:00:00+00","281","1723","Human","Recreation and ceremony","","","","","0.5","B","35.01805556","-111.42861111","USFS","AZ","005","04005","Coconino County"
"-111.481655659","34.828050224","1890100","400011212","FS-6850673","FED","FS-FIRESTAT","FS","USAZCOF","Coconino National Forest","0304","Coconino National Forest","227","149","LE6G","GASH","","","","","","2017","2017/10/07 00:00:00+00","280","2250","Human","Recreation and ceremony","","2017/10/07 00:00:00+00","280","2330","32.5","C","34.82805556","-111.48166667","USFS","AZ","005","04005","Coconino County"
"-111.484711206","34.854161331","1890101","400011213","FS-6850776","FED","FS-FIRESTAT","FS","USAZCOF","Coconino National Forest","0304","Coconino National Forest","100","63","EKV3","PEPPER","","","","","","2017","2017/07/08 00:00:00+00","189","1800","Natural","Natural","","2017/07/11 00:00:00+00","192","1900","0.1","A","34.85416667","-111.48472222","USFS","AZ","005","04005","Coconino County"
"-111.819988907","35.00666133","1890102","400011214","FS-6850750","FED","FS-FIRESTAT","FS","USAZCOF","Coconino National Forest","0304","Coconino National Forest","120","75","EKV3","COFFEE","","","","","","2017","2017/07/13 00:00:00+00","194","2007","Natural","Natural","","2017/07/13 00:00:00+00","194","2100","0.1","A","35.00666667","-111.82","USFS","AZ","005","04005","Coconino County"
"-111.743322278","34.692216917","1890103","400011215","FS-6851041","FED","FS-FIRESTAT","FS","USAZCOF","Coconino National Forest","0304","Coconino National Forest","267","33","EKV4","298","","","","","","2017","2017/12/07 00:00:00+00","341","1500","Human","Missing data/not specified/undetermined","","","","","0.3","B","34.69222222","-111.74333333","USFS","AZ","005","04005","Coconino County"
"-111.424433465","34.530828031","1890104","400011216","FS-6847060","FED","FS-FIRESTAT","FS","USAZCOF","Coconino National Forest","0304","Coconino National Forest","201","","KRT3","LOBSTER","","","","","","2017","2017/09/10 00:00:00+00","253","0957","Natural","Natural","","","","","0.1","A","34.53083333","-111.42444444","USFS","AZ","005","04005","Coconino County"
"-111.583044487","35.317772385","1890105","400011217","FS-6850672","FED","FS-FIRESTAT","FS","USAZCOF","Coconino National Forest","0304","Coconino National Forest","184","116","EKV3","DEER TRAIL","","","","","","2017","2017/08/21 00:00:00+00","233","2000","Natural","Natural","","","","","0.1","A","35.31777778","-111.58305556","USFS","AZ","005","04005","Coconino County"
"-110.692211584","31.853050601","1890106","400011218","FS-6850008","FED","FS-FIRESTAT","FS","USAZCNF","Coronado National Forest","0305","Coronado National Forest","082","","LAE8","DAVIDSON CANYON","","","","","","2017","2017/08/25 00:00:00+00","237","1400","Natural","Natural","","","","","0.08","A","31.85305556","-110.69222222","USFS","AZ","019","04019","Pima County"
"-111.17971151","31.477495118","1890107","400011219","FS-6850163","FED","FS-FIRESTAT","FS","USAZCNF","Coronado National Forest","0305","Coronado National Forest","088","","LJZ3","NOVIO","","","","","","2017","2017/12/15 00:00:00+00","349","1400","Human","Arson/incendiarism","","","","","3.5","B","31.4775","-111.17972222","USFS","AZ","023","04023","Santa Cruz County"
"-110.118878394","31.459995074","1890108","400011220","FS-6793443","FED","FS-FIRESTAT","FS","USAZCNF","Coronado National Forest","0305","Coronado National Forest","056","","EKV4","WRIGHTSTON","","","","","","2017","2017/07/02 00:00:00+00","183","1641","Natural","Natural","","","","","5","B","31.46","-110.11888889","USFS","AZ","023","04023","Santa Cruz County"
"-111.436655907","31.506384016","1890109","400011221","FS-6793797","FED","FS-FIRESTAT","FS","USAZCNF","Coronado National Forest","0305","Coronado National Forest","022","","K0S7","AARIETA","","","","","","2017","2017/05/17 00:00:00+00","137","1300","Human","Arson/incendiarism","","","","","114","D","31.50638889","-111.43666667","USFS","AZ","023","04023","Santa Cruz County"
"-111.063600431","31.345272913","1890110","400011222","FS-6793763","FED","FS-FIRESTAT","FS","USAZCNF","Coronado National Forest","0305","Coronado National Forest","021","","K0QQ","PENA","2017_7130931_PENA","","","","","2017","2017/05/05 00:00:00+00","125","1445","Human","Arson/incendiarism","","","","","400","E","31.34527778","-111.06361111","USFS","AZ","023","04023","Santa Cruz County"
"-111.333044818","31.507217341","1890111","400011223","FS-6798519","FED","FS-FIRESTAT","FS","USAZCNF","Coronado National Forest","0305","Coronado National Forest","049","","K22Y","FRAQUITA","2017_7283988_FRAGUITA","","AZ3150711133220170626","FRAGUITA","","2017","2017/06/25 00:00:00+00","176","1813","Natural","Natural","","","","","2400","F","31.50722222","-111.33305556","USFS","AZ","023","04023","Santa Cruz County"
"-111.42248924","31.505828455","1890112","400011224","FS-6798590","FED","FS-FIRESTAT","FS","USAZCNF","Coronado National Forest","0305","Coronado National Forest","058","","EKV4","LESNA","2017_7349669_LESNA PEAK","","","","","2017","2017/07/05 00:00:00+00","186","1600","Natural","Natural","","","","","6220","G","31.50583333","-111.4225","USFS","AZ","023","04023","Santa Cruz County"
"-111.016378218","31.381106235","1890113","400011225","FS-6798604","FED","FS-FIRESTAT","FS","USAZCNF","Coronado National Forest","0305","Coronado National Forest","059","","EKV4","ALAMO","","","","","","2017","2017/07/08 00:00:00+00","189","1320","Natural","Natural","","","","","20","C","31.38111111","-111.01638889","USFS","AZ","023","04023","Santa Cruz County"
"-110.724156025","31.892217257","1890114","400011226","FS-6799209","FED","FS-FIRESTAT","FS","USAZCNF","Coronado National Forest","0305","Coronado National Forest","072","","EKV4","FAGAN","","","","","","2017","2017/07/14 00:00:00+00","195","1500","Natural","Natural","","","","","157","D","31.89222222","-110.72416667","USFS","AZ","023","04023","Santa Cruz County"
"-110.799711572","31.69388396","1890115","400011227","FS-6799193","FED","FS-FIRESTAT","FS","USAZCNF","Coronado National Forest","0305","Coronado National Forest","062","","EKV4","GARDNER 3","","","","","","2017","2017/07/09 00:00:00+00","190","1300","Natural","Natural","","","","","5","B","31.69388889","-110.79972222","USFS","AZ","023","04023","Santa Cruz County"
"-111.138600411","31.425828454","1890116","400011228","FS-6843431","FED","FS-FIRESTAT","FS","USAZCNF","Coronado National Forest","0305","Coronado National Forest","087","","LHH0","WOOD","","","","","","2017","2017/11/19 00:00:00+00","323","1400","Human","Recreation and ceremony","","","","","0.05","A","31.42583333","-111.13861111","USFS","AZ","023","04023","Santa Cruz County"
"-109.322767428","31.770272772","1890117","400011229","FS-6798824","FED","FS-FIRESTAT","FS","USAZCNF","Coronado National Forest","0305","Coronado National Forest","034","","K1QQ","RUCKER","2017_7262571_RUCKER","","AZ3177010932320170607","RUCKER","","2017","2017/06/07 00:00:00+00","158","1156","Natural","Natural","","","","","1130","F","31.77027778","-109.32277778","USFS","AZ","003","04003","Cochise County"
"-109.292489645","31.911106079","1890118","400011230","FS-6799029","FED","FS-FIRESTAT","FS","USAZCNF","Coronado National Forest","0305","Coronado National Forest","051","","EKV4","RATTLESNAKE","","","","","","2017","2017/06/27 00:00:00+00","178","1556","Natural","Natural","","","","","1.3","B","31.91111111","-109.2925","USFS","AZ","003","04003","Cochise County"
"-109.427489637","31.589161694","1890119","400011231","FS-6799772","FED","FS-FIRESTAT","FS","USAZCNF","Coronado National Forest","0305","Coronado National Forest","046","","K2YK","SADDLE","2017_7162672_SADDLE","","AZ3158910942720170624","SADDLE","","2017","2017/06/24 00:00:00+00","175","1710","Natural","Natural","","","","","5132","G","31.58916667","-109.4275","USFS","AZ","003","04003","Cochise County"
"-110.337489452","31.594161734","1890120","400011232","FS-6812496","FED","FS-FIRESTAT","FS","USAZCNF","Coronado National Forest","0305","Coronado National Forest","081","","EKV4","MONITOR","","","","","","2017","2017/08/23 00:00:00+00","235","1300","Natural","Natural","","","","","11","C","31.59416667","-110.3375","OTHER FEDERAL","AZ","003","04003","Cochise County"
"-109.419711844","31.824994988","1890121","400011233","FS-6797614","FED","FS-FIRESTAT","FS","USAZCNF","Coronado National Forest","0305","Coronado National Forest","071","P3EKV4","EKV4","PRIDHAM","","","","","","2017","2017/07/13 00:00:00+00","194","1600","Natural","Natural","","","","","10.1","C","31.825","-109.41972222","USFS","AZ","003","04003","Cochise County"
"-110.621378239","32.307494972","1890122","400011234","FS-6818103","FED","FS-FIRESTAT","FS","USAZCNF","Coronado National Forest","0305","Coronado National Forest","024","","K000","RACETRACK 2","","","","","","2017","2017/05/24 00:00:00+00","144","1621","Human","Missing data/not specified/undetermined","","","","","13.5","C","32.3075","-110.62138889","USFS","AZ","019","04019","Pima County"
"-110.630544909","32.287494975","1890123","400011235","FS-6817980","FED","FS-FIRESTAT","FS","USAZCNF","Coronado National Forest","0305","Coronado National Forest","001","","KU1W","REDINGTON PASS","","","","","","2017","2017/01/07 00:00:00+00","7","1600","Human","Missing data/not specified/undetermined","","","","","60","C","32.2875","-110.63055556","USFS","AZ","019","04019","Pima County"
"-110.677489333","32.373883855","1890124","400011236","FS-6818090","FED","FS-FIRESTAT","FS","USAZCNF","Coronado National Forest","0305","Coronado National Forest","023","","K5XB","HITCHCOCK","","","","","","2017","2017/05/22 00:00:00+00","142","1530","Human","Recreation and ceremony","","","","","0.1","A","32.37388889","-110.6775","USFS","AZ","019","04019","Pima County"
"-110.772767089","32.448328288","1890125","400011237","FS-6818195","FED","FS-FIRESTAT","FS","USAZCNF","Coronado National Forest","0305","Coronado National Forest","077","","EKV4","SKI VALLEY","","","","","","2017","2017/07/30 00:00:00+00","211","1856","Natural","Natural","","","","","0.1","A","32.44833333","-110.77277778","USFS","AZ","019","04019","Pima County"
"-110.751100425","32.433883849","1890126","400011238","FS-6818192","FED","FS-FIRESTAT","FS","USAZCNF","Coronado National Forest","0305","Coronado National Forest","074","","EKV4","ALDER","","","","","","2017","2017/07/19 00:00:00+00","200","1842","Natural","Natural","","","","","0.1","A","32.43388889","-110.75111111","USFS","AZ","019","04019","Pima County"
"-110.701933767","32.399161632","1890127","400011239","FS-6818164","FED","FS-FIRESTAT","FS","USAZCNF","Coronado National Forest","0305","Coronado National Forest","061","","K3J1","ROSE","","","","","","2017","2017/07/09 00:00:00+00","190","1601","Natural","Natural","","","","","0.2","A","32.39916667","-110.70194444","USFS","AZ","019","04019","Pima County"
"-110.414433878","31.563606182","1890128","400011240","FS-6782174","FED","FS-FIRESTAT","FS","USAZCNF","Coronado National Forest","0305","Coronado National Forest","020","","K0BD","MAVERICK","","","","","","2017","2017/05/04 00:00:00+00","124","1237","Human","Equipment and vehicle use","","","","","1","B","31.56361111","-110.41444444","OTHER FEDERAL","AZ","003","04003","Cochise County"
"-110.378600558","31.517772857","1890129","400011241","FS-6779243","FED","FS-FIRESTAT","FS","USAZCNF","Coronado National Forest","0305","Coronado National Forest","006","","KW19","HUACHUCA PEAK","","","","","","2017","2017/03/11 00:00:00+00","70","1245","Human","Missing data/not specified/undetermined","","","","","1","B","31.51777778","-110.37861111","OTHER FEDERAL","AZ","003","04003","Cochise County"
"-110.446933879","31.430828423","1890130","400011242","FS-6790190","FED","FS-FIRESTAT","FS","USAZCNF","Coronado National Forest","0305","Coronado National Forest","026","","K054","PARKER","","","","","","2017","2017/05/28 00:00:00+00","148","1051","Human","Recreation and ceremony","","","","","9","B","31.43083333","-110.44694444","USFS","AZ","003","04003","Cochise County"
"-109.153600788","31.842494973","1890131","400011243","FS-6797640","FED","FS-FIRESTAT","FS","USAZCNF","Coronado National Forest","0305","Coronado National Forest","066","P3EKV4","EKV4","SULPHUR","","","","","","2017","2017/07/10 00:00:00+00","191","1230","Natural","Natural","","","","","5","B","31.8425","-109.15361111","USFS","AZ","003","04003","Cochise County"
"-110.228600598","31.360272874","1890132","400011244","FS-6812483","FED","FS-FIRESTAT","FS","USAZCNF","Coronado National Forest","0305","Coronado National Forest","076","","EKV4","THOMPSON","","","","","","2017","2017/07/28 00:00:00+00","209","1500","Natural","Natural","","","","","1","B","31.36027778","-110.22861111","USFS","AZ","003","04003","Cochise County"
"-110.33748946","31.458328414","1890133","400011245","FS-6794702","FED","FS-FIRESTAT","FS","USAZCNF","Coronado National Forest","0305","Coronado National Forest","057","","K3U5","TINKER","","","","","","2017","2017/07/02 00:00:00+00","183","1709","Natural","Natural","","","","","0.1","A","31.45833333","-110.3375","OTHER FEDERAL","AZ","003","04003","Cochise County"
"-110.34665613","31.426383979","1890134","400011246","FS-6793403","FED","FS-FIRESTAT","FS","USAZCNF","Coronado National Forest","0305","Coronado National Forest","047","","EKV4","RAMSEY","","","","","","2017","2017/06/25 00:00:00+00","176","1347","Natural","Natural","","","","","1.83","B","31.42638889","-110.34666667","USFS","AZ","003","04003","Cochise County"
"-110.283322801","31.448606193","1890135","400011247","FS-6779289","FED","FS-FIRESTAT","FS","USAZCNF","Coronado National Forest","0305","Coronado National Forest","018","","KY8L","199","","","","","","2017","2017/04/15 00:00:00+00","105","1930","Human","Missing data/not specified/undetermined","","","","","0.1","A","31.44861111","-110.28333333","USFS","AZ","003","04003","Cochise County"
"-110.349711672","31.540550632","1890136","400011248","FS-6818418","FED","FS-FIRESTAT","FS","USAZCNF","Coronado National Forest","0305","Coronado National Forest","084","","LC7M","ONE BRAVO","2017_7370343_ONE BRAVO","","","","","2017","2017/09/14 00:00:00+00","257","1700","Human","Equipment and vehicle use","","","","","370","E","31.54055556","-110.34972222","OTHER FEDERAL","AZ","003","04003","Cochise County"
"-110.236100578","31.667772828","1890137","400011249","FS-6779249","FED","FS-FIRESTAT","FS","USAZCNF","Coronado National Forest","0305","Coronado National Forest","017","","KY24","RANGE","2017_7202679_RANGE","","","","","2017","2017/04/12 00:00:00+00","102","1635","Human","Missing data/not specified/undetermined","","","","","799","E","31.66777778","-110.23611111","OTHER FEDERAL","AZ","003","04003","Cochise County"
"-110.661100503","31.490828423","1890138","400011250","FS-6779054","FED","FS-FIRESTAT","FS","USAZCNF","Coronado National Forest","0305","Coronado National Forest","004","03/01","KV7Y","SADDLE MOUNTAIN","","","","","","2017","2017/02/24 00:00:00+00","55","1530","Human","Recreation and ceremony","","","","","62.8","C","31.49083333","-110.66111111","USFS","AZ","023","04023","Santa Cruz County"
"-110.408600551","31.533328406","1890139","400011251","FS-6784422","FED","FS-FIRESTAT","FS","USAZCNF","Coronado National Forest","0305","Coronado National Forest","029","","K1BL","BLACKTAIL","","","","","","2017","2017/05/30 00:00:00+00","150","1636","Natural","Natural","","","","","0.1","A","31.53333333","-110.40861111","OTHER FEDERAL","AZ","003","04003","Cochise County"
"-110.74248938","31.435828435","1890140","400011252","FS-6784408","FED","FS-FIRESTAT","FS","USAZCNF","Coronado National Forest","0305","Coronado National Forest","033","","K001","BASIN SPRING","","","","","","2017","2017/05/24 00:00:00+00","144","1143","Human","Recreation and ceremony","","","","","0.1","A","31.43583333","-110.7425","USFS","AZ","023","04023","Santa Cruz County"
"-109.133600796","31.78693942","1890141","400011253","FS-6797631","FED","FS-FIRESTAT","FS","USAZCNF","Coronado National Forest","0305","Coronado National Forest","069","p3ekv4","EKV4","POTHOLE","","","","","","2017","2017/07/11 00:00:00+00","192","1300","Natural","Natural","","","","","5","B","31.78694444","-109.13361111","USFS","AZ","003","04003","Cochise County"
"-110.632489342","32.374161632","1890142","400011254","FS-6818137","FED","FS-FIRESTAT","FS","USAZCNF","Coronado National Forest","0305","Coronado National Forest","054","","K3J1","BURRO","2017_7376054_BURRO","","AZ3237411063220170630","BURRO","","2017","2017/06/30 00:00:00+00","181","1023","Natural","Natural","","","","","27259","G","32.37416667","-110.6325","USFS","AZ","019","04019","Pima County"
"-110.611933791","32.310828301","1890143","400011255","FS-6818219","FED","FS-FIRESTAT","FS","USAZCNF","Coronado National Forest","0305","Coronado National Forest","080","","K9X0","4434","","","","","","2017","2017/08/19 00:00:00+00","231","1609","Human","Missing data/not specified/undetermined","","","","","0.5","B","32.31083333","-110.61194444","USFS","AZ","019","04019","Pima County"
"-110.740544877","32.42666163","1890144","400011256","FS-6818081","FED","FS-FIRESTAT","FS","USAZCNF","Coronado National Forest","0305","Coronado National Forest","002","","KU1X","LOWER SYKES","","","","","","2017","2017/01/07 00:00:00+00","7","1741","Human","Recreation and ceremony","","","","","0.1","A","32.42666667","-110.74055556","USFS","AZ","019","04019","Pima County"
"-110.716933763","32.41499496","1890145","400011257","FS-6844037","FED","FS-FIRESTAT","FS","USAZCNF","Coronado National Forest","0305","Coronado National Forest","028","","LJN1","417","","","","","","2017","2017/06/02 00:00:00+00","153","1100","Human","Recreation and ceremony","","","","","0.1","A","32.415","-110.71694444","USFS","AZ","019","04019","Pima County"
"-110.754155984","32.42888385","1890146","400011258","FS-6818135","FED","FS-FIRESTAT","FS","USAZCNF","Coronado National Forest","0305","Coronado National Forest","052","","K3ER","610","","","","","","2017","2017/06/28 00:00:00+00","179","1713","Human","Recreation and ceremony","","","","","0.1","A","32.42888889","-110.75416667","USFS","AZ","019","04019","Pima County"
"-110.801100415","32.430550522","1890147","400011259","FS-6818073","FED","FS-FIRESTAT","FS","USAZCNF","Coronado National Forest","0305","Coronado National Forest","016","","KYM9","SHOVEL","","","","","","2017","2017/04/08 00:00:00+00","98","2031","Human","Missing data/not specified/undetermined","","","","","17","C","32.43055556","-110.80111111","USFS","AZ","019","04019","Pima County"
"-109.417211847","31.788883883","1890148","400011260","FS-6797661","FED","FS-FIRESTAT","FS","USAZCNF","Coronado National Forest","0305","Coronado National Forest","060","P3EKV4","EKV4","STANFORD","","","","","","2017","2017/07/09 00:00:00+00","190","1132","Natural","Natural","","","","","91","C","31.78888889","-109.41722222","USFS","AZ","003","04003","Cochise County"
"-110.448878309","31.752772825","1890149","400011261","FS-6814645","FED","FS-FIRESTAT","FS","USAZCNF","Coronado National Forest","0305","Coronado National Forest","079","","EKN4","849","","","","","","2017","2017/08/09 00:00:00+00","221","1435","Natural","Natural","","","","","2.3","B","31.75277778","-110.44888889","USFS","AZ","003","04003","Cochise County"
"-110.456933878","31.417495095","1890150","400011262","FS-6790247","FED","FS-FIRESTAT","FS","USAZCNF","Coronado National Forest","0305","Coronado National Forest","041","","EKV4","JONES","","","","","","2017","2017/06/08 00:00:00+00","159","1211","Natural","Natural","","","","","3","B","31.4175","-110.45694444","USFS","AZ","003","04003","Cochise County"
"-109.925545076","31.907217218","1890151","400011263","FS-6775553","FED","FS-FIRESTAT","FS","USAZCNF","Coronado National Forest","0305","Coronado National Forest","003","","KV1A","NOONAN","","","","","","2017","2017/02/12 00:00:00+00","43","1800","Natural","Natural","","","","","20","C","31.90722222","-109.92555556","USFS","AZ","003","04003","Cochise County"
"-110.754711524","32.584994938","1890152","400011264","FS-6818173","FED","FS-FIRESTAT","FS","USAZCNF","Coronado National Forest","0305","Coronado National Forest","068","","EKV4","712","","","","","","2017","2017/07/11 00:00:00+00","192","0924","Natural","Natural","","","","","1","B","32.585","-110.75472222","USFS","AZ","019","04019","Pima County"
"-110.788600464","31.707495067","1890153","400011265","FS-6781453","FED","FS-FIRESTAT","FS","USAZCNF","Coronado National Forest","0305","Coronado National Forest","010","","KXB3","GARDNER","","","","","","2017","2017/03/21 00:00:00+00","80","1435","Human","Missing data/not specified/undetermined","","","","","13.1","C","31.7075","-110.78861111","USFS","AZ","023","04023","Santa Cruz County"
"-110.61637824","32.308883861","1890154","400011266","FS-6818022","FED","FS-FIRESTAT","FS","USAZCNF","Coronado National Forest","0305","Coronado National Forest","007","","KW2A","RACE TRACK","","","","","","2017","2017/03/12 00:00:00+00","71","1600","Human","Missing data/not specified/undetermined","","","","","117","D","32.30888889","-110.61638889","USFS","AZ","019","04019","Pima County"
"-110.642211567","32.269161648","1890155","400011267","FS-6818035","FED","FS-FIRESTAT","FS","USAZCNF","Coronado National Forest","0305","Coronado National Forest","014","","KX2K","OLD TAYLOR","","","","","","2017","2017/03/31 00:00:00+00","90","2100","Human","Missing data/not specified/undetermined","","","","","18","C","32.26916667","-110.64222222","USFS","AZ","019","04019","Pima County"
"-110.440545","31.440550651","1890156","400011268","FS-6779269","FED","FS-FIRESTAT","FS","USAZCNF","Coronado National Forest","0305","Coronado National Forest","032","","KWN2","MERRITT","","","","","","2017","2017/03/04 00:00:00+00","63","1630","Human","Recreation and ceremony","","","","","13.5","C","31.44055556","-110.44055556","USFS","AZ","003","04003","Cochise County"
"-110.725267105","32.357494969","1890157","400011269","FS-6818244","FED","FS-FIRESTAT","FS","USAZCNF","Coronado National Forest","0305","Coronado National Forest","055","","K3QL","SEVEN CATARACTS","","","","","","2017","2017/07/01 00:00:00+00","182","1552","Human","Smoking","","","","","0.25","A","32.3575","-110.72527778","USFS","AZ","019","04019","Pima County"
"-110.641378238","32.269439418","1890158","400011270","FS-6818015","FED","FS-FIRESTAT","FS","USAZCNF","Coronado National Forest","0305","Coronado National Forest","005","","KWC6","MILEPOST 6","","","","","","2017","2017/03/01 00:00:00+00","60","2200","Human","Missing data/not specified/undetermined","","","","","14.5","C","32.26944444","-110.64138889","USFS","AZ","019","04019","Pima County"
"-110.404433868","31.761661712","1890159","400011271","FS-6784415","FED","FS-FIRESTAT","FS","USAZCNF","Coronado National Forest","0305","Coronado National Forest","027","","EKV4","MINE CANYON","","","","","","2017","2017/05/30 00:00:00+00","150","1649","Natural","Natural","","","","","3.5","B","31.76166667","-110.40444444","USFS","AZ","003","04003","Cochise County"
"-110.460267172","32.142217208","1890160","400011272","FS-6818131","FED","FS-FIRESTAT","FS","USAZCNF","Coronado National Forest","0305","Coronado National Forest","040","","K1RS","PAIGE CREEK","2017_7265559_PAIGE CREEK","","AZ3214211046020170608","PAIGE CREEK","","2017","2017/06/07 00:00:00+00","158","1915","Natural","Natural","","","","","1064","F","32.14222222","-110.46027778","USFS","AZ","019","04019","Pima County"
"-110.791100416","32.44138385","1890161","400011273","FS-6818263","FED","FS-FIRESTAT","FS","USAZCNF","Coronado National Forest","0305","Coronado National Forest","073","","EKV4","RADAR","","","","","","2017","2017/07/18 00:00:00+00","199","1700","Natural","Natural","","","","","0.1","A","32.44138889","-110.79111111","USFS","AZ","019","04019","Pima County"
"-110.753600426","32.401939404","1890162","400011274","FS-6818212","FED","FS-FIRESTAT","FS","USAZCNF","Coronado National Forest","0305","Coronado National Forest","078","","EKV4","BOX","","","","","","2017","2017/08/04 00:00:00+00","216","1030","Natural","Natural","","","","","0.1","A","32.40194444","-110.75361111","USFS","AZ","019","04019","Pima County"
"-110.747211532","32.479717173","1890163","400011275","FS-6818232","FED","FS-FIRESTAT","FS","USAZCNF","Coronado National Forest","0305","Coronado National Forest","083","","EKV4","DAN SADDLE","","","","","","2017","2017/08/26 00:00:00+00","238","0901","Natural","Natural","","","","","0.1","A","32.47972222","-110.74722222","USFS","AZ","019","04019","Pima County"
"-110.695267169","31.432772884","1890164","400011276","FS-6792960","FED","FS-FIRESTAT","FS","USAZCNF","Coronado National Forest","0305","Coronado National Forest","043","","K16A","FLYING R","2017_7140517_FLYING R","","AZ3143311069520170614","FLYING R","","2017","2017/06/14 00:00:00+00","165","1157","Human","Equipment and vehicle use","","","","","2270","F","31.43277778","-110.69527778","USFS","AZ","023","04023","Santa Cruz County"
"-110.696100435","32.448606065","1890165","400011277","FS-6818169","FED","FS-FIRESTAT","FS","USAZCNF","Coronado National Forest","0305","Coronado National Forest","065","","K3J1","BUTTERFLY","","","","","","2017","2017/07/10 00:00:00+00","191","1223","Natural","Natural","","","","","1","B","32.44861111","-110.69611111","USFS","AZ","019","04019","Pima County"
"-110.346100565","31.510550636","1890166","400011278","FS-6792776","FED","FS-FIRESTAT","FS","USAZCNF","Coronado National Forest","0305","Coronado National Forest","031","","K1M2","RANGE 10","","","","","","2017","2017/06/05 00:00:00+00","156","1112","Human","Missing data/not specified/undetermined","","","","","20","C","31.51055556","-110.34611111","OTHER FEDERAL","AZ","003","04003","Cochise County"
"-110.387767202","31.90332835","1890167","400011279","FS-6795451","FED","FS-FIRESTAT","FS","USAZCNF","Coronado National Forest","0305","Coronado National Forest","064","","EKV4","WHETSTONES","","","","","","2017","2017/07/09 00:00:00+00","190","1700","Natural","Natural","","","","","38","C","31.90333333","-110.38777778","USFS","AZ","003","04003","Cochise County"
"-110.71832271","31.503606204","1890168","400011280","FS-6790226","FED","FS-FIRESTAT","FS","USAZCNF","Coronado National Forest","0305","Coronado National Forest","037","","EKV4","RED MT","","","","","","2017","2017/06/07 00:00:00+00","158","1452","Natural","Natural","","","","","1","B","31.50361111","-110.71833333","USFS","AZ","023","04023","Santa Cruz County"
"-111.122767078","31.537495107","1890169","400011281","FS-6793054","FED","FS-FIRESTAT","FS","USAZCNF","Coronado National Forest","0305","Coronado National Forest","045","","K2Q0","LOBO","","","","","","2017","2017/06/21 00:00:00+00","172","1700","Natural","Natural","","","","","95","C","31.5375","-111.12277778","USFS","AZ","023","04023","Santa Cruz County"
"-111.340267034","31.552217335","1890170","400011282","FS-6796534","FED","FS-FIRESTAT","FS","USAZCNF","Coronado National Forest","0305","Coronado National Forest","048","","K218","MINK","2017_7262808_MINK","","AZ3153811134920170626","MINK","","2017","2017/06/25 00:00:00+00","176","2008","Natural","Natural","","","","","2000","F","31.55222222","-111.34027778","USFS","AZ","023","04023","Santa Cruz County"
"-110.536378313","31.40666177","1890171","400011283","FS-6837300","FED","FS-FIRESTAT","FS","USAZCNF","Coronado National Forest","0305","Coronado National Forest","086","","LGC1","PALOMA","","","","","","2017","2017/10/25 00:00:00+00","298","0923","Human","Missing data/not specified/undetermined","","","","","70","C","31.40666667","-110.53638889","USFS","AZ","023","04023","Santa Cruz County"
"-110.785822637","32.448606069","1890172","400011284","FS-6818116","FED","FS-FIRESTAT","FS","USAZCNF","Coronado National Forest","0305","Coronado National Forest","025","","K035","SKI","","","","","","2017","2017/05/26 00:00:00+00","146","1649","Human","Missing data/not specified/undetermined","","","","","0.1","A","32.44861111","-110.78583333","USFS","AZ","019","04019","Pima County"
"-111.07610042","31.491661782","1890173","400011285","FS-6781505","FED","FS-FIRESTAT","FS","USAZCNF","Coronado National Forest","0305","Coronado National Forest","013","","KXP8","WOLF CANYON","","","","","","2017","2017/03/25 00:00:00+00","84","2347","Human","Equipment and vehicle use","","","","","0.25","A","31.49166667","-111.07611111","USFS","AZ","023","04023","Santa Cruz County"
"-107.874989842","33.413328002","1890174","400011286","FS-6796371","FED","FS-FIRESTAT","FS","USNMGNF","Gila National Forest","0306","Gila National Forest","025","04","EKV5","SCALE","","","","","","2017","2017/06/09 00:00:00+00","160","1620","Natural","Natural","","2017/06/10 00:00:00+00","161","1755","0.25","A","33.41333333","-107.875","USFS","NM","051","35051","Sierra County"
"-108.393323013","34.07638349","1890175","400011287","FS-6826067","FED","FS-FIRESTAT","FS","USNMGNF","Gila National Forest","0306","Gila National Forest","055","07","EKV5","CHIMENEA","","","","","","2017","2017/07/18 00:00:00+00","199","1700","Natural","Natural","","","","","0.1","A","34.07638889","-108.39333333","USFS","NM","003","35003","Catron County"
"-108.366378577","34.088327927","1890176","400011288","FS-6826075","FED","FS-FIRESTAT","FS","USNMGNF","Gila National Forest","0306","Gila National Forest","061","08","EKV5","ANTONE","","","","","","2017","2017/07/27 00:00:00+00","208","0900","Natural","Natural","","","","","0.1","A","34.08833333","-108.36638889","USFS","NM","003","35003","Catron County"
"-108.758322941","34.014716848","1890177","400011289","FS-6826264","FED","FS-FIRESTAT","FS","USNMGNF","Gila National Forest","0306","Gila National Forest","070","15","EKV5","HARDCASTLE","","","","","","2017","2017/09/14 00:00:00+00","257","1800","Natural","Natural","","","","","0.1","A","34.01472222","-108.75833333","USFS","NM","003","35003","Catron County"
"-108.629989647","33.885827971","1890178","400011290","FS-6825287","FED","FS-FIRESTAT","FS","USNMGNF","Gila National Forest","0306","Gila National Forest","066","012","EKV5","32","","","","","","2017","2017/07/31 00:00:00+00","212","1800","Natural","Natural","","","","","0.1","A","33.88583333","-108.63","USFS","NM","003","35003","Catron County"
"-108.823878509","33.716105786","1890179","400011291","FS-6844719","FED","FS-FIRESTAT","FS","USNMGNF","Gila National Forest","0306","Gila National Forest","075","22","LG6Y","SU","","","","","","2017","2017/11/03 00:00:00+00","307","0859","Human","Equipment and vehicle use","","","","","0.1","A","33.71611111","-108.82388889","USFS","NM","003","35003","Catron County"
"-108.870267392","33.689716902","1890180","400011292","FS-6776752","FED","FS-FIRESTAT","FS","USNMGNF","Gila National Forest","0306","Gila National Forest","002","1","KX9K","RANCHO GRANDE","","","","","","2017","2017/04/05 00:00:00+00","95","1200","Human","Debris and open burning","","","","","0.25","A","33.68972222","-108.87027778","USFS","NM","003","35003","Catron County"
"-108.574156363","33.419994707","1890181","400011293","FS-6789318","FED","FS-FIRESTAT","FS","USNMGNF","Gila National Forest","0306","Gila National Forest","028","10","EKV5","SHEEP","","","","","","2017","2017/06/26 00:00:00+00","177","1000","Natural","Natural","","","","","0.1","A","33.42","-108.57416667","USFS","NM","003","35003","Catron County"
"-108.568045254","33.429994705","1890182","400011294","FS-6793165","FED","FS-FIRESTAT","FS","USNMGNF","Gila National Forest","0306","Gila National Forest","020","7","K13H","TEACHER","2017_7264466_TEACHER","","NM3343010856820170607","TEACHER","","2017","2017/06/07 00:00:00+00","158","1200","Natural","Natural","","","","","3555","F","33.43","-108.56805556","USFS","NM","003","35003","Catron County"
"-108.46276749","33.513883577","1890183","400011295","FS-6793231","FED","FS-FIRESTAT","FS","USNMGNF","Gila National Forest","0306","Gila National Forest","027","9","K2UQ","SEVEN","2017_7361652_SEVEN","","NM3351410846320170622","SEVEN","","2017","2017/06/22 00:00:00+00","173","1300","Natural","Natural","","","","","1176","F","33.51388889","-108.46277778","USFS","NM","003","35003","Catron County"
"-108.674989642","33.824161322","1890184","400011296","FS-6793145","FED","FS-FIRESTAT","FS","USNMGNF","Gila National Forest","0306","Gila National Forest","034","13","EKV5","CRUZVILLE","","","","","","2017","2017/07/09 00:00:00+00","190","1200","Natural","Natural","","","","","0.1","A","33.82416667","-108.675","USFS","NM","003","35003","Catron County"
"-108.574434131","33.449439142","1890185","400011297","FS-6794364","FED","FS-FIRESTAT","FS","USNMGNF","Gila National Forest","0306","Gila National Forest","032","12","EKV5","CANYON","","","","","","2017","2017/07/09 00:00:00+00","190","1000","Natural","Natural","","","","","0.1","A","33.44944444","-108.57444444","USFS","NM","003","35003","Catron County"
"-108.589711909","33.439439145","1890186","400011298","FS-6794384","FED","FS-FIRESTAT","FS","USNMGNF","Gila National Forest","0306","Gila National Forest","036","14","EKV5","SNOW","","","","","","2017","2017/07/11 00:00:00+00","192","1600","Natural","Natural","","","","","0.1","A","33.43944444","-108.58972222","USFS","NM","003","35003","Catron County"
"-108.607767465","33.437216926","1890187","400011299","FS-6794403","FED","FS-FIRESTAT","FS","USNMGNF","Gila National Forest","0306","Gila National Forest","038","15","EKV5","TANK","","","","","","2017","2017/07/11 00:00:00+00","192","1700","Natural","Natural","","","","","0.1","A","33.43722222","-108.60777778","USFS","NM","003","35003","Catron County"
"-108.479434119","33.889439072","1890188","400011300","FS-6794673","FED","FS-FIRESTAT","FS","USNMGNF","Gila National Forest","0306","Gila National Forest","045","16","EKV5","WAGONTONGUE","","","","","","2017","2017/07/13 00:00:00+00","194","1400","Natural","Natural","","","","","0.5","B","33.88944444","-108.47944444","USFS","NM","003","35003","Catron County"
"-108.628045242","33.41527249","1890189","400011301","FS-6794716","FED","FS-FIRESTAT","FS","USNMGNF","Gila National Forest","0306","Gila National Forest","024","8","K110","GRAVEL","2017_7306656_GRAVEL","","NM3341610862820170609","GRAVEL","","2017","2017/06/09 00:00:00+00","160","1500","Natural","Natural","","","","","2867","F","33.41527778","-108.62805556","USFS","NM","003","35003","Catron County"
"-108.583600783","33.66916134","1890190","400011302","FS-6831946","FED","FS-FIRESTAT","FS","USNMGNF","Gila National Forest","0306","Gila National Forest","073","20","EKV5","EAGLE","","","","","","2017","2017/10/20 00:00:00+00","293","1600","Natural","Natural","","","","","1","B","33.66916667","-108.58361111","USFS","NM","003","35003","Catron County"
"-108.584156342","33.684439108","1890191","400011303","FS-6832028","FED","FS-FIRESTAT","FS","USNMGNF","Gila National Forest","0306","Gila National Forest","074","21","EKV5","PEAK","","","","","","2017","2017/10/20 00:00:00+00","293","1700","Natural","Natural","","","","","20","C","33.68444444","-108.58416667","USFS","NM","003","35003","Catron County"
"-108.594156356","33.463605811","1890192","400011304","FS-6794342","FED","FS-FIRESTAT","FS","USNMGNF","Gila National Forest","0306","Gila National Forest","031","11","EKV5","ASPEN","","","","","","2017","2017/07/09 00:00:00+00","190","1000","Natural","Natural","","","","","0.1","A","33.46361111","-108.59416667","USFS","NM","003","35003","Catron County"
"-109.043878479","33.502772499","1890193","400011305","FS-6832021","FED","FS-FIRESTAT","FS","USNMGNF","Gila National Forest","0306","Gila National Forest","033","03","EKV5","WHITEROCKS","","","","","","2017","2017/07/09 00:00:00+00","190","1600","Natural","Natural","","","","","29","C","33.50277778","-109.04388889","USFS","NM","003","35003","Catron County"
"-108.603045204","34.008883511","1890194","400011306","FS-6843889","FED","FS-FIRESTAT","FS","USNMGNF","Gila National Forest","0306","Gila National Forest","076","017","EKV5","GALLO","","","","","","2017","2017/12/05 00:00:00+00","339","1500","Natural","Natural","","","","","0.1","A","34.00888889","-108.60305556","USFS","NM","003","35003","Catron County"
"-108.707489616","34.078050176","1890195","400011307","FS-6825233","FED","FS-FIRESTAT","FS","USNMGNF","Gila National Forest","0306","Gila National Forest","062","009","EKV5","RADIO","","","","","","2017","2017/07/27 00:00:00+00","208","1000","Natural","Natural","","","","","0.1","A","34.07805556","-108.7075","USFS","NM","003","35003","Catron County"
"-108.393045242","34.090827928","1890196","400011308","FS-6825283","FED","FS-FIRESTAT","FS","USNMGNF","Gila National Forest","0306","Gila National Forest","063","010","EKV5","GREEN","","","","","","2017","2017/07/28 00:00:00+00","209","0940","Natural","Natural","","","","","0.1","A","34.09083333","-108.39305556","USFS","NM","003","35003","Catron County"
"-111.816377711","35.980550092","1890197","400011309","FS-6801624","FED","FS-FIRESTAT","FS","USAZKNF","Kaibab National Forest","0307","Kaibab National Forest","028","07","EKV6","BADGER","","","","","","2017","2017/07/10 00:00:00+00","191","1640","Natural","Natural","","","","","0.1","A","35.98055556","-111.81638889","USFS","AZ","005","04005","Coconino County"
"-112.088877667","35.871105673","1890198","400011310","FS-6783840","FED","FS-FIRESTAT","FS","USAZKNF","Kaibab National Forest","0307","Kaibab National Forest","006","03","EKV6","RED","","","","","","2017","2017/05/31 00:00:00+00","151","1530","Natural","Natural","","","","","0.1","A","35.87111111","-112.08888889","USFS","AZ","005","04005","Coconino County"
"-111.902211039","35.81110567","1890199","400011311","FS-6801726","FED","FS-FIRESTAT","FS","USAZKNF","Kaibab National Forest","0307","Kaibab National Forest","050","09","EKV6","ARMSTRONG","","","","","","2017","2017/07/29 00:00:00+00","210","0955","Natural","Natural","","","","","0.1","A","35.81111111","-111.90222222","USFS","AZ","005","04005","Coconino County"
"-112.021655466","35.804994568","1890200","400011312","FS-6798087","FED","FS-FIRESTAT","FS","USAZKNF","Kaibab National Forest","0307","Kaibab National Forest","023","006","EKV6","CORBETT","","","","","","2017","2017/07/09 00:00:00+00","190","1122","Natural","Natural","","","","","0.1","A","35.805","-112.02166667","USFS","AZ","005","04005","Coconino County"
"-111.979711021","35.84360567","1890201","400011313","FS-6801697","FED","FS-FIRESTAT","FS","USAZKNF","Kaibab National Forest","0307","Kaibab National Forest","048","08","EKV6","BLUE STEM","","","","","","2017","2017/07/23 00:00:00+00","204","1636","Natural","Natural","","","","","0.1","A","35.84361111","-111.97972222","USFS","AZ","005","04005","Coconino County"
"-111.732211063","35.918605645","1890202","400011314","FS-6816786","FED","FS-FIRESTAT","FS","USAZKNF","Kaibab National Forest","0307","Kaibab National Forest","083","15","EKV6","MULESHOE","","","","","","2017","2017/09/06 00:00:00+00","249","1752","Natural","Natural","","","","","0.1","A","35.91861111","-111.73222222","USFS","AZ","005","04005","Coconino County"
"-111.849988822","35.898050105","1890203","400011315","FS-6810643","FED","FS-FIRESTAT","FS","USAZKNF","Kaibab National Forest","0307","Kaibab National Forest","077","14","EKV6","RIM","","","","","","2017","2017/08/26 00:00:00+00","238","1627","Natural","Natural","","","","","1.5","B","35.89805556","-111.85","USFS","AZ","005","04005","Coconino County"
"-111.910822132","35.975272319","1890204","400011316","FS-6808360","FED","FS-FIRESTAT","FS","USAZKNF","Kaibab National Forest","0307","Kaibab National Forest","063","11","EKV6","BRUSHY","","","","","","2017","2017/08/12 00:00:00+00","224","1132","Natural","Natural","","","","","0.1","A","35.97527778","-111.91083333","USFS","AZ","005","04005","Coconino County"
"-112.124155431","35.970272333","1890205","400011317","FS-6826377","FED","FS-FIRESTAT","FS","USAZKNF","Kaibab National Forest","0307","Kaibab National Forest","090","18","EKV6","LAGRANDE","","","","","","2017","2017/10/06 00:00:00+00","279","0948","Human","Smoking","","","","","0.3","B","35.97027778","-112.12416667","USFS","AZ","005","04005","Coconino County"
"-112.07998877","35.963883441","1890206","400011318","FS-6816793","FED","FS-FIRESTAT","FS","USAZKNF","Kaibab National Forest","0307","Kaibab National Forest","086","17","EKV6","TRANSFER","","","","","","2017","2017/09/14 00:00:00+00","257","1849","Natural","Natural","","","","","0.1","A","35.96388889","-112.08","USFS","AZ","005","04005","Coconino County"
"-112.125544319","35.98916122","1890207","400011319","FS-6838256","FED","FS-FIRESTAT","FS","USAZKNF","Kaibab National Forest","0307","Kaibab National Forest","084","","EKV6","APACHE","","","","","","2017","2017/09/07 00:00:00+00","250","2100","Natural","Natural","","","","","0.1","A","35.98916667","-112.12555556","USFS","AZ","005","04005","Coconino County"
"-112.113599834","36.38138339","1890208","400011320","FS-6783854","FED","FS-FIRESTAT","FS","USAZKNF","Kaibab National Forest","0307","Kaibab National Forest","010","004","EKV6","INDIAN","","","","","","2017","2017/06/04 00:00:00+00","155","1522","Human","Missing data/not specified/undetermined","","2017/06/04 00:00:00+00","155","1845","0.1","A","36.38138889","-112.11361111","USFS","AZ","005","04005","Coconino County"
"-112.191655336","36.81582778","1890209","400011321","FS-6798080","FED","FS-FIRESTAT","FS","USAZKNF","Kaibab National Forest","0307","Kaibab National Forest","019","005","K3L3","BIG RIDGE","","","","","","2017","2017/06/30 00:00:00+00","181","2309","Human","Missing data/not specified/undetermined","","2017/07/02 00:00:00+00","183","1800","1","B","36.81583333","-112.19166667","USFS","AZ","005","04005","Coconino County"
"-112.215822001","36.714994464","1890210","400011322","FS-6819351","FED","FS-FIRESTAT","FS","USAZKNF","Kaibab National Forest","0307","Kaibab National Forest","087","029","EKV6","PUNKY","","","","","","2017","2017/09/18 00:00:00+00","261","1856","Human","Smoking","","2017/09/19 00:00:00+00","262","1126","0.1","A","36.715","-112.21583333","USFS","AZ","005","04005","Coconino County"
"-112.235544244","36.549716706","1890211","400011323","FS-6816791","FED","FS-FIRESTAT","FS","USAZKNF","Kaibab National Forest","0307","Kaibab National Forest","085","028","EKV6","FORK","","","","","","2017","2017/09/14 00:00:00+00","257","1809","Natural","Natural","","2017/09/15 00:00:00+00","258","1456","0.1","A","36.54972222","-112.23555556","USFS","AZ","005","04005","Coconino County"
"-112.351099768","36.584716709","1890212","400011324","FS-6810641","FED","FS-FIRESTAT","FS","USAZKNF","Kaibab National Forest","0307","Kaibab National Forest","075","27","EKV6","BISON","","","","","","2017","2017/08/24 00:00:00+00","236","1411","Natural","Natural","","","","","0.1","A","36.58472222","-112.35111111","USFS","AZ","005","04005","Coconino County"
"-112.250266448","36.682494471","1890213","400011325","FS-6801690","FED","FS-FIRESTAT","FS","USAZKNF","Kaibab National Forest","0307","Kaibab National Forest","044","12","EKV6","LAMBS","","","","","","2017","2017/07/22 00:00:00+00","203","1450","Natural","Natural","","2017/07/23 00:00:00+00","204","1230","0.5","B","36.6825","-112.25027778","USFS","AZ","005","04005","Coconino County"
"-112.416377541","36.520827831","1890214","400011326","FS-6801696","FED","FS-FIRESTAT","FS","USAZKNF","Kaibab National Forest","0307","Kaibab National Forest","047","13","EKV6","SOWATS","","","","","","2017","2017/07/23 00:00:00+00","204","1631","Natural","Natural","","2017/07/30 00:00:00+00","211","1700","1.5","B","36.52083333","-112.41638889","USFS","AZ","005","04005","Coconino County"
"-112.375544213","36.584994491","1890215","400011327","FS-6801661","FED","FS-FIRESTAT","FS","USAZKNF","Kaibab National Forest","0307","Kaibab National Forest","037","09","K7AW","PINE HOLLOW","2017_7198065_PINE HOLLOW","","AZ3658511237620170718","PINE HOLLOW","","2017","2017/07/18 00:00:00+00","199","1644","Natural","Natural","","","","","4638","F","36.585","-112.37555556","USFS","AZ","005","04005","Coconino County"
"-112.159988695","36.585550037","1890216","400011328","FS-6801700","FED","FS-FIRESTAT","FS","USAZKNF","Kaibab National Forest","0307","Kaibab National Forest","049","14","EKV6","CRIMSON","","","","","","2017","2017/07/23 00:00:00+00","204","1744","Natural","Natural","","2017/07/24 00:00:00+00","205","1250","0.1","A","36.58555556","-112.16","USFS","AZ","005","04005","Coconino County"
"-112.084155392","36.466383377","1890217","400011329","FS-6808391","FED","FS-FIRESTAT","FS","USAZKNF","Kaibab National Forest","0307","Kaibab National Forest","066","22","K900","DOG","","","","","","2017","2017/08/18 00:00:00+00","230","1709","Natural","Natural","","2017/09/23 00:00:00+00","266","1605","15","C","36.46638889","-112.08416667","USFS","AZ","005","04005","Coconino County"
"-112.231099793","36.562494484","1890218","400011330","FS-6808393","FED","FS-FIRESTAT","FS","USAZKNF","Kaibab National Forest","0307","Kaibab National Forest","068","24","EKV6","SOLAR","","","","","","2017","2017/08/21 00:00:00+00","233","1614","Natural","Natural","","2017/08/21 00:00:00+00","233","2100","0.1","A","36.5625","-112.23111111","USFS","AZ","005","04005","Coconino County"
"-112.271099789","36.521105602","1890219","400011331","FS-6801653","FED","FS-FIRESTAT","FS","USAZKNF","Kaibab National Forest","0307","Kaibab National Forest","036","08","EKV6","LOST CANYON","","","","","","2017","2017/07/18 00:00:00+00","199","1618","Natural","Natural","","2017/07/19 00:00:00+00","200","1600","0.1","A","36.52111111","-112.27111111","USFS","AZ","005","04005","Coconino County"
"-112.319710867","36.757772246","1890220","400011332","FS-6798098","FED","FS-FIRESTAT","FS","USAZKNF","Kaibab National Forest","0307","Kaibab National Forest","025","006","EKV6","FLAT","","","","","","2017","2017/07/09 00:00:00+00","190","1754","Natural","Natural","","2017/07/10 00:00:00+00","191","1411","0.1","A","36.75777778","-112.31972222","USFS","AZ","005","04005","Coconino County"
"-112.290544251","36.361105623","1890221","400011333","FS-6801633","FED","FS-FIRESTAT","FS","USAZKNF","Kaibab National Forest","0307","Kaibab National Forest","031","07","EKV6","TWO SPRINGS","","","","","","2017","2017/07/13 00:00:00+00","194","1610","Natural","Natural","","2017/07/13 00:00:00+00","194","2100","0.1","A","36.36111111","-112.29055556","USFS","AZ","005","04005","Coconino County"
"-112.303877575","36.39943895","1890222","400011334","FS-6781429","FED","FS-FIRESTAT","FS","USAZKNF","Kaibab National Forest","0307","Kaibab National Forest","005","001","K0UT","LOCUST","","","","","","2017","2017/05/19 00:00:00+00","139","1608","Human","Recreation and ceremony","","2017/05/20 00:00:00+00","140","1540","2.4","B","36.39944444","-112.30388889","USFS","AZ","005","04005","Coconino County"
"-112.316377556","36.56471671","1890223","400011335","FS-6783844","FED","FS-FIRESTAT","FS","USAZKNF","Kaibab National Forest","0307","Kaibab National Forest","008","003","EKV6","RIGGS","","","","","","2017","2017/05/31 00:00:00+00","151","1627","Natural","Natural","","2017/06/01 00:00:00+00","152","1231","0.1","A","36.56472222","-112.31638889","USFS","AZ","005","04005","Coconino County"
"-112.283322007","36.517216713","1890224","400011336","FS-6783842","FED","FS-FIRESTAT","FS","USAZKNF","Kaibab National Forest","0307","Kaibab National Forest","007","002","EKV6","LOST","","","","","","2017","2017/05/31 00:00:00+00","151","1623","Natural","Natural","","2017/07/19 00:00:00+00","200","1600","0.1","A","36.51722222","-112.28333333","USFS","AZ","005","04005","Coconino County"
"-112.329710883","36.572772269","1890225","400011337","FS-6801667","FED","FS-FIRESTAT","FS","USAZKNF","Kaibab National Forest","0307","Kaibab National Forest","040","10","EKV6","CASTLE","","","","","","2017","2017/07/20 00:00:00+00","201","1232","Natural","Natural","","2017/07/21 00:00:00+00","202","1450","0.1","A","36.57277778","-112.32972222","USFS","AZ","005","04005","Coconino County"
"-112.197210908","36.57832781","1890226","400011338","FS-6801668","FED","FS-FIRESTAT","FS","USAZKNF","Kaibab National Forest","0307","Kaibab National Forest","041","11","EKV6","MUDHOLE","","","","","","2017","2017/07/20 00:00:00+00","201","1501","Natural","Natural","","2017/07/21 00:00:00+00","202","1330","0.1","A","36.57833333","-112.19722222","USFS","AZ","005","04005","Coconino County"
"-112.319988665","36.568883379","1890227","400011339","FS-6808394","FED","FS-FIRESTAT","FS","USAZKNF","Kaibab National Forest","0307","Kaibab National Forest","069","25","EKV6","ECLIPSE","","","","","","2017","2017/08/21 00:00:00+00","233","1621","Natural","Natural","","2017/08/22 00:00:00+00","234","1445","0.25","A","36.56888889","-112.32","USFS","AZ","005","04005","Coconino County"
"-112.309433113","36.514994495","1890228","400011340","FS-6801730","FED","FS-FIRESTAT","FS","USAZKNF","Kaibab National Forest","0307","Kaibab National Forest","052","15","EKV6","PRATT","","","","","","2017","2017/08/01 00:00:00+00","213","1558","Natural","Natural","","2017/08/03 00:00:00+00","215","1430","0.5","B","36.515","-112.30944444","USFS","AZ","005","04005","Coconino County"
"-112.32498865","36.716383361","1890229","400011341","FS-6808392","FED","FS-FIRESTAT","FS","USAZKNF","Kaibab National Forest","0307","Kaibab National Forest","067","23","EKV6","BUCK RIDGE","","","","","","2017","2017/08/20 00:00:00+00","232","1816","Natural","Natural","","2017/08/21 00:00:00+00","233","1430","0.1","A","36.71638889","-112.325","USFS","AZ","005","04005","Coconino County"
"-112.383599768","36.5149945","1890230","400011342","FS-6810635","FED","FS-FIRESTAT","FS","USAZKNF","Kaibab National Forest","0307","Kaibab National Forest","071","26","EKV6","WEST","","","","","","2017","2017/08/23 00:00:00+00","235","1657","Natural","Natural","","2017/08/24 00:00:00+00","236","1550","1","B","36.515","-112.38361111","USFS","AZ","005","04005","Coconino County"
"-112.310821999","36.543327822","1890231","400011343","FS-6808355","FED","FS-FIRESTAT","FS","USAZKNF","Kaibab National Forest","0307","Kaibab National Forest","061","19","EKV6","OQUER","","","","","","2017","2017/08/12 00:00:00+00","224","1107","Natural","Natural","","2017/08/16 00:00:00+00","228","1355","0.2","A","36.54333333","-112.31083333","USFS","AZ","005","04005","Coconino County"
"-112.243877556","36.708050027","1890232","400011344","FS-6826378","FED","FS-FIRESTAT","FS","USAZKNF","Kaibab National Forest","0307","Kaibab National Forest","091","30","EKV6","PIPELINE","","","","","","2017","2017/10/08 00:00:00+00","281","1615","Human","Recreation and ceremony","","2017/10/08 00:00:00+00","281","1625","0.1","A","36.70805556","-112.24388889","USFS","AZ","005","04005","Coconino County"
"-112.23582201","36.589438921","1890233","400011345","FS-6826379","FED","FS-FIRESTAT","FS","USAZKNF","Kaibab National Forest","0307","Kaibab National Forest","092","31","EKV6","MOQUTICH","","","","","","2017","2017/10/09 00:00:00+00","282","1542","Human","Recreation and ceremony","","","","","0.1","A","36.58944444","-112.23583333","USFS","AZ","005","04005","Coconino County"
"-112.255821981","36.838883342","1890234","400011346","FS-6803572","FED","FS-FIRESTAT","FS","USAZKNF","Kaibab National Forest","0307","Kaibab National Forest","060","18","K8FR","OVERLOOK","","","","","","2017","2017/08/07 00:00:00+00","219","1056","Human","Equipment and vehicle use","","2017/08/07 00:00:00+00","219","1255","0.1","A","36.83888889","-112.25583333","USFS","AZ","005","04005","Coconino County"
"-112.411377544","36.495550064","1890235","400011347","FS-6808357","FED","FS-FIRESTAT","FS","USAZKNF","Kaibab National Forest","0307","Kaibab National Forest","062","20","EKV6","BURNT","","","","","","2017","2017/08/12 00:00:00+00","224","1132","Natural","Natural","","2017/08/12 00:00:00+00","224","1610","0.1","A","36.49555556","-112.41138889","USFS","AZ","005","04005","Coconino County"
"-112.308877564","36.499161167","1890236","400011348","FS-6845472","FED","FS-FIRESTAT","FS","USAZKNF","Kaibab National Forest","0307","Kaibab National Forest","098","33","EKV6","CORRAL","","","","","","2017","2017/12/03 00:00:00+00","337","1625","Human","Equipment and vehicle use","","2017/12/04 00:00:00+00","338","1515","1.02","B","36.49916667","-112.30888889","USFS","AZ","005","04005","Coconino County"
"-112.135822047","36.410272278","1890237","400011349","FS-6826391","FED","FS-FIRESTAT","FS","USAZKNF","Kaibab National Forest","0307","Kaibab National Forest","094","32","EKV6","DE MOTTE","","","","","","2017","2017/10/10 00:00:00+00","283","1547","Human","Equipment and vehicle use","","2017/10/16 00:00:00+00","289","1639","0.25","A","36.41027778","-112.13583333","USFS","AZ","005","04005","Coconino County"
"-112.243599811","36.354716731","1890238","400011350","FS-6801741","FED","FS-FIRESTAT","FS","USAZKNF","Kaibab National Forest","0307","Kaibab National Forest","055","17","EKV6","TIPOVER","","","","","","2017","2017/08/02 00:00:00+00","214","1620","Natural","Natural","","2017/08/02 00:00:00+00","214","2131","0.1","A","36.35472222","-112.24361111","USFS","AZ","005","04005","Coconino County"
"-111.957211072","35.331383515","1890239","400011351","FS-6803562","FED","FS-FIRESTAT","FS","USAZKNF","Kaibab National Forest","0307","Kaibab National Forest","059","032","EKV6","GOVERNMENT","","","","","","2017","2017/08/04 00:00:00+00","216","1904","Natural","Natural","","","","","6.3","B","35.33138889","-111.95722222","USFS","AZ","005","04005","Coconino County"
"-112.20665541","36.017494552","1890240","400011352","FS-6808395","FED","FS-FIRESTAT","FS","USAZKNF","Kaibab National Forest","0307","Kaibab National Forest","070","12","EKV6","SEWER","","","","","","2017","2017/08/22 00:00:00+00","234","1455","Natural","Natural","","","","","0.1","A","36.0175","-112.20666667","USFS","AZ","005","04005","Coconino County"
"-112.088322097","35.97527233","1890241","400011353","FS-6801728","FED","FS-FIRESTAT","FS","USAZKNF","Kaibab National Forest","0307","Kaibab National Forest","051","10","EKV6","STATION","","","","","","2017","2017/07/29 00:00:00+00","210","1054","Natural","Natural","","","","","0.1","A","35.97527778","-112.08833333","USFS","AZ","005","04005","Coconino County"
"-111.938044364","35.90443899","1890242","400011354","FS-6810636","FED","FS-FIRESTAT","FS","USAZKNF","Kaibab National Forest","0307","Kaibab National Forest","072","13","EKV6","BOBCAT","","","","","","2017","2017/08/24 00:00:00+00","236","0929","Natural","Natural","","","","","0.1","A","35.90444444","-111.93805556","USFS","AZ","005","04005","Coconino County"
"-112.403321984","36.517494501","1890243","400011355","FS-6808361","FED","FS-FIRESTAT","FS","USAZKNF","Kaibab National Forest","0307","Kaibab National Forest","064","21","EKV6","KWAGUNT","","","","","","2017","2017/08/13 00:00:00+00","225","1538","Natural","Natural","","2017/08/14 00:00:00+00","226","1259","0.1","A","36.5175","-112.40333333","USFS","AZ","005","04005","Coconino County"
"-112.134988701","36.573883367","1890244","400011356","FS-6801731","FED","FS-FIRESTAT","FS","USAZKNF","Kaibab National Forest","0307","Kaibab National Forest","053","16","EKV6","TELEPHONE","","","","","","2017","2017/08/01 00:00:00+00","213","2042","Natural","Natural","","2017/08/03 00:00:00+00","215","1300","2","B","36.57388889","-112.135","USFS","AZ","005","04005","Coconino County"
"-112.150822089","35.929439","1890245","400011357","FS-6781191","FED","FS-FIRESTAT","FS","USAZKNF","Kaibab National Forest","0307","Kaibab National Forest","003","03","EKW0","BOGGY","","","","","","2017","2017/05/15 00:00:00+00","135","2001","Human","Recreation and ceremony","","","","","0.1","A","35.92944444","-112.15083333","USFS","AZ","005","04005","Coconino County"
"-112.068044336","35.921661225","1890246","400011358","FS-6778658","FED","FS-FIRESTAT","FS","USAZKNF","Kaibab National Forest","0307","Kaibab National Forest","002","01","EKW0","NOVEMBER","","","","","","2017","2017/04/28 00:00:00+00","118","1242","Human","Recreation and ceremony","","","","","0.1","A","35.92166667","-112.06805556","USFS","AZ","005","04005","Coconino County"
"-112.226099857","35.907494567","1890247","400011359","FS-6786869","FED","FS-FIRESTAT","FS","USAZKNF","Kaibab National Forest","0307","Kaibab National Forest","016","005","K2NN","RAIN","2017_7252950_#3 RAIN","","","","","2017","2017/06/21 00:00:00+00","172","1413","Human","Missing data/not specified/undetermined","","","","","151","D","35.9075","-112.22611111","USFS","AZ","005","04005","Coconino County"
"-112.053044335","35.971661218","1890248","400011360","FS-6783855","FED","FS-FIRESTAT","FS","USAZKNF","Kaibab National Forest","0307","Kaibab National Forest","009","004","EKV6","TEN-X","","","","","","2017","2017/06/02 00:00:00+00","153","1735","Natural","Natural","","","","","0.1","A","35.97166667","-112.05305556","USFS","AZ","005","04005","Coconino County"
"-105.264434832","33.685550059","1890249","400011361","FS-6793266","FED","FS-FIRESTAT","FS","USNMLNF","Lincoln National Forest","0308","Lincoln National Forest","018","","K5E5","PLEASANT VIEW","","","","","","2017","2017/07/12 00:00:00+00","193","1635","Natural","Natural","","","","","0.1","A","33.68555556","-105.26444444","STATE","NM","027","35027","Lincoln County"
"-105.719157009","33.000827961","1890250","400011362","FS-6788150","FED","FS-FIRESTAT","FS","USNMLNF","Lincoln National Forest","0308","Lincoln National Forest","011","","K2DK","LA LUZ","","","","","","2017","2017/06/18 00:00:00+00","169","1110","Human","Recreation and ceremony","","","","","0.1","A","33.00083333","-105.71916667","USFS","NM","035","35035","Otero County"
"-105.661657042","32.693328008","1890251","400011363","FS-6818759","FED","FS-FIRESTAT","FS","USNMLNF","Lincoln National Forest","0308","Lincoln National Forest","007","","K1FR","MONUMENT FIRE","2017_7133687_MONUMENT","","","","","2017","2017/06/02 00:00:00+00","153","1600","Natural","Natural","","","","","170","D","32.69333333","-105.66166667","USFS","NM","035","35035","Otero County"
"-112.532211026","34.546661431","1890252","400011364","FS-6845976","FED","FS-FIRESTAT","FS","USAZPNF","Prescott National Forest","0309","Prescott National Forest","010","Bradshaw 3","EKV8","THUMB","","","","","","2017","2017/07/08 00:00:00+00","189","2128","Natural","Natural","","","","","0.1","A","34.54666667","-112.53222222","USFS","AZ","025","04025","Yavapai County"
"-112.809988713","35.015828046","1890253","400011365","FS-6845998","FED","FS-FIRESTAT","FS","USAZPNF","Prescott National Forest","0309","Prescott National Forest","019","Chino 3","EKV8","BORROW PIT","","","","","","2017","2017/07/24 00:00:00+00","205","1540","Human","Missing data/not specified/undetermined","","","","","0.1","A","35.01583333","-112.81","USFS","AZ","025","04025","Yavapai County"
"-112.499433256","34.501661435","1890254","400011366","FS-6846001","FED","FS-FIRESTAT","FS","USAZPNF","Prescott National Forest","0309","Prescott National Forest","020","Bradshaw 8","K841","QUARTZ","","","","","","2017","2017/08/07 00:00:00+00","219","0054","Human","Recreation and ceremony","","","","","0.1","A","34.50166667","-112.49944444","USFS","AZ","025","04025","Yavapai County"
"-112.494433262","34.440828103","1890255","400011367","FS-6846020","FED","FS-FIRESTAT","FS","USAZPNF","Prescott National Forest","0309","Prescott National Forest","028","Bradshaw12","LDC2","SCOTTY","","","","","","2017","2017/09/17 00:00:00+00","260","2210","Human","Missing data/not specified/undetermined","","2017/09/17 00:00:00+00","260","2230","0.1","A","34.44083333","-112.49444444","USFS","AZ","025","04025","Yavapai County"
"-112.952766483","34.810550311","1890256","400011368","FS-6845996","FED","FS-FIRESTAT","FS","USAZPNF","Prescott National Forest","0309","Prescott National Forest","018","Chino 2","EKV8","7 UP","","","","","","2017","2017/07/17 00:00:00+00","198","1350","Natural","Natural","","","","","0.1","A","34.81055556","-112.95277778","USFS","AZ","025","04025","Yavapai County"
"-112.546933247","34.498605878","1890257","400011369","FS-6846030","FED","FS-FIRESTAT","FS","USAZPNF","Prescott National Forest","0309","Prescott National Forest","030","Bradshaw13","LFK7","PRIETA","","","","","","2017","2017/10/14 00:00:00+00","287","1523","Human","Recreation and ceremony","","","","","0.1","A","34.49861111","-112.54694444","USFS","AZ","025","04025","Yavapai County"
"-112.562211026","34.477772552","1890258","400011370","FS-6846056","FED","FS-FIRESTAT","FS","USAZPNF","Prescott National Forest","0309","Prescott National Forest","033","Bradshaw15","LF49","TELEPHONE","","","","","","2017","2017/10/21 00:00:00+00","294","1015","Human","Recreation and ceremony","","","","","0.1","A","34.47777778","-112.56222222","USFS","AZ","025","04025","Yavapai County"
"-112.873322046","34.832216963","1890259","400011371","FS-6845984","FED","FS-FIRESTAT","FS","USAZPNF","Prescott National Forest","0309","Prescott National Forest","015","Chino 1","K5KY","HYDE","2017_7224659_HYDE","","","","","2017","2017/07/11 00:00:00+00","192","1708","Natural","Natural","","","","","18072","G","34.83222222","-112.87333333","USFS","AZ","025","04025","Yavapai County"
"-112.272211084","34.454716978","1890260","400011372","FS-6848995","FED","FS-FIRESTAT","FS","USAZPNF","Prescott National Forest","0309","Prescott National Forest","038","Brad - 18","LJ3P","LARSON","","","","","","2017","2017/12/25 00:00:00+00","359","1830","Human","Equipment and vehicle use","","","","","0.25","A","34.45472222","-112.27222222","USFS","AZ","025","04025","Yavapai County"
