"ï»¿X","Y","OBJECTID","FOD_ID","FPA_ID","SOURCE_SYSTEM_TYPE","SOURCE_SYSTEM","NWCG_REPORTING_AGENCY","NWCG_REPORTING_UNIT_ID","NWCG_REPORTING_UNIT_NAME","SOURCE_REPORTING_UNIT","SOURCE_REPORTING_UNIT_NAME","LOCAL_FIRE_REPORT_ID","LOCAL_INCIDENT_ID","FIRE_CODE","FIRE_NAME","ICS_209_PLUS_INCIDENT_JOIN_ID","ICS_209_PLUS_COMPLEX_JOIN_ID","MTBS_ID","MTBS_FIRE_NAME","COMPLEX_NAME","FIRE_YEAR","DISCOVERY_DATE","DISCOVERY_DOY","DISCOVERY_TIME","NWCG_CAUSE_CLASSIFICATION","NWCG_GENERAL_CAUSE","NWCG_CAUSE_AGE_CATEGORY","CONT_DATE","CONT_DOY","CONT_TIME","FIRE_SIZE","FIRE_SIZE_CLASS","LATITUDE","LONGITUDE","OWNER_DESCR","STATE","COUNTY","FIPS_CODE","FIPS_NAME"
"-103.723322936","44.074992918","140001","141396","FS-367598","FED","FS-FIRESTAT","FS","USSDBKF","Black Hills National Forest","0203","Black Hills National Forest","33","","0902","CREEK SIDE","","","","","","2001","2001/05/27 00:00:00+00","147","2316","Human","Recreation and ceremony","","2001/05/27 00:00:00+00","147","2330","0.1","A","44.075","-103.72333333","USFS","SD","","",""
"-103.346656399","43.874992913","140002","141397","FS-367600","FED","FS-FIRESTAT","FS","USSDBKF","Black Hills National Forest","0203","Black Hills National Forest","35","","0904","LITTLE FALLS","","","","","","2001","2001/05/26 00:00:00+00","146","2345","Human","Recreation and ceremony","","2001/05/26 00:00:00+00","146","2355","0.1","A","43.875","-103.34666667","USFS","SD","","",""
"-103.950267307","44.229159588","140003","141398","FS-367601","FED","FS-FIRESTAT","FS","USSDBKF","Black Hills National Forest","0203","Black Hills National Forest","36","","0905","EAGLE CLIFF","","","","","","2001","2001/06/13 00:00:00+00","164","0005","Natural","Natural","","2001/06/13 00:00:00+00","164","0430","0.1","A","44.22916667","-103.95027778","USFS","SD","","",""
"-103.446656379","43.846659594","140004","141399","FS-367602","FED","FS-FIRESTAT","FS","USSDBKF","Black Hills National Forest","0203","Black Hills National Forest","38","","0907","GRIZZLY CREEK","","","","","","2001","2001/06/17 00:00:00+00","168","1830","Natural","Natural","","2001/06/17 00:00:00+00","168","2330","0.5","B","43.84666667","-103.44666667","USFS","SD","","",""
"-103.801656329","43.604992983","140005","141400","FS-367603","FED","FS-FIRESTAT","FS","USSDBKF","Black Hills National Forest","0203","Black Hills National Forest","39","","0908","RICHARDSON","","","","","","2001","2001/06/18 00:00:00+00","169","0745","Natural","Natural","","2001/06/18 00:00:00+00","169","1030","0.1","A","43.605","-103.80166667","USFS","SD","","",""
"-111.468322272","35.406661256","140006","141401","FS-367604","FED","FS-FIRESTAT","FS","USAZCOF","Coconino National Forest","0304","Coconino National Forest","386","","2300","UNION","","","","","","2001","2001/09/15 00:00:00+00","258","1232","Natural","Natural","","2001/09/15 00:00:00+00","258","1730","0.3","B","35.40666667","-111.46833333","USFS","AZ","5","04005","Coconino County"
"-111.778322222","35.276661292","140007","141402","FS-367605","FED","FS-FIRESTAT","FS","USAZCOF","Coconino National Forest","0304","Coconino National Forest","392","","2300","WING","","","","","","2001","2001/09/23 00:00:00+00","266","0845","Human","Recreation and ceremony","","2001/09/23 00:00:00+00","266","1430","0.4","B","35.27666667","-111.77833333","USFS","AZ","5","04005","Coconino County"
"-111.706655579","35.241661292","140008","141403","FS-367606","FED","FS-FIRESTAT","FS","USAZCOF","Coconino National Forest","0304","Coconino National Forest","394","","2300","LIGHT","","","","","","2001","2001/09/30 00:00:00+00","273","1109","Human","Recreation and ceremony","","2001/09/30 00:00:00+00","273","1200","0.1","A","35.24166667","-111.70666667","USFS","AZ","5","04005","Coconino County"
"-111.584988929","35.293327938","140009","141404","FS-367607","FED","FS-FIRESTAT","FS","USAZCOF","Coconino National Forest","0304","Coconino National Forest","395","","2300","SUMMIT","","","","","","2001","2001/09/30 00:00:00+00","273","1359","Human","Recreation and ceremony","","2001/09/30 00:00:00+00","273","1600","0.1","A","35.29333333","-111.585","USFS","AZ","5","04005","Coconino County"
"-111.498322275","35.304994601","140010","141405","FS-367608","FED","FS-FIRESTAT","FS","USAZCOF","Coconino National Forest","0304","Coconino National Forest","396","","2300","WILDCAT","","","","","","2001","2001/10/03 00:00:00+00","276","0754","Human","Equipment and vehicle use","","2001/10/03 00:00:00+00","276","0950","0.1","A","35.305","-111.49833333","USFS","AZ","5","04005","Coconino County"
"-111.726655578","35.204994628","140011","141406","FS-367609","FED","FS-FIRESTAT","FS","USAZCOF","Coconino National Forest","0304","Coconino National Forest","398","","2300","BELL","","","","","","2001","2001/10/03 00:00:00+00","276","1644","Human","Recreation and ceremony","","2001/10/03 00:00:00+00","276","1830","0.1","A","35.205","-111.72666667","USFS","AZ","5","04005","Coconino County"
"-111.621655593","35.276383503","140012","141407","FS-367610","FED","FS-FIRESTAT","FS","USAZCOF","Coconino National Forest","0304","Coconino National Forest","410","","2300","DRY","","","","","","2001","2001/10/07 00:00:00+00","280","1438","Natural","Natural","","2001/10/07 00:00:00+00","280","1643","0.1","A","35.27638889","-111.62166667","USFS","AZ","5","04005","Coconino County"
"-111.816655573","35.054994653","140013","141408","FS-367611","FED","FS-FIRESTAT","FS","USAZCOF","Coconino National Forest","0304","Coconino National Forest","414","","2300","VENUS","","","","","","2001","2001/10/10 00:00:00+00","283","1530","Natural","Natural","","2001/10/10 00:00:00+00","283","1800","0.5","B","35.055","-111.81666667","USFS","AZ","5","04005","Coconino County"
"-111.76165559","34.983327989","140014","141409","FS-367612","FED","FS-FIRESTAT","FS","USAZCOF","Coconino National Forest","0304","Coconino National Forest","415","","2300","STEEP","","","","","","2001","2001/10/12 00:00:00+00","285","1300","Natural","Natural","","2001/10/12 00:00:00+00","285","1900","0.3","B","34.98333333","-111.76166667","USFS","AZ","5","04005","Coconino County"
"-111.831655578","34.969994665","140015","141410","FS-367613","FED","FS-FIRESTAT","FS","USAZCOF","Coconino National Forest","0304","Coconino National Forest","417","","2300","JOY","","","","","","2001","2001/10/13 00:00:00+00","286","1238","Natural","Natural","","2001/10/13 00:00:00+00","286","1733","0.5","B","34.97","-111.83166667","USFS","AZ","5","04005","Coconino County"
"-111.729988907","35.213327957","140016","141411","FS-367614","FED","FS-FIRESTAT","FS","USAZCOF","Coconino National Forest","0304","Coconino National Forest","418","","2300","TOP","","","","","","2001","2001/10/13 00:00:00+00","286","1215","Human","Smoking","","2001/10/13 00:00:00+00","286","1700","2.5","B","35.21333333","-111.73","USFS","AZ","5","04005","Coconino County"
"-111.688322241","35.254994619","140017","141412","FS-367615","FED","FS-FIRESTAT","FS","USAZCOF","Coconino National Forest","0304","Coconino National Forest","421","","2300","PURPLE","","","","","","2001","2001/10/16 00:00:00+00","289","1255","Human","Recreation and ceremony","","2001/10/16 00:00:00+00","289","1500","0.1","A","35.255","-111.68833333","USFS","AZ","5","04005","Coconino County"
"-111.833322226","35.101661318","140018","141413","FS-367616","FED","FS-FIRESTAT","FS","USAZCOF","Coconino National Forest","0304","Coconino National Forest","423","","2300","STUMPED","","","","","","2001","2001/10/17 00:00:00+00","290","1035","Human","Recreation and ceremony","","2001/10/17 00:00:00+00","290","1130","0.1","A","35.10166667","-111.83333333","USFS","AZ","5","04005","Coconino County"
"-111.793322219","35.268327954","140019","141414","FS-367617","FED","FS-FIRESTAT","FS","USAZCOF","Coconino National Forest","0304","Coconino National Forest","424","","2300","MYSTERIOUS","","","","","","2001","2001/10/18 00:00:00+00","291","0809","Human","Recreation and ceremony","","2001/10/18 00:00:00+00","291","0903","0.1","A","35.26833333","-111.79333333","USFS","AZ","5","04005","Coconino County"
"-111.749988918","35.034994652","140020","141415","FS-367618","FED","FS-FIRESTAT","FS","USAZCOF","Coconino National Forest","0304","Coconino National Forest","425","","2300","DANGEROUS","","","","","","2001","2001/10/18 00:00:00+00","291","1040","Human","Missing data/not specified/undetermined","","2001/10/18 00:00:00+00","291","1815","0.1","A","35.035","-111.75","USFS","AZ","5","04005","Coconino County"
"-111.839988899","35.049994655","140021","141416","FS-367619","FED","FS-FIRESTAT","FS","USAZCOF","Coconino National Forest","0304","Coconino National Forest","426","","2300","GALAXY","","","","","","2001","2001/10/19 00:00:00+00","292","1057","Human","Recreation and ceremony","","2001/10/19 00:00:00+00","292","1720","1","B","35.05","-111.84","USFS","AZ","5","04005","Coconino County"
"-111.744988919","35.038327981","140022","141417","FS-367620","FED","FS-FIRESTAT","FS","USAZCOF","Coconino National Forest","0304","Coconino National Forest","427","","2300","ACCESS","","","","","","2001","2001/10/19 00:00:00+00","292","1049","Human","Recreation and ceremony","","2001/10/19 00:00:00+00","292","1800","2.5","B","35.03833333","-111.745","USFS","AZ","5","04005","Coconino County"
"-111.618322246","35.359716821","140023","141418","FS-367621","FED","FS-FIRESTAT","FS","USAZCOF","Coconino National Forest","0304","Coconino National Forest","431","","2300","SERIES","","","","","","2001","2001/10/26 00:00:00+00","299","0936","Human","Smoking","","2001/10/26 00:00:00+00","299","1130","0.1","A","35.35972222","-111.61833333","USFS","AZ","5","04005","Coconino County"
"-111.534988949","35.169994622","140024","141419","FS-367622","FED","FS-FIRESTAT","FS","USAZCOF","Coconino National Forest","0304","Coconino National Forest","437","","2300","BURN-OUT","","","","","","2001","2001/11/03 00:00:00+00","307","0815","Human","Recreation and ceremony","","2001/11/03 00:00:00+00","307","0945","0.1","A","35.17","-111.535","USFS","AZ","5","04005","Coconino County"
"-83.973329023","37.47499278","140025","141420","FS-367623","FED","FS-FIRESTAT","FS","USKYDBF","Daniel Boone National Forest","0802","Daniel Boone National Forest","141","","4531","BLUE TARP","","","","","","2001","2001/11/16 00:00:00+00","320","1310","Human","Arson/incendiarism","","2001/11/16 00:00:00+00","320","1400","0.1","A","37.475","-83.97333333","USFS","KY","109","21109","Jackson County"
"-83.599995818","37.251381699","140026","141421","FS-367624","FED","FS-FIRESTAT","FS","USKYDBF","Daniel Boone National Forest","0802","Daniel Boone National Forest","75","","4538","SNOW","","","","","","2001","2001/10/27 00:00:00+00","300","0945","Human","Arson/incendiarism","","2001/11/01 00:00:00+00","305","1200","157","D","37.25138889","-83.6","USFS","KY","51","21051","Clay County"
"-84.310273416","36.84693736","140027","141422","FS-367625","FED","FS-FIRESTAT","FS","USKYDBF","Daniel Boone National Forest","0802","Daniel Boone National Forest","140","","4532","DRY BRIDGE","","","","","","2001","2001/11/16 00:00:00+00","320","0030","Human","Arson/incendiarism","","2001/11/17 00:00:00+00","321","1400","0.5","B","36.84694444","-84.31027778","USFS","KY","235","21235","Whitley County"
"-83.452218095","37.051659513","140028","141423","FS-367626","FED","FS-FIRESTAT","FS","USKYDBF","Daniel Boone National Forest","0802","Daniel Boone National Forest","68","","4533","STINNETT 1","","","","","","2001","2001/10/24 00:00:00+00","297","1830","Human","Arson/incendiarism","","2001/10/28 00:00:00+00","301","1630","12","C","37.05166667","-83.45222222","USFS","KY","131","21131","Leslie County"
"-83.451940315","37.051103953","140029","141424","FS-367627","FED","FS-FIRESTAT","FS","USKYDBF","Daniel Boone National Forest","0802","Daniel Boone National Forest","69","","4533","STINNETT 2","","","","","","2001","2001/10/25 00:00:00+00","298","1230","Human","Arson/incendiarism","","2001/10/28 00:00:00+00","301","1500","12","C","37.05111111","-83.45194444","USFS","KY","131","21131","Leslie County"
"-84.129995656","37.336659485","140030","141425","FS-367628","FED","FS-FIRESTAT","FS","USKYDBF","Daniel Boone National Forest","0802","Daniel Boone National Forest","145","","4546","LAUREL BRANCH III","2001_KY-DBF-02102_LAUREL BRANCH III","","","","","2001","2001/11/17 00:00:00+00","321","2130","Human","Arson/incendiarism","","2001/11/20 00:00:00+00","324","1600","306","E","37.33666667","-84.13","STATE OR PRIVATE","KY","109","21109","Jackson County"
"-83.552495831","37.268603913","140031","141426","FS-367629","FED","FS-FIRESTAT","FS","USKYDBF","Daniel Boone National Forest","0802","Daniel Boone National Forest","71","","4533","CHERRY TREE","","","","","","2001","2001/10/26 00:00:00+00","299","1539","Human","Arson/incendiarism","","2001/11/01 00:00:00+00","305","1200","50","C","37.26861111","-83.5525","USFS","KY","189","21189","Owsley County"
"-84.076662334","37.453326119","140032","141427","FS-367630","FED","FS-FIRESTAT","FS","USKYDBF","Daniel Boone National Forest","0802","Daniel Boone National Forest","146","","4531","WALKER BRANCH I","","","","","","2001","2001/11/19 00:00:00+00","323","1315","Human","Arson/incendiarism","","2001/11/20 00:00:00+00","324","1200","0.2","A","37.45333333","-84.07666667","USFS","KY","109","21109","Jackson County"
"-84.083328992","37.44832612","140033","141428","FS-367631","FED","FS-FIRESTAT","FS","USKYDBF","Daniel Boone National Forest","0802","Daniel Boone National Forest","147","","4532","WALKER BRANCH II","","","","","","2001","2001/11/19 00:00:00+00","323","1315","Human","Arson/incendiarism","","2001/11/20 00:00:00+00","324","1200","1","B","37.44833333","-84.08333333","USFS","KY","109","21109","Jackson County"
"-83.979995696","37.398326126","140034","141429","FS-367632","FED","FS-FIRESTAT","FS","USKYDBF","Daniel Boone National Forest","0802","Daniel Boone National Forest","148","","4532","MILL CREEK","","","","","","2001","2001/11/21 00:00:00+00","325","1700","Human","Arson/incendiarism","","2001/11/22 00:00:00+00","326","1600","2","B","37.39833333","-83.98","USFS","KY","109","21109","Jackson County"
"-114.613321279","39.074994356","140035","141430","FS-367633","FED","FS-FIRESTAT","FS","USNVHTF","Humboldt-Toiyabe National Forest","0409","Humboldt National Forest","931","","4503","DOG HOUSE","","","","","","2001","2001/08/12 00:00:00+00","224","1850","Natural","Natural","","2001/08/13 00:00:00+00","225","0600","0.1","A","39.075","-114.61333333","USFS","NV","","",""
"-114.717487916","39.188049911","140036","141431","FS-367634","FED","FS-FIRESTAT","FS","USNVHTF","Humboldt-Toiyabe National Forest","0409","Humboldt National Forest","932","","4503","ELK FLATS","","","","","","2001","2001/08/13 00:00:00+00","225","1900","Natural","Natural","","2001/08/13 00:00:00+00","225","2000","0.3","B","39.18805556","-114.7175","USFS","NV","","",""
"-115.71665454","38.01055011","140037","141432","FS-367635","FED","FS-FIRESTAT","FS","USNVHTF","Humboldt-Toiyabe National Forest","0409","Humboldt National Forest","933","","4633","CEDAR SPRINGS","","","","","","2001","2001/08/16 00:00:00+00","228","1440","Natural","Natural","","2001/08/17 00:00:00+00","229","0600","40","C","38.01055556","-115.71666667","USFS","NV","","",""
"-114.918321206","39.206661034","140038","141433","FS-367636","FED","FS-FIRESTAT","FS","USNVHTF","Humboldt-Toiyabe National Forest","0409","Humboldt National Forest","934","","4503","WAPITI","","","","","","2001","2001/08/16 00:00:00+00","228","1830","Natural","Natural","","2001/08/17 00:00:00+00","229","0900","0.1","A","39.20666667","-114.91833333","USFS","NV","","",""
"-117.198042682","41.663883195","140039","141434","FS-367637","FED","FS-FIRESTAT","FS","USNVHTF","Humboldt-Toiyabe National Forest","0409","Humboldt National Forest","935","","4660","UPPER WILLOW CREEK","2001_NV-2HTF-P44660_UPPER WILLOW","","NV4168911761620010817","UPPER WILLOW","","2001","2001/08/17 00:00:00+00","229","1215","Human","Power generation/transmission/distribution","","2001/08/25 00:00:00+00","237","1800","41830","G","41.66388889","-117.19805556","MISSING/NOT SPECIFIED","NV","13","32013","Humboldt County"
"-114.646654587","39.283327666","140040","141435","FS-367638","FED","FS-FIRESTAT","FS","USNVHTF","Humboldt-Toiyabe National Forest","0409","Humboldt National Forest","936","","4637","KOLCHECK","","","","","","2001","2001/08/19 00:00:00+00","231","1900","Natural","Natural","","2001/08/21 00:00:00+00","233","0900","0.5","B","39.28333333","-114.64666667","USFS","NV","","",""
"-115.413599006","38.270550061","140041","141436","FS-367639","FED","FS-FIRESTAT","FS","USNVHTF","Humboldt-Toiyabe National Forest","0409","Humboldt National Forest","937","","4690","SCHOFIELD","","","NV3827811540320010828","SCHOFIELD","","2001","2001/08/28 00:00:00+00","240","1920","Natural","Natural","","2001/08/29 00:00:00+00","241","1900","150","D","38.27055556","-115.41361111","USFS","NV","","",""
"-114.564987907","39.487216528","140042","141437","FS-367640","FED","FS-FIRESTAT","FS","USNVHTF","Humboldt-Toiyabe National Forest","0409","Humboldt National Forest","938","","4692","PIERMONT","","","","","","2001","2001/08/29 00:00:00+00","241","1300","Natural","Natural","","2001/08/31 00:00:00+00","243","1600","20","C","39.48722222","-114.565","USFS","NV","","",""
"-115.251654519","38.91749442","140043","141438","FS-367641","FED","FS-FIRESTAT","FS","USNVHTF","Humboldt-Toiyabe National Forest","0409","Humboldt National Forest","939","","4503","SMALL TREES 1","","","","","","2001","2001/08/29 00:00:00+00","241","1400","Natural","Natural","","2001/08/30 00:00:00+00","242","1600","0.1","A","38.9175","-115.25166667","USFS","NV","","",""
"-115.491654538","38.389438934","140044","141439","FS-367642","FED","FS-FIRESTAT","FS","USNVHTF","Humboldt-Toiyabe National Forest","0409","Humboldt National Forest","940","","4694","TROY PEAK","","","","","","2001","2001/08/30 00:00:00+00","242","1330","Natural","Natural","","2001/08/30 00:00:00+00","242","2230","0.1","A","38.38944444","-115.49166667","USFS","NV","","",""
"-103.527767492","43.69165962","140045","141440","FS-367643","FED","FS-FIRESTAT","FS","USSDBKF","Black Hills National Forest","0203","Black Hills National Forest","40","","0909","HERBERT DRAW","","","","","","2001","2001/06/18 00:00:00+00","169","1230","Natural","Natural","","2001/06/18 00:00:00+00","169","1900","8","B","43.69166667","-103.52777778","USFS","SD","","",""
"-103.969711702","44.480548448","140046","141441","FS-367644","FED","FS-FIRESTAT","FS","USSDBKF","Black Hills National Forest","0203","Black Hills National Forest","42","","0911","CROW PEAK","","","","","","2001","2001/06/24 00:00:00+00","175","2015","Natural","Natural","","2001/06/25 00:00:00+00","176","1900","1","B","44.48055556","-103.96972222","USFS","SD","","",""
"-103.48665636","43.90499292","140047","141442","FS-367645","FED","FS-FIRESTAT","FS","USSDBKF","Black Hills National Forest","0203","Black Hills National Forest","48","","0917","BIG PINE","","","","","","2001","2001/06/29 00:00:00+00","180","1200","Human","Recreation and ceremony","","2001/06/29 00:00:00+00","180","1220","0.1","A","43.905","-103.48666667","USFS","SD","","",""
"-103.483322995","44.074992899","140048","141443","FS-367646","FED","FS-FIRESTAT","FS","USSDBKF","Black Hills National Forest","0203","Black Hills National Forest","47","","0916","ALCATRAZ","","","","","","2001","2001/06/28 00:00:00+00","179","2200","Human","Recreation and ceremony","","2001/06/28 00:00:00+00","179","2330","0.1","A","44.075","-103.48333333","USFS","SD","","",""
"-103.463322988","44.146659558","140049","141444","FS-367647","FED","FS-FIRESTAT","FS","USSDBKF","Black Hills National Forest","0203","Black Hills National Forest","49","","0918","WRINKLE ROCK","","","","","","2001","2001/07/01 00:00:00+00","182","1230","Human","Recreation and ceremony","","2001/07/01 00:00:00+00","182","1345","0.1","A","44.14666667","-103.46333333","USFS","SD","","",""
"-103.55943415","43.655826287","140050","141445","FS-367648","FED","FS-FIRESTAT","FS","USSDBKF","Black Hills National Forest","0203","Black Hills National Forest","44","","0913","BOWMAN II","","","","","","2001","2001/06/25 00:00:00+00","176","1215","Natural","Natural","","2001/06/26 00:00:00+00","177","0001","3","B","43.65583333","-103.55944444","USFS","SD","","",""
"-103.625267484","43.587492971","140051","141446","FS-367649","FED","FS-FIRESTAT","FS","USSDBKF","Black Hills National Forest","0203","Black Hills National Forest","45","","0914","UPPER HAND SPRING II","","","","","","2001","2001/06/26 00:00:00+00","177","0800","Natural","Natural","","2001/06/26 00:00:00+00","177","1530","0.5","B","43.5875","-103.62527778","USFS","SD","","",""
"-103.553600736","44.214715107","140052","141447","FS-367650","FED","FS-FIRESTAT","FS","USSDBKF","Black Hills National Forest","0203","Black Hills National Forest","46","","0915","BOXELDER CREEK","","","","","","2001","2001/06/28 00:00:00+00","179","1322","Human","Power generation/transmission/distribution","","2001/06/28 00:00:00+00","179","2100","1","B","44.21472222","-103.55361111","USFS","SD","","",""
"-118.85748645","43.952494264","140053","141448","FS-367651","FED","FS-FIRESTAT","FS","USORMAF","Malheur National Forest","0604","Malheur National Forest","278","","2433","OR-BFZ-2606","","","","","","2001","2001/11/19 00:00:00+00","323","1338","Human","Recreation and ceremony","","2001/11/19 00:00:00+00","323","1509","0.1","A","43.9525","-118.8575","USFS","OR","","",""
"-118.236097612","44.263883071","140054","141449","FS-367652","FED","FS-FIRESTAT","FS","USORMAF","Malheur National Forest","0604","Malheur National Forest","118","","2116","OR-MAF-257  CAMP CRK","","","","","","2001","2001/08/15 00:00:00+00","227","1215","Natural","Natural","","2001/08/20 00:00:00+00","232","1800","106","D","44.26388889","-118.23611111","USFS","OR","","",""
"-104.016656143","44.464159564","140055","141450","FS-367653","FED","FS-FIRESTAT","FS","USSDBKF","Black Hills National Forest","0203","Black Hills National Forest","43","","0912","BEAVER","","","","","","2001","2001/06/24 00:00:00+00","175","2100","Natural","Natural","","2001/06/28 00:00:00+00","179","1630","47","C","44.46416667","-104.01666667","USFS","SD","","",""
"-119.543041904","43.889438774","140056","141451","FS-367654","FED","FS-FIRESTAT","FS","USORMAF","Malheur National Forest","0604","Malheur National Forest","276","","2431","OR-BFZ-2604","","","","","","2001","2001/11/19 00:00:00+00","323","0645","Human","Recreation and ceremony","","2001/11/19 00:00:00+00","323","1030","0.1","A","43.88944444","-119.54305556","USFS","OR","","",""
"-118.634708583","44.634160861","140057","141452","FS-367655","FED","FS-FIRESTAT","FS","USORMAF","Malheur National Forest","0604","Malheur National Forest","265","","2136","OR-MAF-355","","","","","","2001","2001/11/03 00:00:00+00","307","0919","Human","Recreation and ceremony","","2001/11/03 00:00:00+00","307","1145","0.1","A","44.63416667","-118.63472222","USFS","OR","","",""
"-119.016652966","44.633605338","140058","141453","FS-367656","FED","FS-FIRESTAT","FS","USORMAF","Malheur National Forest","0604","Malheur National Forest","256","","2135","OR-MAF-353","","","","","","2001","2001/10/28 00:00:00+00","301","1500","Human","Recreation and ceremony","","2001/10/28 00:00:00+00","301","1925","0.1","A","44.63361111","-119.01666667","USFS","OR","","",""
"-118.834153095","44.116938689","140059","141454","FS-367657","FED","FS-FIRESTAT","FS","USORMAF","Malheur National Forest","0604","Malheur National Forest","266","","2137","OR-MAF-356","","","","","","2001","2001/11/04 00:00:00+00","308","1104","Human","Recreation and ceremony","","2001/11/04 00:00:00+00","308","1501","0.1","A","44.11694444","-118.83416667","USFS","OR","","",""
"-119.301097363","44.601383148","140060","141455","FS-367658","FED","FS-FIRESTAT","FS","USORMAF","Malheur National Forest","0604","Malheur National Forest","268","","2139","OR-MAF-359","","","","","","2001","2001/11/06 00:00:00+00","310","1730","Human","Recreation and ceremony","","2001/11/07 00:00:00+00","311","1200","0.1","A","44.60138889","-119.30111111","USFS","OR","","",""
"-118.867208605","44.301383128","140061","141456","FS-367659","FED","FS-FIRESTAT","FS","USORMAF","Malheur National Forest","0604","Malheur National Forest","273","","2141","OR-MAF-363","","","","","","2001","2001/11/09 00:00:00+00","313","1400","Human","Recreation and ceremony","","2001/11/10 00:00:00+00","314","1300","2","B","44.30138889","-118.86722222","USFS","OR","","",""
"-118.683597465","44.633327526","140062","141457","FS-367660","FED","FS-FIRESTAT","FS","USORMAF","Malheur National Forest","0604","Malheur National Forest","274","","2142","OR-MAF-364","","","","","","2001","2001/11/09 00:00:00+00","313","1413","Human","Recreation and ceremony","","2001/11/09 00:00:00+00","313","1555","0.1","A","44.63333333","-118.68361111","USFS","OR","","",""
"-119.333597418","44.283883174","140063","141458","FS-367661","FED","FS-FIRESTAT","FS","USORMAF","Malheur National Forest","0604","Malheur National Forest","280","","2144","OR-MAF-367","","","","","","2001","2001/11/19 00:00:00+00","323","1243","Human","Recreation and ceremony","","2001/11/19 00:00:00+00","323","1400","0.1","A","44.28388889","-119.33361111","USFS","OR","","",""
"-120.881375263","42.441939005","140064","141459","FS-367662","FED","FS-FIRESTAT","FS","USORFWF","Fremont-Winema National Forest","0602","Fremont-Winema National Forest","91","","0001","WHISKEY","","","","","","2001","2001/09/12 00:00:00+00","255","1730","Natural","Natural","","2001/09/12 00:00:00+00","255","2359","0.5","B","42.44194444","-120.88138889","USFS","OR","","",""
"-121.169708532","42.528327914","140065","141460","FS-367663","FED","FS-FIRESTAT","FS","USORFWF","Fremont-Winema National Forest","0602","Fremont-Winema National Forest","93","","0001","FOSTER","","","","","","2001","2001/09/12 00:00:00+00","255","1830","Natural","Natural","","2001/09/13 00:00:00+00","256","1500","0.1","A","42.52833333","-121.16972222","USFS","OR","","",""
"-121.247764103","42.385550162","140066","141461","FS-367664","FED","FS-FIRESTAT","FS","USORFWF","Fremont-Winema National Forest","0602","Fremont-Winema National Forest","95","","0001","SLEEPINGIKE","","","","","","2001","2001/09/16 00:00:00+00","259","1700","Natural","Natural","","2001/09/17 00:00:00+00","260","1400","0.5","B","42.38555556","-121.24777778","USFS","OR","","",""
"-121.185541842","42.693050134","140067","141462","FS-367665","FED","FS-FIRESTAT","FS","USORFWF","Fremont-Winema National Forest","0602","Fremont-Winema National Forest","99","","0001","ESTATE","","","","","","2001","2001/08/10 00:00:00+00","222","1700","Natural","Natural","","2001/08/11 00:00:00+00","223","1300","1","B","42.69305556","-121.18555556","MISSING/NOT SPECIFIED","OR","","",""
"-120.8708197","42.467216782","140068","141463","FS-367666","FED","FS-FIRESTAT","FS","USORFWF","Fremont-Winema National Forest","0602","Fremont-Winema National Forest","92","","0001","MACHOE","","","","","","2001","2001/09/12 00:00:00+00","255","1745","Natural","Natural","","2001/09/12 00:00:00+00","255","2300","0.1","A","42.46722222","-120.87083333","USFS","OR","","",""
"-118.434153078","44.583605286","140069","141464","FS-367668","FED","FS-FIRESTAT","FS","USORMAF","Malheur National Forest","0604","Malheur National Forest","267","","2138","OR-MAF-358","","","","","","2001","2001/11/06 00:00:00+00","310","1355","Human","Recreation and ceremony","","2001/11/06 00:00:00+00","310","1523","0.1","A","44.58361111","-118.43416667","STATE OR PRIVATE","OR","","",""
"-118.801097528","44.183327571","140070","141465","FS-367669","FED","FS-FIRESTAT","FS","USORMAF","Malheur National Forest","0604","Malheur National Forest","281","","2145","OR-MAF-368","","","","","","2001","2001/11/19 00:00:00+00","323","1308","Human","Recreation and ceremony","","2001/11/19 00:00:00+00","323","1501","0.1","A","44.18333333","-118.80111111","USFS","OR","","",""
"-123.201375219","40.402494915","140071","141466","FS-367670","FED","FS-FIRESTAT","FS","USCASHF","Shasta-Trinity National Forest","0514","Shasta-Trinity National Forest","7","","6308","OAK","","","","","","2001","2001/04/26 00:00:00+00","116","1230","Human","Debris and open burning","","2001/04/26 00:00:00+00","116","1600","0.7","B","40.4025","-123.20138889","STATE OR PRIVATE","CA","","",""
"-123.216652946","40.749994892","140072","141467","FS-367671","FED","FS-FIRESTAT","FS","USCASHF","Shasta-Trinity National Forest","0514","Shasta-Trinity National Forest","24","","6326","BIG","2001_CA-SHF-1523_BIG","","","","","2001","2001/06/02 00:00:00+00","153","1355","Human","Missing data/not specified/undetermined","","2001/06/05 00:00:00+00","156","0800","800","E","40.75","-123.21666667","USFS","CA","","",""
"-122.101930834","41.085272552","140073","141468","FS-367672","FED","FS-FIRESTAT","FS","USCASHF","Shasta-Trinity National Forest","0514","Shasta-Trinity National Forest","104","","6300","CREEK II","","","","","","2001","2001/09/05 00:00:00+00","248","1300","Human","Recreation and ceremony","","2001/09/05 00:00:00+00","248","1430","0.1","A","41.08527778","-122.10194444","USFS","CA","","",""
"-122.233319707","41.066661455","140074","141469","FS-367673","FED","FS-FIRESTAT","FS","USCASHF","Shasta-Trinity National Forest","0514","Shasta-Trinity National Forest","120","","6300","BEAR","","","","","","2001","2001/09/17 00:00:00+00","260","0730","Natural","Natural","","2001/09/17 00:00:00+00","260","2000","0.1","A","41.06666667","-122.23333333","USFS","CA","","",""
"-123.624708409","40.938050474","140075","141470","FS-367674","FED","FS-FIRESTAT","FS","USCASRF","Six Rivers National Forest","0510","Six Rivers National Forest","72","","7100","CINNABAR","","","","","","2001","2001/09/08 00:00:00+00","251","1530","Human","Equipment and vehicle use","","2001/09/08 00:00:00+00","251","1543","0.1","A","40.93805556","-123.62472222","STATE OR PRIVATE","CA","","",""
"-123.450541821","40.617494921","140076","141471","FS-367675","FED","FS-FIRESTAT","FS","USCASHF","Shasta-Trinity National Forest","0514","Shasta-Trinity National Forest","32","","6352","POM","","","","","","2001","2001/07/02 00:00:00+00","183","1820","Human","Missing data/not specified/undetermined","","2001/07/02 00:00:00+00","183","1845","0.1","A","40.6175","-123.45055556","STATE OR PRIVATE","CA","","",""
"-122.685819651","40.98499483","140077","141472","FS-367676","FED","FS-FIRESTAT","FS","USCASHF","Shasta-Trinity National Forest","0514","Shasta-Trinity National Forest","34","","6300","WYNTOON","","","","","","2001","2001/07/08 00:00:00+00","189","0930","Human","Misuse of fire by a minor","Minor","2001/07/08 00:00:00+00","189","1300","0.1","A","40.985","-122.68583333","USFS","CA","","",""
"-122.766653007","40.788883741","140078","141473","FS-367677","FED","FS-FIRESTAT","FS","USCASHF","Shasta-Trinity National Forest","0514","Shasta-Trinity National Forest","114","","6427","ACKERMAN","","","","","","2001","2001/09/15 00:00:00+00","258","0400","Human","Recreation and ceremony","","2001/09/15 00:00:00+00","258","0430","0.1","A","40.78888889","-122.76666667","USFS","CA","","",""
"-123.068041818","41.01805042","140079","141474","FS-367678","FED","FS-FIRESTAT","FS","USCASHF","Shasta-Trinity National Forest","0514","Shasta-Trinity National Forest","115","","6300","RATTLE","","","","","","2001","2001/09/15 00:00:00+00","258","0900","Natural","Natural","","2001/09/16 00:00:00+00","259","0700","0.5","B","41.01805556","-123.06805556","USFS","CA","","",""
"-122.934986256","41.168328168","140080","141475","FS-367679","FED","FS-FIRESTAT","FS","USCASHF","Shasta-Trinity National Forest","0514","Shasta-Trinity National Forest","29","","6300","LONG","","","","","","2001","2001/06/22 00:00:00+00","173","1500","Human","Recreation and ceremony","","2001/06/22 00:00:00+00","173","1800","0.5","B","41.16833333","-122.935","USFS","CA","","",""
"-122.941375188","40.879161529","140081","141476","FS-367680","FED","FS-FIRESTAT","FS","USCASHF","Shasta-Trinity National Forest","0514","Shasta-Trinity National Forest","2","","6300","BALLY","","","","","","2001","2001/03/21 00:00:00+00","80","1730","Natural","Natural","","2001/03/22 00:00:00+00","81","1801","0.1","A","40.87916667","-122.94138889","USFS","CA","","",""
"-123.433875132","40.768050469","140082","141477","FS-367681","FED","FS-FIRESTAT","FS","USCASHF","Shasta-Trinity National Forest","0514","Shasta-Trinity National Forest","3","","6300","ROCK","","","","","","2001","2001/03/23 00:00:00+00","82","1000","Natural","Natural","","2001/03/25 00:00:00+00","84","2355","0.1","A","40.76805556","-123.43388889","USFS","CA","","",""
"-123.016930796","40.40166157","140083","141478","FS-367682","FED","FS-FIRESTAT","FS","USCASHF","Shasta-Trinity National Forest","0514","Shasta-Trinity National Forest","4","","6300","WILDWOOD","","","","","","2001","2001/04/01 00:00:00+00","91","1726","Human","Other causes","","2001/04/01 00:00:00+00","91","2100","0.1","A","40.40166667","-123.01694444","STATE OR PRIVATE","CA","","",""
"-122.33415297","41.469161435","140084","141479","FS-367683","FED","FS-FIRESTAT","FS","USCASHF","Shasta-Trinity National Forest","0514","Shasta-Trinity National Forest","5","","6300","HOTLUM","","","","","","2001","2001/04/02 00:00:00+00","92","1900","Human","Arson/incendiarism","","2001/04/02 00:00:00+00","92","2010","0.1","A","41.46916667","-122.33416667","USFS","CA","","",""
"-122.066653035","41.313883643","140085","141480","FS-367684","FED","FS-FIRESTAT","FS","USCASHF","Shasta-Trinity National Forest","0514","Shasta-Trinity National Forest","6","","6300","SHASTA","","","","","","2001","2001/04/06 00:00:00+00","96","1515","Human","Other causes","","2001/04/06 00:00:00+00","96","1520","0.1","A","41.31388889","-122.06666667","STATE OR PRIVATE","CA","","",""
"-123.302208539","40.367217146","140086","141481","FS-367685","FED","FS-FIRESTAT","FS","USCASHF","Shasta-Trinity National Forest","0514","Shasta-Trinity National Forest","8","","6300","GATES","","","","","","2001","2001/04/29 00:00:00+00","119","1245","Human","Recreation and ceremony","","2001/04/29 00:00:00+00","119","1300","0.1","A","40.36722222","-123.30222222","USFS","CA","","",""
"-122.419153051","40.850272597","140087","141482","FS-367686","FED","FS-FIRESTAT","FS","USCASHF","Shasta-Trinity National Forest","0514","Shasta-Trinity National Forest","9","","6300","OLD MAN","","","","","","2001","2001/05/01 00:00:00+00","121","2100","Human","Missing data/not specified/undetermined","","2001/05/01 00:00:00+00","121","2130","0.1","A","40.85027778","-122.41916667","USFS","CA","","",""
"-122.099986392","41.099994771","140088","141483","FS-367687","FED","FS-FIRESTAT","FS","USCASHF","Shasta-Trinity National Forest","0514","Shasta-Trinity National Forest","10","","6300","AH-DI-NA","","","","","","2001","2001/05/04 00:00:00+00","124","1929","Human","Equipment and vehicle use","","2001/05/04 00:00:00+00","124","1951","0.1","A","41.1","-122.1","USFS","CA","","",""
"-122.384153054","40.867494812","140089","141484","FS-367688","FED","FS-FIRESTAT","FS","USCASHF","Shasta-Trinity National Forest","0514","Shasta-Trinity National Forest","11","","6310","SHASTA","","","","","","2001","2001/05/11 00:00:00+00","131","1040","Human","Debris and open burning","","2001/05/11 00:00:00+00","131","1115","0.1","A","40.8675","-122.38416667","USFS","CA","","",""
"-122.666653004","40.916661503","140090","141485","FS-367689","FED","FS-FIRESTAT","FS","USCASHF","Shasta-Trinity National Forest","0514","Shasta-Trinity National Forest","12","","6300","HAY","","","","","","2001","2001/05/13 00:00:00+00","133","1200","Human","Missing data/not specified/undetermined","","2001/05/13 00:00:00+00","133","1710","0.1","A","40.91666667","-122.66666667","USFS","CA","","",""
"-121.983319705","41.333328074","140091","141486","FS-367690","FED","FS-FIRESTAT","FS","USCASHF","Shasta-Trinity National Forest","0514","Shasta-Trinity National Forest","13","","6317","SAND","","","","","","2001","2001/05/27 00:00:00+00","147","1005","Human","Recreation and ceremony","","2001/05/27 00:00:00+00","147","1300","0.2","A","41.33333333","-121.98333333","USFS","CA","","",""
"-122.249986409","40.833328134","140092","141487","FS-367691","FED","FS-FIRESTAT","FS","USCASHF","Shasta-Trinity National Forest","0514","Shasta-Trinity National Forest","14","","6318","SMUGGLER","","","","","","2001","2001/05/27 00:00:00+00","147","0915","Human","Debris and open burning","","2001/05/27 00:00:00+00","147","1100","0.1","A","40.83333333","-122.25","USFS","CA","","",""
"-122.366930826","40.869161481","140093","141488","FS-367692","FED","FS-FIRESTAT","FS","USCASHF","Shasta-Trinity National Forest","0514","Shasta-Trinity National Forest","15","","6300","OREGON","","","","","","2001","2001/05/28 00:00:00+00","148","1300","Human","Recreation and ceremony","","2001/05/28 00:00:00+00","148","1430","0.1","A","40.86916667","-122.36694444","USFS","CA","","",""
"-123.05220852","40.751105988","140094","141489","FS-367693","FED","FS-FIRESTAT","FS","USCASHF","Shasta-Trinity National Forest","0514","Shasta-Trinity National Forest","16","","6300","VALDOR","","","","","","2001","2001/05/28 00:00:00+00","148","1800","Human","Misuse of fire by a minor","Minor","2001/05/28 00:00:00+00","148","2000","0.1","A","40.75111111","-123.05222222","STATE OR PRIVATE","CA","","",""
"-123.301375212","40.352494927","140095","141490","FS-367694","FED","FS-FIRESTAT","FS","USCASHF","Shasta-Trinity National Forest","0514","Shasta-Trinity National Forest","17","","6300","SCOTT FLAT","","","","","","2001","2001/05/29 00:00:00+00","149","1645","Human","Recreation and ceremony","","2001/05/29 00:00:00+00","149","1700","0.1","A","40.3525","-123.30138889","STATE OR PRIVATE","CA","","",""
"-123.301375212","40.352494927","140096","141491","FS-367695","FED","FS-FIRESTAT","FS","USCASHF","Shasta-Trinity National Forest","0514","Shasta-Trinity National Forest","18","","6300","SCOTT","","","","","","2001","2001/05/28 00:00:00+00","148","1645","Human","Recreation and ceremony","","2001/05/28 00:00:00+00","148","1700","0.1","A","40.3525","-123.30138889","STATE OR PRIVATE","CA","","",""
"-122.951097483","40.351383788","140097","141492","FS-367696","FED","FS-FIRESTAT","FS","USCASHF","Shasta-Trinity National Forest","0514","Shasta-Trinity National Forest","19","","6300","BASIN","","","","","","2001","2001/05/28 00:00:00+00","148","1200","Human","Recreation and ceremony","","2001/05/28 00:00:00+00","148","1220","0.1","A","40.35138889","-122.95111111","STATE OR PRIVATE","CA","","",""
"-123.03443077","40.566939329","140098","141493","FS-367697","FED","FS-FIRESTAT","FS","USCASHF","Shasta-Trinity National Forest","0514","Shasta-Trinity National Forest","20","","6343","SUMMIT","","","","","","2001","2001/05/29 00:00:00+00","149","0515","Human","Missing data/not specified/undetermined","","2001/05/29 00:00:00+00","149","0525","0.1","A","40.56694444","-123.03444444","STATE OR PRIVATE","CA","","",""
"-122.716652986","40.983328163","140099","141494","FS-367698","FED","FS-FIRESTAT","FS","USCASHF","Shasta-Trinity National Forest","0514","Shasta-Trinity National Forest","21","","6324","RANCHERIA","","","","","","2001","2001/05/31 00:00:00+00","151","0900","Human","Debris and open burning","","2001/05/31 00:00:00+00","151","1005","0.1","A","40.98333333","-122.71666667","STATE OR PRIVATE","CA","","",""
"-122.369153053","40.88416148","140100","141495","FS-367699","FED","FS-FIRESTAT","FS","USCASHF","Shasta-Trinity National Forest","0514","Shasta-Trinity National Forest","22","","6300","ANTLER","","","","","","2001","2001/05/31 00:00:00+00","151","1755","Human","Arson/incendiarism","","2001/05/31 00:00:00+00","151","1820","0.1","A","40.88416667","-122.36916667","STATE OR PRIVATE","CA","","",""
"-122.285264134","41.167217002","140101","141496","FS-367700","FED","FS-FIRESTAT","FS","USCASHF","Shasta-Trinity National Forest","0514","Shasta-Trinity National Forest","23","","6300","CASTLE","","","","","","2001","2001/06/01 00:00:00+00","152","1500","Human","Debris and open burning","","2001/06/01 00:00:00+00","152","1745","0.1","A","41.16722222","-122.28527778","STATE OR PRIVATE","CA","","",""
"-123.118319674","40.3838838","140102","141497","FS-367701","FED","FS-FIRESTAT","FS","USCASHF","Shasta-Trinity National Forest","0514","Shasta-Trinity National Forest","25","","6300","SALT","","","","","","2001","2001/06/10 00:00:00+00","161","1258","Human","Arson/incendiarism","","2001/06/10 00:00:00+00","161","1630","0.1","A","40.38388889","-123.11833333","USFS","CA","","",""
"-122.751097406","41.085272608","140103","141498","FS-367702","FED","FS-FIRESTAT","FS","USCASHF","Shasta-Trinity National Forest","0514","Shasta-Trinity National Forest","26","","6334","COFFEE","","","","","","2001","2001/06/12 00:00:00+00","163","0530","Human","Equipment and vehicle use","","2001/06/12 00:00:00+00","163","1000","1.5","B","41.08527778","-122.75111111","STATE OR PRIVATE","CA","","",""
"-122.349986357","41.083328124","140104","141499","FS-367703","FED","FS-FIRESTAT","FS","USCASHF","Shasta-Trinity National Forest","0514","Shasta-Trinity National Forest","27","","6300","CONANT","","","","","","2001","2001/06/12 00:00:00+00","163","1100","Human","Equipment and vehicle use","","2001/06/12 00:00:00+00","163","1345","0.1","A","41.08333333","-122.35","STATE OR PRIVATE","CA","","",""
"-121.690264171","41.523328034","140105","141500","FS-367704","FED","FS-FIRESTAT","FS","USCASHF","Shasta-Trinity National Forest","0514","Shasta-Trinity National Forest","28","","6343","GRASSHOPPER","","","","","","2001","2001/06/20 00:00:00+00","171","1225","Human","Debris and open burning","","2001/06/20 00:00:00+00","171","1630","0.1","A","41.52333333","-121.69027778","USFS","CA","","",""
"-123.417486297","40.401939373","140106","141501","FS-367705","FED","FS-FIRESTAT","FS","USCASHF","Shasta-Trinity National Forest","0514","Shasta-Trinity National Forest","1","","6300","HIDDEN","","","","","","2001","2001/03/19 00:00:00+00","78","1245","Human","Debris and open burning","","2001/03/19 00:00:00+00","78","1601","0.5","B","40.40194444","-123.4175","USFS","CA","","",""
"-121.697208632","41.380550276","140107","141502","FS-367706","FED","FS-FIRESTAT","FS","USCASHF","Shasta-Trinity National Forest","0514","Shasta-Trinity National Forest","30","","6300","MUD","","","","","","2001","2001/06/22 00:00:00+00","173","2200","Human","Recreation and ceremony","","2001/06/22 00:00:00+00","173","2245","0.1","A","41.38055556","-121.69722222","USFS","CA","","",""
"-123.333875204","40.368328259","140108","141503","FS-367707","FED","FS-FIRESTAT","FS","USCASHF","Shasta-Trinity National Forest","0514","Shasta-Trinity National Forest","33","","6300","GLEN","","","","","","2001","2001/07/08 00:00:00+00","189","1600","Human","Recreation and ceremony","","2001/07/08 00:00:00+00","189","1615","0.1","A","40.36833333","-123.33388889","USFS","CA","","",""
"-122.983597474","40.380550458","140109","141504","FS-367708","FED","FS-FIRESTAT","FS","USCASHF","Shasta-Trinity National Forest","0514","Shasta-Trinity National Forest","37","","6358","MCKINLEY","","","","","","2001","2001/07/09 00:00:00+00","190","2230","Human","Arson/incendiarism","","2001/07/10 00:00:00+00","191","1800","4","B","40.38055556","-122.98361111","USFS","CA","","",""
"-123.167486288","40.71832822","140110","141505","FS-367709","FED","FS-FIRESTAT","FS","USCASHF","Shasta-Trinity National Forest","0514","Shasta-Trinity National Forest","38","","6300","SAILOR","","","","","","2001","2001/07/10 00:00:00+00","191","1500","Natural","Natural","","2001/07/10 00:00:00+00","191","2359","0.1","A","40.71833333","-123.1675","USFS","CA","","",""
"-123.150819626","40.685272671","140111","141506","FS-367710","FED","FS-FIRESTAT","FS","USCASHF","Shasta-Trinity National Forest","0514","Shasta-Trinity National Forest","39","","6300","DIVIDE","","","","","","2001","2001/07/10 00:00:00+00","191","1500","Natural","Natural","","2001/07/10 00:00:00+00","191","2100","0.1","A","40.68527778","-123.15083333","USFS","CA","","",""
"-123.285264046","40.751939338","140112","141507","FS-367711","FED","FS-FIRESTAT","FS","USCASHF","Shasta-Trinity National Forest","0514","Shasta-Trinity National Forest","40","","6300","MONKEY","","","","","","2001","2001/07/11 00:00:00+00","192","0515","Natural","Natural","","2001/07/12 00:00:00+00","193","0700","1","B","40.75194444","-123.28527778","USFS","CA","","",""
"-123.051097483","40.250828244","140113","141508","FS-367712","FED","FS-FIRESTAT","FS","USCASHF","Shasta-Trinity National Forest","0514","Shasta-Trinity National Forest","42","","6300","SHELL","","","","","","2001","2001/07/11 00:00:00+00","192","1830","Natural","Natural","","2001/07/12 00:00:00+00","193","1800","0.1","A","40.25083333","-123.05111111","USFS","CA","","",""
"-122.185819676","41.317494763","140114","141509","FS-367713","FED","FS-FIRESTAT","FS","USCASHF","Shasta-Trinity National Forest","0514","Shasta-Trinity National Forest","43","","6300","PARK","","","","","","2001","2001/07/11 00:00:00+00","192","0800","Natural","Natural","","2001/07/11 00:00:00+00","192","1200","0.1","A","41.3175","-122.18583333","STATE OR PRIVATE","CA","","",""
"-122.983597476","40.368883789","140115","141510","FS-367714","FED","FS-FIRESTAT","FS","USCASHF","Shasta-Trinity National Forest","0514","Shasta-Trinity National Forest","47","","6300","NOBLE","","","","","","2001","2001/07/12 00:00:00+00","193","0830","Natural","Natural","","2001/07/12 00:00:00+00","193","1400","0.1","A","40.36888889","-122.98361111","USFS","CA","","",""
"-122.668875181","41.199717033","140116","141511","FS-367716","FED","FS-FIRESTAT","FS","USCASHF","Shasta-Trinity National Forest","0514","Shasta-Trinity National Forest","49","","6300","TANGLE","","","","","","2001","2001/07/11 00:00:00+00","192","1330","Natural","Natural","","2001/07/12 00:00:00+00","193","1200","0.1","A","41.19972222","-122.66888889","USFS","CA","","",""
"-123.285541841","40.651939345","140117","141512","FS-367717","FED","FS-FIRESTAT","FS","USCASHF","Shasta-Trinity National Forest","0514","Shasta-Trinity National Forest","45","","6300","MINERS","","","","","","2001","2001/07/14 00:00:00+00","195","1500","Natural","Natural","","2001/07/14 00:00:00+00","195","2100","0.2","A","40.65194444","-123.28555556","USFS","CA","","",""
"-122.73331961","41.205828148","140118","141513","FS-367718","FED","FS-FIRESTAT","FS","USCASHF","Shasta-Trinity National Forest","0514","Shasta-Trinity National Forest","50","","6300","BLUE","","","","","","2001","2001/07/11 00:00:00+00","192","1100","Natural","Natural","","2001/07/12 00:00:00+00","193","1600","0.1","A","41.20583333","-122.73333333","USFS","CA","","",""
"-122.917486364","40.452494888","140119","141514","FS-367719","FED","FS-FIRESTAT","FS","USCASHF","Shasta-Trinity National Forest","0514","Shasta-Trinity National Forest","51","","6300","FOX","","","","","","2001","2001/07/12 00:00:00+00","193","1830","Natural","Natural","","2001/07/13 00:00:00+00","194","1800","0.1","A","40.4525","-122.9175","USFS","CA","","",""
"-122.624986302","41.169439251","140120","141515","FS-367720","FED","FS-FIRESTAT","FS","USCASHF","Shasta-Trinity National Forest","0514","Shasta-Trinity National Forest","52","","6300","RAMSHORN","","","","","","2001","2001/07/13 00:00:00+00","194","1200","Natural","Natural","","2001/07/13 00:00:00+00","194","1600","0.1","A","41.16944444","-122.625","STATE OR PRIVATE","CA","","",""
"-122.935541818","41.152217059","140121","141516","FS-367721","FED","FS-FIRESTAT","FS","USCASHF","Shasta-Trinity National Forest","0514","Shasta-Trinity National Forest","53","","6300","RUSH","","","","","","2001","2001/07/13 00:00:00+00","194","1200","Natural","Natural","","2001/07/13 00:00:00+00","194","2200","0.1","A","41.15222222","-122.93555556","STATE OR PRIVATE","CA","","",""
"-122.199986367","41.166661445","140122","141517","FS-367722","FED","FS-FIRESTAT","FS","USCASHF","Shasta-Trinity National Forest","0514","Shasta-Trinity National Forest","54","","6300","GIRARD","","","","","","2001","2001/07/13 00:00:00+00","194","1400","Natural","Natural","","2001/07/13 00:00:00+00","194","2230","0.2","A","41.16666667","-122.2","STATE OR PRIVATE","CA","","",""
"-122.791652969","41.024994836","140123","141518","FS-367723","FED","FS-FIRESTAT","FS","USCASHF","Shasta-Trinity National Forest","0514","Shasta-Trinity National Forest","55","","6300","YCAT","","","","","","2001","2001/07/13 00:00:00+00","194","1700","Natural","Natural","","2001/07/14 00:00:00+00","195","0900","0.1","A","41.025","-122.79166667","STATE OR PRIVATE","CA","","",""
"-123.184153025","40.234717146","140124","141519","FS-367724","FED","FS-FIRESTAT","FS","USCASHF","Shasta-Trinity National Forest","0514","Shasta-Trinity National Forest","56","","6300","WILCOX","","","","","","2001","2001/07/14 00:00:00+00","195","1830","Natural","Natural","","2001/07/15 00:00:00+00","196","1800","0.1","A","40.23472222","-123.18416667","USFS","CA","","",""
"-123.31804186","40.484439359","140125","141520","FS-367725","FED","FS-FIRESTAT","FS","USCASHF","Shasta-Trinity National Forest","0514","Shasta-Trinity National Forest","57","","6300","SPROUT","","","","","","2001","2001/07/14 00:00:00+00","195","1546","Natural","Natural","","2001/07/14 00:00:00+00","195","1755","0.1","A","40.48444444","-123.31805556","STATE OR PRIVATE","CA","","",""
"-123.149986335","40.41666158","140126","141521","FS-367726","FED","FS-FIRESTAT","FS","USCASHF","Shasta-Trinity National Forest","0514","Shasta-Trinity National Forest","58","","6300","PHONE","","","","","","2001","2001/07/14 00:00:00+00","195","1600","Natural","Natural","","2001/07/14 00:00:00+00","195","2000","1","B","40.41666667","-123.15","USFS","CA","","",""
"-123.13331966","40.466661575","140127","141522","FS-367727","FED","FS-FIRESTAT","FS","USCASHF","Shasta-Trinity National Forest","0514","Shasta-Trinity National Forest","59","","6300","DOBBINS","","","","","","2001","2001/07/14 00:00:00+00","195","1611","Natural","Natural","","2001/07/14 00:00:00+00","195","1920","0.1","A","40.46666667","-123.13333333","USFS","CA","","",""
"-123.166653007","40.383328244","140128","141523","FS-367728","FED","FS-FIRESTAT","FS","USCASHF","Shasta-Trinity National Forest","0514","Shasta-Trinity National Forest","60","","6300","POINT","","","","","","2001","2001/07/14 00:00:00+00","195","1700","Natural","Natural","","2001/07/14 00:00:00+00","195","2030","0.1","A","40.38333333","-123.16666667","USFS","CA","","",""
"-123.21915298","40.513328239","140129","141524","FS-367729","FED","FS-FIRESTAT","FS","USCASHF","Shasta-Trinity National Forest","0514","Shasta-Trinity National Forest","61","","6300","OLIVE","","","","","","2001","2001/07/14 00:00:00+00","195","1805","Natural","Natural","","2001/07/14 00:00:00+00","195","2330","0.1","A","40.51333333","-123.21916667","USFS","CA","","",""
"-123.084430815","40.20082825","140130","141525","FS-367730","FED","FS-FIRESTAT","FS","USCASHF","Shasta-Trinity National Forest","0514","Shasta-Trinity National Forest","62","","6300","HERMIT","","","","","","2001","2001/07/14 00:00:00+00","195","1600","Natural","Natural","","2001/07/14 00:00:00+00","195","2359","0.1","A","40.20083333","-123.08444444","USFS","CA","","",""
"-123.033597488","40.235550473","140131","141526","FS-367731","FED","FS-FIRESTAT","FS","USCASHF","Shasta-Trinity National Forest","0514","Shasta-Trinity National Forest","63","","6300","WHITE","","","","","","2001","2001/07/14 00:00:00+00","195","1600","Natural","Natural","","2001/07/14 00:00:00+00","195","2359","0.1","A","40.23555556","-123.03361111","USFS","CA","","",""
"-123.018597494","40.202494914","140132","141527","FS-367732","FED","FS-FIRESTAT","FS","USCASHF","Shasta-Trinity National Forest","0514","Shasta-Trinity National Forest","64","","6300","WEST","","","","","","2001","2001/07/14 00:00:00+00","195","1600","Natural","Natural","","2001/07/14 00:00:00+00","195","2359","0.1","A","40.2025","-123.01861111","USFS","CA","","",""
"-123.033319713","40.199994916","140133","141528","FS-367733","FED","FS-FIRESTAT","FS","USCASHF","Shasta-Trinity National Forest","0514","Shasta-Trinity National Forest","65","","6300","BLACK","","","","","","2001","2001/07/15 00:00:00+00","196","1230","Natural","Natural","","2001/07/16 00:00:00+00","197","0900","0.1","A","40.2","-123.03333333","USFS","CA","","",""
"-123.099986347","40.383328238","140134","141529","FS-367734","FED","FS-FIRESTAT","FS","USCASHF","Shasta-Trinity National Forest","0514","Shasta-Trinity National Forest","66","","6300","WALLOW","","","","","","2001","2001/07/15 00:00:00+00","196","0730","Natural","Natural","","2001/07/15 00:00:00+00","196","1500","1","B","40.38333333","-123.1","USFS","CA","","",""
"-123.03359749","40.216661585","140135","141530","FS-367735","FED","FS-FIRESTAT","FS","USCASHF","Shasta-Trinity National Forest","0514","Shasta-Trinity National Forest","67","","6300","ROCKS","","","","","","2001","2001/07/15 00:00:00+00","196","1230","Natural","Natural","","2001/07/16 00:00:00+00","197","1000","0.1","A","40.21666667","-123.03361111","USFS","CA","","",""
"-123.185264073","40.667494895","140136","141531","FS-367737","FED","FS-FIRESTAT","FS","USCASHF","Shasta-Trinity National Forest","0514","Shasta-Trinity National Forest","69","","6300","PACKER","","","","","","2001","2001/07/15 00:00:00+00","196","1000","Natural","Natural","","2001/07/15 00:00:00+00","196","1300","0.1","A","40.6675","-123.18527778","USFS","CA","","",""
"-123.216652997","40.399994917","140137","141532","FS-367738","FED","FS-FIRESTAT","FS","USCASHF","Shasta-Trinity National Forest","0514","Shasta-Trinity National Forest","70","","6300","CEDAR","","","","","","2001","2001/07/15 00:00:00+00","196","1200","Natural","Natural","","2001/07/15 00:00:00+00","196","1300","0.1","A","40.4","-123.21666667","STATE OR PRIVATE","CA","","",""
"-122.116653112","40.749994798","140138","141533","FS-367739","FED","FS-FIRESTAT","FS","USCASHF","Shasta-Trinity National Forest","0514","Shasta-Trinity National Forest","71","","6364","ARBUCKLE","","","","","","2001","2001/07/15 00:00:00+00","196","1930","Human","Recreation and ceremony","","2001/07/15 00:00:00+00","196","1950","0.1","A","40.75","-122.11666667","USFS","CA","","",""
"-123.034986376","40.246939352","140139","141534","FS-367740","FED","FS-FIRESTAT","FS","USCASHF","Shasta-Trinity National Forest","0514","Shasta-Trinity National Forest","72","","6300","MAD","","","","","","2001","2001/07/15 00:00:00+00","196","1400","Natural","Natural","","2001/07/16 00:00:00+00","197","1600","2","B","40.24694444","-123.035","USFS","CA","","",""
"-123.149986335","40.41666158","140140","141535","FS-367741","FED","FS-FIRESTAT","FS","USCASHF","Shasta-Trinity National Forest","0514","Shasta-Trinity National Forest","73","","6300","BULE","","","","","","2001","2001/07/15 00:00:00+00","196","2000","Natural","Natural","","2001/07/16 00:00:00+00","197","1400","0.1","A","40.41666667","-123.15","USFS","CA","","",""
"-123.034986376","40.246939352","140141","141536","FS-367742","FED","FS-FIRESTAT","FS","USCASHF","Shasta-Trinity National Forest","0514","Shasta-Trinity National Forest","74","","6300","STUART","","","","","","2001","2001/07/17 00:00:00+00","198","1630","Natural","Natural","","2001/07/17 00:00:00+00","198","2359","2","B","40.24694444","-123.035","USFS","CA","","",""
"-122.88331959","41.191661502","140142","141537","FS-367743","FED","FS-FIRESTAT","FS","USCASHF","Shasta-Trinity National Forest","0514","Shasta-Trinity National Forest","75","","6300","SALOON","","","","","","2001","2001/07/19 00:00:00+00","200","1200","Natural","Natural","","2001/07/19 00:00:00+00","200","1700","0.1","A","41.19166667","-122.88333333","STATE OR PRIVATE","CA","","",""
"-122.766652994","40.883328174","140143","141538","FS-367744","FED","FS-FIRESTAT","FS","USCASHF","Shasta-Trinity National Forest","0514","Shasta-Trinity National Forest","76","","6300","ALPINE","","","","","","2001","2001/07/22 00:00:00+00","203","0310","Human","Smoking","","2001/07/22 00:00:00+00","203","0355","0.1","A","40.88333333","-122.76666667","STATE OR PRIVATE","CA","","",""
"-123.049986352","40.399994903","140144","141539","FS-367745","FED","FS-FIRESTAT","FS","USCASHF","Shasta-Trinity National Forest","0514","Shasta-Trinity National Forest","77","","6396","WILDWOODS","","","","","","2001","2001/07/24 00:00:00+00","205","1020","Human","Missing data/not specified/undetermined","","2001/07/24 00:00:00+00","205","1055","0.1","A","40.4","-123.05","STATE OR PRIVATE","CA","","",""
"-122.318875288","40.834994809","140145","141540","FS-367746","FED","FS-FIRESTAT","FS","USCASHF","Shasta-Trinity National Forest","0514","Shasta-Trinity National Forest","78","","6371","SALT#2","","","","","","2001","2001/07/24 00:00:00+00","205","1400","Human","Equipment and vehicle use","","2001/07/24 00:00:00+00","205","1500","1","B","40.835","-122.31888889","STATE OR PRIVATE","CA","","",""
"-122.962486371","40.355550459","140146","141541","FS-367747","FED","FS-FIRESTAT","FS","USCASHF","Shasta-Trinity National Forest","0514","Shasta-Trinity National Forest","79","","6372","BASIN #2","2001_CA-SHF-6056_BASIN","","","","","2001","2001/07/24 00:00:00+00","205","1430","Human","Arson/incendiarism","","2001/07/26 00:00:00+00","207","1800","36","C","40.35555556","-122.9625","USFS","CA","","",""
"-122.368319711","40.902494809","140147","141542","FS-367748","FED","FS-FIRESTAT","FS","USCASHF","Shasta-Trinity National Forest","0514","Shasta-Trinity National Forest","80","","6378","SNOWBIRD","","","","","","2001","2001/07/28 00:00:00+00","209","1140","Human","Equipment and vehicle use","","2001/07/28 00:00:00+00","209","1230","0.1","A","40.9025","-122.36833333","STATE OR PRIVATE","CA","","",""
"-122.545264114","41.036939254","140148","141543","FS-367749","FED","FS-FIRESTAT","FS","USCASHF","Shasta-Trinity National Forest","0514","Shasta-Trinity National Forest","81","","6380","HALLS","","","","","","2001","2001/07/28 00:00:00+00","209","1800","Human","Recreation and ceremony","","2001/07/28 00:00:00+00","209","2359","0.2","A","41.03694444","-122.54527778","STATE OR PRIVATE","CA","","",""
"-122.318597508","40.834994809","140149","141544","FS-367750","FED","FS-FIRESTAT","FS","USCASHF","Shasta-Trinity National Forest","0514","Shasta-Trinity National Forest","83","","6386","GILMAN","","","","","","2001","2001/07/30 00:00:00+00","211","1640","Human","Equipment and vehicle use","","2001/07/30 00:00:00+00","211","1710","0.1","A","40.835","-122.31861111","STATE OR PRIVATE","CA","","",""
"-122.318597513","40.800272592","140150","141545","FS-367751","FED","FS-FIRESTAT","FS","USCASHF","Shasta-Trinity National Forest","0514","Shasta-Trinity National Forest","85","","6300","PACKERS #2","","","","","","2001","2001/07/31 00:00:00+00","212","1400","Human","Equipment and vehicle use","","2001/07/31 00:00:00+00","212","1415","0.1","A","40.80027778","-122.31861111","STATE OR PRIVATE","CA","","",""
"-122.217208566","41.284716988","140151","141546","FS-367753","FED","FS-FIRESTAT","FS","USCASHF","Shasta-Trinity National Forest","0514","Shasta-Trinity National Forest","41","","6300","ZOT","","","","","","2001","2001/07/11 00:00:00+00","192","0730","Natural","Natural","","2001/07/11 00:00:00+00","192","1400","0.1","A","41.28472222","-122.21722222","USFS","CA","","",""
"-122.183319684","41.266661436","140152","141547","FS-367754","FED","FS-FIRESTAT","FS","USCASHF","Shasta-Trinity National Forest","0514","Shasta-Trinity National Forest","44","","6300","SIGNAL","","","","","","2001","2001/07/11 00:00:00+00","192","1300","Natural","Natural","","2001/07/11 00:00:00+00","192","1410","0.1","A","41.26666667","-122.18333333","USFS","CA","","",""
"-122.600541846","41.30138369","140153","141548","FS-367755","FED","FS-FIRESTAT","FS","USCASHF","Shasta-Trinity National Forest","0514","Shasta-Trinity National Forest","46","","6300","CEDAR","","","","","","2001","2001/07/12 00:00:00+00","193","1710","Natural","Natural","","2001/07/13 00:00:00+00","194","0030","0.1","A","41.30138889","-122.60055556","STATE OR PRIVATE","CA","","",""
"-122.066653037","41.299994754","140154","141549","FS-367756","FED","FS-FIRESTAT","FS","USCASHF","Shasta-Trinity National Forest","0514","Shasta-Trinity National Forest","82","","6381","VILLAGE","","","","","","2001","2001/07/28 00:00:00+00","209","1930","Human","Missing data/not specified/undetermined","","2001/07/28 00:00:00+00","209","2001","0.1","A","41.3","-122.06666667","STATE OR PRIVATE","CA","","",""
"-121.549986437","41.366661374","140155","141550","FS-367757","FED","FS-FIRESTAT","FS","USCASHF","Shasta-Trinity National Forest","0514","Shasta-Trinity National Forest","84","","6384","HAMBONE","","","","","","2001","2001/07/31 00:00:00+00","212","1315","Human","Railroad operations and maintenance","","2001/07/31 00:00:00+00","212","1600","0.1","A","41.36666667","-121.55","USFS","CA","","",""
"-122.499986301","41.301939231","140156","141551","FS-367759","FED","FS-FIRESTAT","FS","USCASHF","Shasta-Trinity National Forest","0514","Shasta-Trinity National Forest","87","","6389","TP","","","","","","2001","2001/08/04 00:00:00+00","216","1615","Human","Debris and open burning","","2001/08/04 00:00:00+00","216","1630","0.1","A","41.30194444","-122.5","USFS","CA","","",""
"-123.100819652","40.551383786","140157","141552","FS-367760","FED","FS-FIRESTAT","FS","USCASHF","Shasta-Trinity National Forest","0514","Shasta-Trinity National Forest","31","","6349","CABLE","","","","","","2001","2001/07/24 00:00:00+00","205","1830","Human","Arson/incendiarism","","2001/07/24 00:00:00+00","205","1850","0.1","A","40.55138889","-123.10083333","USFS","CA","","",""
"-121.633319739","41.466661374","140158","141553","FS-367761","FED","FS-FIRESTAT","FS","USCASHF","Shasta-Trinity National Forest","0514","Shasta-Trinity National Forest","36","","6300","LITTLE","","","","","","2001","2001/07/05 00:00:00+00","186","1820","Human","Smoking","","2001/07/05 00:00:00+00","186","1930","0.1","A","41.46666667","-121.63333333","USFS","CA","","",""
"-122.933319651","40.733328199","140159","141554","FS-367762","FED","FS-FIRESTAT","FS","USCASHF","Shasta-Trinity National Forest","0514","Shasta-Trinity National Forest","88","","6390","COVINGTON","","","","","","2001","2001/08/05 00:00:00+00","217","0445","Human","Equipment and vehicle use","","2001/08/05 00:00:00+00","217","1200","0.1","A","40.73333333","-122.93333333","STATE OR PRIVATE","CA","","",""
"-123.166930741","40.634994896","140160","141555","FS-367763","FED","FS-FIRESTAT","FS","USCASHF","Shasta-Trinity National Forest","0514","Shasta-Trinity National Forest","89","","6300","CREEK","","","","","","2001","2001/08/05 00:00:00+00","217","0905","Human","Equipment and vehicle use","","2001/08/05 00:00:00+00","217","1500","0.1","A","40.635","-123.16694444","USFS","CA","","",""
"-122.333319689","41.083328122","140161","141556","FS-367764","FED","FS-FIRESTAT","FS","USCASHF","Shasta-Trinity National Forest","0514","Shasta-Trinity National Forest","90","","6392","FLUME","","","","","","2001","2001/08/06 00:00:00+00","218","1645","Human","Missing data/not specified/undetermined","","2001/08/06 00:00:00+00","218","2000","1","B","41.08333333","-122.33333333","STATE OR PRIVATE","CA","","",""
"-123.18470853","40.550550463","140162","141557","FS-367765","FED","FS-FIRESTAT","FS","USCASHF","Shasta-Trinity National Forest","0514","Shasta-Trinity National Forest","91","","6396","FOREST","","","","","","2001","2001/08/10 00:00:00+00","222","2359","Human","Arson/incendiarism","","2001/08/11 00:00:00+00","223","0400","0.1","A","40.55055556","-123.18472222","USFS","CA","","",""
"-122.812486295","41.030272617","140163","141558","FS-367766","FED","FS-FIRESTAT","FS","USCASHF","Shasta-Trinity National Forest","0514","Shasta-Trinity National Forest","92","","6300","LILYPAD","","","","","","2001","2001/08/11 00:00:00+00","223","1700","Human","Recreation and ceremony","","2001/08/12 00:00:00+00","224","0800","0.1","A","41.03027778","-122.8125","USFS","CA","","",""
"-122.04998637","41.299994752","140164","141559","FS-367767","FED","FS-FIRESTAT","FS","USCASHF","Shasta-Trinity National Forest","0514","Shasta-Trinity National Forest","93","","6397","WYNTOON","","","","","","2001","2001/08/13 00:00:00+00","225","1922","Human","Arson/incendiarism","","2001/08/13 00:00:00+00","225","2230","0.1","A","41.3","-122.05","STATE OR PRIVATE","CA","","",""
"-122.066653037","41.299994754","140165","141560","FS-367768","FED","FS-FIRESTAT","FS","USCASHF","Shasta-Trinity National Forest","0514","Shasta-Trinity National Forest","94","","6398","MOUNTAIN","","","","","","2001","2001/08/13 00:00:00+00","225","1923","Human","Arson/incendiarism","","2001/08/13 00:00:00+00","225","2230","0.1","A","41.3","-122.06666667","STATE OR PRIVATE","CA","","",""
"-122.04998637","41.299994752","140166","141561","FS-367769","FED","FS-FIRESTAT","FS","USCASHF","Shasta-Trinity National Forest","0514","Shasta-Trinity National Forest","95","","6399","GRAVEL","","","","","","2001","2001/08/13 00:00:00+00","225","1922","Human","Arson/incendiarism","","2001/08/13 00:00:00+00","225","2130","0.1","A","41.3","-122.05","STATE OR PRIVATE","CA","","",""
"-122.516652979","41.233328127","140167","141562","FS-367770","FED","FS-FIRESTAT","FS","USCASHF","Shasta-Trinity National Forest","0514","Shasta-Trinity National Forest","96","","6404","PICAYUNE","","","","","","2001","2001/08/17 00:00:00+00","229","1013","Human","Recreation and ceremony","","2001/08/17 00:00:00+00","229","1200","0.1","A","41.23333333","-122.51666667","USFS","CA","","",""
"-122.664430772","40.932494832","140168","141563","FS-367771","FED","FS-FIRESTAT","FS","USCASHF","Shasta-Trinity National Forest","0514","Shasta-Trinity National Forest","98","","6300","RACKERBY","","","","","","2001","2001/08/19 00:00:00+00","231","1000","Human","Smoking","","2001/08/19 00:00:00+00","231","1400","0.1","A","40.9325","-122.66444444","USFS","CA","","",""
"-122.384708606","40.852217034","140169","141564","FS-367772","FED","FS-FIRESTAT","FS","USCASHF","Shasta-Trinity National Forest","0514","Shasta-Trinity National Forest","99","","6300","LOG","","","","","","2001","2001/08/26 00:00:00+00","238","1200","Human","Recreation and ceremony","","2001/08/26 00:00:00+00","238","1255","0.1","A","40.85222222","-122.38472222","USFS","CA","","",""
"-122.367208544","41.284161451","140170","141565","FS-367773","FED","FS-FIRESTAT","FS","USCASHF","Shasta-Trinity National Forest","0514","Shasta-Trinity National Forest","100","","6300","MAZE","","","","","","2001","2001/08/28 00:00:00+00","240","1445","Human","Recreation and ceremony","","2001/08/28 00:00:00+00","240","1548","0.1","A","41.28416667","-122.36722222","STATE OR PRIVATE","CA","","",""
"-123.23470852","40.567772686","140171","141566","FS-367775","FED","FS-FIRESTAT","FS","USCASHF","Shasta-Trinity National Forest","0514","Shasta-Trinity National Forest","102","","6417","HYAMPOM","2001_CA-SHF-08086_HYAMPOM","","CA4057812322220010831","HYAMPOM","","2001","2001/08/31 00:00:00+00","243","1715","Human","Arson/incendiarism","","2001/09/03 00:00:00+00","246","1800","1065","F","40.56777778","-123.23472222","STATE OR PRIVATE","CA","","",""
"-122.284153029","41.135828114","140172","141567","FS-367776","FED","FS-FIRESTAT","FS","USCASHF","Shasta-Trinity National Forest","0514","Shasta-Trinity National Forest","103","","6419","RIVERSIDE","","","","","","2001","2001/09/04 00:00:00+00","247","1651","Human","Misuse of fire by a minor","Minor","2001/09/04 00:00:00+00","247","1745","0.1","A","41.13583333","-122.28416667","STATE OR PRIVATE","CA","","",""
"-122.674986346","40.82499484","140173","141568","FS-367777","FED","FS-FIRESTAT","FS","USCASHF","Shasta-Trinity National Forest","0514","Shasta-Trinity National Forest","105","","6415","PAPOOSE","","","","","","2001","2001/09/05 00:00:00+00","248","1600","Human","Equipment and vehicle use","","2001/09/09 00:00:00+00","252","1800","28","C","40.825","-122.675","USFS","CA","","",""
"-123.466652902","40.79999491","140174","141569","FS-367778","FED","FS-FIRESTAT","FS","USCASHF","Shasta-Trinity National Forest","0514","Shasta-Trinity National Forest","106","","6426","THOMPSON","","","","","","2001","2001/09/09 00:00:00+00","252","1740","Human","Equipment and vehicle use","","2001/09/09 00:00:00+00","252","1830","0.1","A","40.8","-123.46666667","USFS","CA","","",""
"-122.134153077","40.966661454","140175","141570","FS-367779","FED","FS-FIRESTAT","FS","USCASHF","Shasta-Trinity National Forest","0514","Shasta-Trinity National Forest","107","","6300","BUTTE","","","","","","2001","2001/09/12 00:00:00+00","255","1130","Natural","Natural","","2001/09/12 00:00:00+00","255","1930","0.2","A","40.96666667","-122.13416667","STATE OR PRIVATE","CA","","",""
"-122.069153097","40.900550343","140176","141571","FS-367780","FED","FS-FIRESTAT","FS","USCASHF","Shasta-Trinity National Forest","0514","Shasta-Trinity National Forest","108","","6300","SECOND","","","","","","2001","2001/09/12 00:00:00+00","255","1500","Natural","Natural","","2001/09/12 00:00:00+00","255","1900","0.1","A","40.90055556","-122.06916667","USFS","CA","","",""
"-123.402486283","40.519161594","140177","141572","FS-367781","FED","FS-FIRESTAT","FS","USCASHF","Shasta-Trinity National Forest","0514","Shasta-Trinity National Forest","109","","6300","MICK","","","","","","2001","2001/09/12 00:00:00+00","255","1653","Natural","Natural","","2001/09/12 00:00:00+00","255","2030","0.1","A","40.51916667","-123.4025","USFS","CA","","",""
"-121.601930874","41.334716931","140178","141573","FS-367782","FED","FS-FIRESTAT","FS","USCASHF","Shasta-Trinity National Forest","0514","Shasta-Trinity National Forest","110","","6300","GLOVER","","","","","","2001","2001/09/11 00:00:00+00","254","1615","Natural","Natural","","2001/09/11 00:00:00+00","254","1800","0.1","A","41.33472222","-121.60194444","USFS","CA","","",""
"-123.318875178","40.569161583","140179","141574","FS-367783","FED","FS-FIRESTAT","FS","USCASHF","Shasta-Trinity National Forest","0514","Shasta-Trinity National Forest","111","","6300","SUMMER","","","","","","2001","2001/09/12 00:00:00+00","255","1800","Natural","Natural","","2001/09/12 00:00:00+00","255","2100","0.1","A","40.56916667","-123.31888889","USFS","CA","","",""
"-121.869153042","41.468605834","140180","141575","FS-367784","FED","FS-FIRESTAT","FS","USCASHF","Shasta-Trinity National Forest","0514","Shasta-Trinity National Forest","112","","6300","HEMLOCK","","","","","","2001","2001/09/13 00:00:00+00","256","0930","Natural","Natural","","2001/09/13 00:00:00+00","256","1830","0.2","A","41.46861111","-121.86916667","USFS","CA","","",""
"-121.683319721","41.533328033","140181","141576","FS-367785","FED","FS-FIRESTAT","FS","USCASHF","Shasta-Trinity National Forest","0514","Shasta-Trinity National Forest","113","","6300","GLASS","","","","","","2001","2001/09/12 00:00:00+00","255","0800","Natural","Natural","","2001/09/12 00:00:00+00","255","1345","0.2","A","41.53333333","-121.68333333","USFS","CA","","",""
"-122.124986347","41.374994753","140182","141577","FS-367786","FED","FS-FIRESTAT","FS","USCASHF","Shasta-Trinity National Forest","0514","Shasta-Trinity National Forest","116","","6300","SUGAR","","","","","","2001","2001/09/15 00:00:00+00","258","1730","Natural","Natural","","2001/09/15 00:00:00+00","258","1930","0.1","A","41.375","-122.125","STATE OR PRIVATE","CA","","",""
"-122.533875196","41.234439239","140183","141578","FS-367787","FED","FS-FIRESTAT","FS","USCASHF","Shasta-Trinity National Forest","0514","Shasta-Trinity National Forest","117","","6300","BONE","","","","","","2001","2001/09/15 00:00:00+00","258","1700","Natural","Natural","","2001/09/15 00:00:00+00","258","1815","0.1","A","41.23444444","-122.53388889","USFS","CA","","",""
"-121.717486415","41.3402725","140184","141579","FS-367788","FED","FS-FIRESTAT","FS","USCASHF","Shasta-Trinity National Forest","0514","Shasta-Trinity National Forest","118","","6300","HAMMY","","","","","","2001","2001/09/15 00:00:00+00","258","1715","Natural","Natural","","2001/09/15 00:00:00+00","258","1930","0.1","A","41.34027778","-121.7175","USFS","CA","","",""
"-122.557208557","41.005550377","140185","141580","FS-367789","FED","FS-FIRESTAT","FS","USCASHF","Shasta-Trinity National Forest","0514","Shasta-Trinity National Forest","119","","6300","DAMNATION","","","","","","2001","2001/09/15 00:00:00+00","258","1630","Natural","Natural","","2001/09/16 00:00:00+00","259","1200","0.5","B","41.00555556","-122.55722222","USFS","CA","","",""
"-122.516930759","41.167772582","140186","141581","FS-367790","FED","FS-FIRESTAT","FS","USCASHF","Shasta-Trinity National Forest","0514","Shasta-Trinity National Forest","121","","6300","WILLITS","","","","","","2001","2001/09/15 00:00:00+00","258","1830","Natural","Natural","","2001/09/16 00:00:00+00","259","1900","0.1","A","41.16777778","-122.51694444","STATE OR PRIVATE","CA","","",""
"-122.76331961","41.176661493","140187","141582","FS-367791","FED","FS-FIRESTAT","FS","USCASHF","Shasta-Trinity National Forest","0514","Shasta-Trinity National Forest","122","","6300","STODDARD","","","","","","2001","2001/09/16 00:00:00+00","259","0900","Natural","Natural","","2001/09/16 00:00:00+00","259","1800","0.1","A","41.17666667","-122.76333333","USFS","CA","","",""
"-122.697208526","41.072217044","140188","141583","FS-367792","FED","FS-FIRESTAT","FS","USCASHF","Shasta-Trinity National Forest","0514","Shasta-Trinity National Forest","123","","6300","MANNS","","","","","","2001","2001/09/16 00:00:00+00","259","1315","Human","Recreation and ceremony","","2001/09/16 00:00:00+00","259","1400","0.1","A","41.07222222","-122.69722222","USFS","CA","","",""
"-122.066653042","41.267216976","140189","141584","FS-367793","FED","FS-FIRESTAT","FS","USCASHF","Shasta-Trinity National Forest","0514","Shasta-Trinity National Forest","97","","6406","RAIL","","","","","","2001","2001/08/17 00:00:00+00","229","1801","Human","Railroad operations and maintenance","","2001/08/17 00:00:00+00","229","1815","0.1","A","41.26722222","-122.06666667","USFS","CA","","",""
"-122.384153014","41.134439233","140190","141585","FS-367794","FED","FS-FIRESTAT","FS","USCASHF","Shasta-Trinity National Forest","0514","Shasta-Trinity National Forest","124","","6300","SWEET","","","","","","2001","2001/09/15 00:00:00+00","258","1715","Natural","Natural","","2001/09/16 00:00:00+00","259","1800","0.1","A","41.13444444","-122.38416667","USFS","CA","","",""
"-122.534430754","41.183328133","140191","141586","FS-367795","FED","FS-FIRESTAT","FS","USCASHF","Shasta-Trinity National Forest","0514","Shasta-Trinity National Forest","125","","6300","BLUE","","","","","","2001","2001/09/15 00:00:00+00","258","1830","Natural","Natural","","2001/09/16 00:00:00+00","259","1800","0.1","A","41.18333333","-122.53444444","STATE OR PRIVATE","CA","","",""
"-122.319153026","41.118050349","140192","141587","FS-367796","FED","FS-FIRESTAT","FS","USCASHF","Shasta-Trinity National Forest","0514","Shasta-Trinity National Forest","126","","6300","CASTELLA","","","","","","2001","2001/09/16 00:00:00+00","259","1600","Natural","Natural","","2001/09/16 00:00:00+00","259","1800","0.1","A","41.11805556","-122.31916667","STATE OR PRIVATE","CA","","",""
"-122.284986376","41.017772573","140193","141588","FS-367797","FED","FS-FIRESTAT","FS","USCASHF","Shasta-Trinity National Forest","0514","Shasta-Trinity National Forest","127","","6300","SALTS","","","","","","2001","2001/09/16 00:00:00+00","259","0800","Natural","Natural","","2001/09/18 00:00:00+00","261","1800","0.3","B","41.01777778","-122.285","USFS","CA","","",""
"-121.599986409","41.499994698","140194","141589","FS-367798","FED","FS-FIRESTAT","FS","USCASHF","Shasta-Trinity National Forest","0514","Shasta-Trinity National Forest","128","","6300","STUD","","","","","","2001","2001/09/17 00:00:00+00","260","1400","Natural","Natural","","2001/09/17 00:00:00+00","260","1855","0.1","A","41.5","-121.6","USFS","CA","","",""
"-122.216653039","41.134716999","140195","141590","FS-367799","FED","FS-FIRESTAT","FS","USCASHF","Shasta-Trinity National Forest","0514","Shasta-Trinity National Forest","129","","6300","NEAL","","","","","","2001","2001/09/17 00:00:00+00","260","0900","Natural","Natural","","2001/09/18 00:00:00+00","261","1800","0.5","B","41.13472222","-122.21666667","USFS","CA","","",""
"-122.76331961","41.175550383","140196","141591","FS-367800","FED","FS-FIRESTAT","FS","USCASHF","Shasta-Trinity National Forest","0514","Shasta-Trinity National Forest","131","","6300","MESSNER","","","","","","2001","2001/09/18 00:00:00+00","261","1300","Natural","Natural","","2001/09/18 00:00:00+00","261","1900","0.1","A","41.17555556","-122.76333333","USFS","CA","","",""
"-122.367208603","40.88555037","140197","141592","FS-367801","FED","FS-FIRESTAT","FS","USCASHF","Shasta-Trinity National Forest","0514","Shasta-Trinity National Forest","132","","6300","SLASH","","","","","","2001","2001/09/18 00:00:00+00","261","1600","Human","Smoking","","2001/09/18 00:00:00+00","261","2115","0.1","A","40.88555556","-122.36722222","USFS","CA","","",""
"-121.735264178","41.433883605","140198","141593","FS-367802","FED","FS-FIRESTAT","FS","USCASHF","Shasta-Trinity National Forest","0514","Shasta-Trinity National Forest","133","","6433","FAWN","","","","","","2001","2001/09/22 00:00:00+00","265","1435","Human","Missing data/not specified/undetermined","","2001/09/22 00:00:00+00","265","1630","0.2","A","41.43388889","-121.73527778","USFS","CA","","",""
"-122.551652978","41.201939243","140199","141594","FS-367803","FED","FS-FIRESTAT","FS","USCASHF","Shasta-Trinity National Forest","0514","Shasta-Trinity National Forest","134","","6300","DIVIDE","","","","","","2001","2001/09/22 00:00:00+00","265","1600","Natural","Natural","","2001/09/22 00:00:00+00","265","2330","0.5","B","41.20194444","-122.55166667","USFS","CA","","",""
"-123.434430728","40.450272711","140200","141595","FS-367804","FED","FS-FIRESTAT","FS","USCASHF","Shasta-Trinity National Forest","0514","Shasta-Trinity National Forest","135","","6300","MILLER","","","","","","2001","2001/09/18 00:00:00+00","261","1510","Human","Recreation and ceremony","","2001/09/18 00:00:00+00","261","1530","0.1","A","40.45027778","-123.43444444","USFS","CA","","",""
"-122.319153026","41.117772569","140201","141596","FS-367805","FED","FS-FIRESTAT","FS","USCASHF","Shasta-Trinity National Forest","0514","Shasta-Trinity National Forest","136","","6434","BRIAR","","","","","","2001","2001/09/23 00:00:00+00","266","1335","Human","Equipment and vehicle use","","2001/09/23 00:00:00+00","266","1600","0.7","B","41.11777778","-122.31916667","STATE OR PRIVATE","CA","","",""
"-121.718597495","41.534161376","140202","141597","FS-367806","FED","FS-FIRESTAT","FS","USCASHF","Shasta-Trinity National Forest","0514","Shasta-Trinity National Forest","137","","6435","DOE","","","","","","2001","2001/09/23 00:00:00+00","266","1315","Human","Missing data/not specified/undetermined","","2001/09/23 00:00:00+00","266","1630","0.1","A","41.53416667","-121.71861111","USFS","CA","","",""
"-123.06859741","40.73527266","140203","141598","FS-367807","FED","FS-FIRESTAT","FS","USCASHF","Shasta-Trinity National Forest","0514","Shasta-Trinity National Forest","138","","6347","DUTCH","","","","","","2001","2001/09/24 00:00:00+00","267","1445","Human","Equipment and vehicle use","","2001/09/24 00:00:00+00","267","1600","0.1","A","40.73527778","-123.06861111","USFS","CA","","",""
"-122.896375181","40.971939289","140204","141599","FS-367808","FED","FS-FIRESTAT","FS","USCASHF","Shasta-Trinity National Forest","0514","Shasta-Trinity National Forest","139","","6300","SEVEN","","","","","","2001","2001/09/25 00:00:00+00","268","1300","Human","Smoking","","2001/09/26 00:00:00+00","269","1400","0.7","B","40.97194444","-122.89638889","USFS","CA","","",""
"-122.781097432","40.875828176","140205","141600","FS-367809","FED","FS-FIRESTAT","FS","USCASHF","Shasta-Trinity National Forest","0514","Shasta-Trinity National Forest","140","","6300","HAYWARD","","","","","","2001","2001/09/25 00:00:00+00","268","1400","Natural","Natural","","2001/09/25 00:00:00+00","268","1530","0.1","A","40.87583333","-122.78111111","STATE OR PRIVATE","CA","","",""
"-122.234430856","40.800272585","140206","141601","FS-367810","FED","FS-FIRESTAT","FS","USCASHF","Shasta-Trinity National Forest","0514","Shasta-Trinity National Forest","141","","6300","HORSE","","","","","","2001","2001/09/25 00:00:00+00","268","1600","Natural","Natural","","2001/09/26 00:00:00+00","269","0600","0.1","A","40.80027778","-122.23444444","USFS","CA","","",""
"-122.002208644","40.985828101","140207","141602","FS-367811","FED","FS-FIRESTAT","FS","USCASHF","Shasta-Trinity National Forest","0514","Shasta-Trinity National Forest","142","","6300","PIT 5","","","","","","2001","2001/09/25 00:00:00+00","268","1730","Natural","Natural","","2001/09/26 00:00:00+00","269","1300","0.1","A","40.98583333","-122.00222222","STATE OR PRIVATE","CA","","",""
"-122.549986361","40.851383718","140208","141603","FS-367812","FED","FS-FIRESTAT","FS","USCASHF","Shasta-Trinity National Forest","0514","Shasta-Trinity National Forest","143","","6300","BRUSH","","","","","","2001","2001/09/25 00:00:00+00","268","1300","Natural","Natural","","2001/09/25 00:00:00+00","268","1500","0.1","A","40.85138889","-122.55","USFS","CA","","",""
"-121.601653099","41.368605818","140209","141604","FS-367813","FED","FS-FIRESTAT","FS","USCASHF","Shasta-Trinity National Forest","0514","Shasta-Trinity National Forest","144","","6300","PINE","","","","","","2001","2001/09/15 00:00:00+00","258","1330","Natural","Natural","","2001/09/16 00:00:00+00","259","1830","0.1","A","41.36861111","-121.60166667","USFS","CA","","",""
"-122.350264136","41.085550354","140210","141605","FS-367814","FED","FS-FIRESTAT","FS","USCASHF","Shasta-Trinity National Forest","0514","Shasta-Trinity National Forest","145","","6101","BUG","","","","","","2001","2001/10/01 00:00:00+00","274","1425","Human","Equipment and vehicle use","","2001/10/01 00:00:00+00","274","1500","0.1","A","41.08555556","-122.35027778","STATE OR PRIVATE","CA","","",""
"-123.184708493","40.802217105","140211","141606","FS-367815","FED","FS-FIRESTAT","FS","USCASHF","Shasta-Trinity National Forest","0514","Shasta-Trinity National Forest","146","","6102","MANZANITA","","","","","","2001","2001/10/01 00:00:00+00","274","1520","Human","Equipment and vehicle use","","2001/10/01 00:00:00+00","274","2200","0.5","B","40.80222222","-123.18472222","USFS","CA","","",""
"-123.300541882","40.351661597","140212","141607","FS-367816","FED","FS-FIRESTAT","FS","USCASHF","Shasta-Trinity National Forest","0514","Shasta-Trinity National Forest","147","","6100","FLAT","","","","","","2001","2001/10/06 00:00:00+00","279","1400","Human","Recreation and ceremony","","2001/10/06 00:00:00+00","279","1435","0.1","A","40.35166667","-123.30055556","USFS","CA","","",""
"-122.368041914","41.085550355","140213","141608","FS-367817","FED","FS-FIRESTAT","FS","USCASHF","Shasta-Trinity National Forest","0514","Shasta-Trinity National Forest","148","","6105","MEARS","","","","","","2001","2001/10/09 00:00:00+00","282","1315","Human","Other causes","","2001/10/09 00:00:00+00","282","1600","0.3","B","41.08555556","-122.36805556","STATE OR PRIVATE","CA","","",""
"-122.249986339","41.299994769","140214","141609","FS-367818","FED","FS-FIRESTAT","FS","USCASHF","Shasta-Trinity National Forest","0514","Shasta-Trinity National Forest","150","","6111","THIN","","","","","","2001","2001/10/25 00:00:00+00","298","0915","Human","Recreation and ceremony","","2001/10/25 00:00:00+00","298","1000","0.1","A","41.3","-122.25","USFS","CA","","",""
"-121.800541938","41.500550276","140215","141610","FS-367819","FED","FS-FIRESTAT","FS","USCASHF","Shasta-Trinity National Forest","0514","Shasta-Trinity National Forest","149","","6100","LOST","","","","","","2001","2001/10/14 00:00:00+00","287","1700","Human","Equipment and vehicle use","","2001/10/14 00:00:00+00","287","1715","0.1","A","41.50055556","-121.80055556","USFS","CA","","",""
"-121.730541967","41.380550278","140216","141611","FS-367820","FED","FS-FIRESTAT","FS","USCASHF","Shasta-Trinity National Forest","0514","Shasta-Trinity National Forest","151","","6112","JACK","","","","","","2001","2001/10/30 00:00:00+00","303","1430","Human","Debris and open burning","","2001/10/30 00:00:00+00","303","1530","0.1","A","41.38055556","-121.73055556","USFS","CA","","",""
"-122.234153069","40.918050356","140217","141612","FS-367821","FED","FS-FIRESTAT","FS","USCASHF","Shasta-Trinity National Forest","0514","Shasta-Trinity National Forest","130","","6429","MCCLOUD","","","","","","2001","2001/09/18 00:00:00+00","261","1805","Human","Smoking","","2001/09/19 00:00:00+00","262","0200","0.9","B","40.91805556","-122.23416667","STATE OR PRIVATE","CA","","",""
"-92.37221592","31.433327682","140218","141613","FS-367822","FED","FS-FIRESTAT","FS","USLAKIF","Kisatchie National Forest","0806","Kisatchie National Forest","25","","6500","025 ICE HOUSE","","","","","","2001","2001/11/15 00:00:00+00","319","1330","Human","Recreation and ceremony","","2001/11/15 00:00:00+00","319","1500","1","B","31.43333333","-92.37222222","USFS","LA","","",""
"-92.366660369","31.483327672","140219","141614","FS-367823","FED","FS-FIRESTAT","FS","USLAKIF","Kisatchie National Forest","0806","Kisatchie National Forest","26","","6500","026 CLEAR CREEK","","","","","","2001","2001/11/18 00:00:00+00","322","1530","Human","Arson/incendiarism","","2001/11/18 00:00:00+00","322","1730","2","B","31.48333333","-92.36666667","USFS","LA","","",""
"-92.420827004","31.683327633","140220","141615","FS-367824","FED","FS-FIRESTAT","FS","USLAKIF","Kisatchie National Forest","0806","Kisatchie National Forest","27","","6500","027 ZIGGLER","","","","","","2001","2001/11/19 00:00:00+00","323","1530","Human","Arson/incendiarism","","2001/11/19 00:00:00+00","323","1840","2","B","31.68333333","-92.42083333","USFS","LA","","",""
"-84.53555113","36.84582626","140221","141616","FS-367825","FED","FS-FIRESTAT","FS","USKYDBF","Daniel Boone National Forest","0802","Daniel Boone National Forest","130","","4544","GREAT GULF","2001_KY-DBF-02089_GREAT GULF","","KY3683908454320011111","GREAT GULF","","2001","2001/11/11 00:00:00+00","315","1818","Human","Arson/incendiarism","","2001/11/20 00:00:00+00","324","1530","780","E","36.84583333","-84.53555556","STATE OR PRIVATE","KY","147","21147","McCreary County"
"-122.034985939","43.882772352","140222","141617","FS-367826","FED","FS-FIRESTAT","FS","USORWIF","Willamette National Forest","0618","Willamette National Forest","53","","0001","SKOOKUM","","","","","","2001","2001/07/24 00:00:00+00","205","1850","Natural","Natural","","2001/07/26 00:00:00+00","207","1700","0.5","B","43.88277778","-122.035","USFS","OR","","",""
"-121.983319304","43.735272357","140223","141618","FS-367827","FED","FS-FIRESTAT","FS","USORWIF","Willamette National Forest","0618","Willamette National Forest","56","","0001","INCIDENT #163","","","","","","2001","2001/08/12 00:00:00+00","224","1645","Natural","Natural","","2001/08/13 00:00:00+00","225","0800","0.5","B","43.73527778","-121.98333333","USFS","OR","","",""
"-122.292485976","43.452494625","140224","141619","FS-367828","FED","FS-FIRESTAT","FS","USORWIF","Willamette National Forest","0618","Willamette National Forest","9","","0001","MCLEAN","","","","","","2001","2001/07/10 00:00:00+00","191","1345","Natural","Natural","","2001/07/10 00:00:00+00","191","1715","0.1","A","43.4525","-122.2925","USFS","OR","","",""
"-103.526656344","43.948326248","140225","141620","FS-367829","FED","FS-FIRESTAT","FS","USSDBKF","Black Hills National Forest","0203","Black Hills National Forest","41","","0910","MISTLETOE","","","","","","2001","2001/06/24 00:00:00+00","175","1700","Natural","Natural","","2001/06/24 00:00:00+00","175","2000","0.3","B","43.94833333","-103.52666667","USFS","SD","","",""
"-103.937767394","43.679992985","140226","141621","FS-367830","FED","FS-FIRESTAT","FS","USSDBKF","Black Hills National Forest","0203","Black Hills National Forest","50","","0919","JUMP OFF","","","","","","2001","2001/07/03 00:00:00+00","184","1100","Natural","Natural","","2001/07/03 00:00:00+00","184","2015","0.5","B","43.68","-103.93777778","USFS","SD","","",""
"-103.8247119","43.423881898","140227","141622","FS-367831","FED","FS-FIRESTAT","FS","USSDBKF","Black Hills National Forest","0203","Black Hills National Forest","51","","0920","CRAVEN","","","","","","2001","2001/07/04 00:00:00+00","185","1300","Natural","Natural","","2001/07/04 00:00:00+00","185","1520","0.1","A","43.42388889","-103.82472222","USFS","SD","","",""
"-104.446656041","44.449992931","140228","141623","FS-367833","FED","FS-FIRESTAT","FS","USSDBKF","Black Hills National Forest","0203","Black Hills National Forest","53","","0922","BEAR DEN","","","","","","2001","2001/07/05 00:00:00+00","186","1700","Human","Recreation and ceremony","","2001/07/05 00:00:00+00","186","1800","0.1","A","44.45","-104.44666667","USFS","WY","","",""
"-103.684989609","44.11832624","140229","141624","FS-367834","FED","FS-FIRESTAT","FS","USSDBKF","Black Hills National Forest","0203","Black Hills National Forest","54","","0923","BLIND GULCH","","","","","","2001","2001/07/06 00:00:00+00","187","0400","Natural","Natural","","2001/07/07 00:00:00+00","188","1400","7","B","44.11833333","-103.685","USFS","SD","","",""
"-103.924434051","43.723326308","140230","141625","FS-367835","FED","FS-FIRESTAT","FS","USSDBKF","Black Hills National Forest","0203","Black Hills National Forest","55","","0924","TEPEE","","","","","","2001","2001/07/06 00:00:00+00","187","2104","Natural","Natural","","2001/07/06 00:00:00+00","187","2133","0.1","A","43.72333333","-103.92444444","USFS","SD","","",""
"-103.529989728","43.583326294","140231","141626","FS-367836","FED","FS-FIRESTAT","FS","USSDBKF","Black Hills National Forest","0203","Black Hills National Forest","56","","0925","COLD SPRINGS","","","","","","2001","2001/07/07 00:00:00+00","188","1330","Natural","Natural","","2001/07/07 00:00:00+00","188","2330","15","C","43.58333333","-103.53","USFS","SD","","",""
"-103.791100645","44.418603991","140232","141627","FS-367837","FED","FS-FIRESTAT","FS","USSDBKF","Black Hills National Forest","0203","Black Hills National Forest","57","","0926","TETRO","","","","","","2001","2001/07/07 00:00:00+00","188","1200","Natural","Natural","","2001/07/08 00:00:00+00","189","1515","2","B","44.41861111","-103.79111111","USFS","SD","","",""
"-103.505267411","44.254992878","140233","141628","FS-367838","FED","FS-FIRESTAT","FS","USSDBKF","Black Hills National Forest","0203","Black Hills National Forest","58","","0927","ELK CANYON","","","","","","2001","2001/07/08 00:00:00+00","189","1055","Natural","Natural","","2001/07/08 00:00:00+00","189","2000","0.5","B","44.255","-103.50527778","USFS","SD","","",""
"-103.699989557","44.423326203","140234","141629","FS-367839","FED","FS-FIRESTAT","FS","USSDBKF","Black Hills National Forest","0203","Black Hills National Forest","59","","0928","ROCKY RIDGE","","","","","","2001","2001/07/08 00:00:00+00","189","1515","Natural","Natural","","2001/07/09 00:00:00+00","190","1200","1","B","44.42333333","-103.7","USFS","SD","","",""
"-104.400544921","44.583326242","140235","141630","FS-367840","FED","FS-FIRESTAT","FS","USSDBKF","Black Hills National Forest","0203","Black Hills National Forest","60","","0929","RT","","","","","","2001","2001/07/08 00:00:00+00","189","1500","Natural","Natural","","2001/07/08 00:00:00+00","189","2100","1","B","44.58333333","-104.40055556","USFS","WY","","",""
"-71.508332488","44.031379921","140236","141631","FS-367841","FED","FS-FIRESTAT","FS","USNHWMF","White Mountain National Forest","0922","White Mountain National Forest","1","","","PITCHER FALLS","","","","","","2001","2001/07/29 00:00:00+00","210","1430","Human","Recreation and ceremony","","2001/07/29 00:00:00+00","210","1800","0.1","A","44.03138889","-71.50833333","USFS","NH","","",""
"-70.84999936","44.316657628","140237","141632","FS-367842","FED","FS-FIRESTAT","FS","USNHWMF","White Mountain National Forest","0922","White Mountain National Forest","2","","","FARWELL","","","","","","2001","2001/08/04 00:00:00+00","216","2040","Natural","Natural","","2001/08/14 00:00:00+00","226","2030","5","B","44.31666667","-70.85","USFS","ME","","",""
"-71.572221352","44.099991021","140238","141633","FS-367843","FED","FS-FIRESTAT","FS","USNHWMF","White Mountain National Forest","0922","White Mountain National Forest","3","","","FRANCONIA FALLS","","","","","","2001","2001/07/29 00:00:00+00","210","1201","Human","Recreation and ceremony","","2001/07/29 00:00:00+00","210","1400","0.1","A","44.1","-71.57222222","USFS","NH","","",""
"-71.58138802","44.087768803","140239","141634","FS-367844","FED","FS-FIRESTAT","FS","USNHWMF","White Mountain National Forest","0922","White Mountain National Forest","4","","","FR 87","","","","","","2001","2001/08/08 00:00:00+00","220","1200","Human","Recreation and ceremony","","2001/08/08 00:00:00+00","220","1800","0.1","A","44.08777778","-71.58138889","USFS","NH","","",""
"-70.799999377","44.302213179","140240","141635","FS-367845","FED","FS-FIRESTAT","FS","USNHWMF","White Mountain National Forest","0922","White Mountain National Forest","6","","","BELL MOUNTAIN","","","","","","2001","2001/08/12 00:00:00+00","224","1015","Natural","Natural","","2001/08/13 00:00:00+00","225","1900","0.2","A","44.30222222","-70.8","USFS","ME","","",""
"-71.581110236","44.149435452","140241","141636","FS-367846","FED","FS-FIRESTAT","FS","USNHWMF","White Mountain National Forest","0922","White Mountain National Forest","9","","","RED ROCK BROOK","","","","","","2001","2001/08/18 00:00:00+00","230","1500","Human","Recreation and ceremony","","2001/08/18 00:00:00+00","230","1830","0.1","A","44.14944444","-71.58111111","USFS","NH","","",""
"-71.578888027","43.991102151","140242","141637","FS-367847","FED","FS-FIRESTAT","FS","USNHWMF","White Mountain National Forest","0922","White Mountain National Forest","10","","","TRIPOLI","","","","","","2001","2001/08/20 00:00:00+00","232","1500","Human","Recreation and ceremony","","2001/08/20 00:00:00+00","232","1630","0.1","A","43.99111111","-71.57888889","USFS","NH","","",""
"-71.743332411","44.013046602","140243","141638","FS-367848","FED","FS-FIRESTAT","FS","USNHWMF","White Mountain National Forest","0922","White Mountain National Forest","11","","","WALKER","","","","","","2001","2001/08/25 00:00:00+00","237","1130","Human","Arson/incendiarism","","2001/08/25 00:00:00+00","237","1310","0.5","B","44.01305556","-71.74333333","USFS","NH","","",""
"-71.578332461","44.093879912","140244","141639","FS-367849","FED","FS-FIRESTAT","FS","USNHWMF","White Mountain National Forest","0922","White Mountain National Forest","12","","","LINCOLN WOODS","","","","","","2001","2001/08/30 00:00:00+00","242","1600","Human","Recreation and ceremony","","2001/08/30 00:00:00+00","242","1800","0.1","A","44.09388889","-71.57833333","USFS","NH","","",""
"-71.476665827","44.214990997","140245","141640","FS-367850","FED","FS-FIRESTAT","FS","USNHWMF","White Mountain National Forest","0922","White Mountain National Forest","13","","","ROCK GARDEN","","","","","","2001","2001/09/02 00:00:00+00","245","1200","Human","Recreation and ceremony","","2001/09/02 00:00:00+00","245","1700","0.1","A","44.215","-71.47666667","USFS","NH","","",""
"-71.598054675","44.235546557","140246","141641","FS-367851","FED","FS-FIRESTAT","FS","USNHWMF","White Mountain National Forest","0922","White Mountain National Forest","14","","","HAYSTACK","","","","","","2001","2001/09/08 00:00:00+00","251","1800","Human","Missing data/not specified/undetermined","","2001/09/10 00:00:00+00","253","1730","0.3","B","44.23555556","-71.59805556","USFS","NH","","",""
"-71.764443515","44.002491045","140247","141642","FS-367852","FED","FS-FIRESTAT","FS","USNHWMF","White Mountain National Forest","0922","White Mountain National Forest","15","","","LOST RIVER","","","","","","2001","2001/09/09 00:00:00+00","252","1630","Human","Recreation and ceremony","","2001/09/10 00:00:00+00","253","1200","0.1","A","44.0025","-71.76444444","USFS","NH","","",""
"-71.606110238","43.9980466","140248","141643","FS-367853","FED","FS-FIRESTAT","FS","USNHWMF","White Mountain National Forest","0922","White Mountain National Forest","16","","","EASTMAN BROOK","","","","","","2001","2001/09/12 00:00:00+00","255","1400","Human","Recreation and ceremony","","2001/09/12 00:00:00+00","255","2000","0.1","A","43.99805556","-71.60611111","USFS","NH","","",""
"-71.69972131","44.097213246","140249","141644","FS-367854","FED","FS-FIRESTAT","FS","USNHWMF","White Mountain National Forest","0922","White Mountain National Forest","17","","","INDIAN HEAD","","","","","","2001","2001/09/15 00:00:00+00","258","1500","Human","Equipment and vehicle use","","2001/09/17 00:00:00+00","260","1600","3","B","44.09722222","-71.69972222","USFS","NH","","",""
"-71.526665816","44.120824346","140250","141645","FS-367855","FED","FS-FIRESTAT","FS","USNHWMF","White Mountain National Forest","0922","White Mountain National Forest","18","","","BLACK BROOK","","","","","","2001","2001/09/15 00:00:00+00","258","1200","Human","Recreation and ceremony","","2001/09/15 00:00:00+00","258","1730","0.1","A","44.12083333","-71.52666667","USFS","NH","","",""
"-71.250832555","44.329435409","140251","141646","FS-367856","FED","FS-FIRESTAT","FS","USNHWMF","White Mountain National Forest","0922","White Mountain National Forest","5","","","OSGOOD","","","","","","2001","2001/08/11 00:00:00+00","223","0950","Human","Recreation and ceremony","","2001/08/14 00:00:00+00","226","1700","1","B","44.32944444","-71.25083333","USFS","NH","","",""
"-71.323888116","43.931935483","140252","141647","FS-367857","FED","FS-FIRESTAT","FS","USNHWMF","White Mountain National Forest","0922","White Mountain National Forest","7","","","PAUGUS","","","","","","2001","2001/08/14 00:00:00+00","226","1000","Natural","Natural","","2001/08/14 00:00:00+00","226","1600","1.3","B","43.93194444","-71.32388889","USFS","NH","","",""
"-71.223610356","44.14776878","140253","141648","FS-367858","FED","FS-FIRESTAT","FS","USNHWMF","White Mountain National Forest","0922","White Mountain National Forest","8","","","IRON MOUNTAIN","","","","","","2001","2001/08/14 00:00:00+00","226","1300","Natural","Natural","","2001/08/14 00:00:00+00","226","2100","0.3","B","44.14777778","-71.22361111","USFS","NH","","",""
"-115.095819433","48.897215736","140254","141649","FS-367859","FED","FS-FIRESTAT","FS","USMTKNF","Kootenai National Forest","0114","Kootenai National Forest","4","","5100","RIVER DRIVE","","","","","","2001","2001/03/23 00:00:00+00","82","1551","Human","Debris and open burning","","2001/03/23 00:00:00+00","82","1627","1","B","48.89722222","-115.09583333","STATE OR PRIVATE","MT","","",""
"-115.124152754","48.951660185","140255","141650","FS-367860","FED","FS-FIRESTAT","FS","USMTKNF","Kootenai National Forest","0114","Kootenai National Forest","5","","5100","TURTLE LAKE","","","","","","2001","2001/03/24 00:00:00+00","83","1541","Human","Debris and open burning","","2001/03/24 00:00:00+00","83","1555","0.3","B","48.95166667","-115.12416667","OTHER FEDERAL","MT","","",""
"-115.086097212","48.908326844","140256","141651","FS-367861","FED","FS-FIRESTAT","FS","USMTKNF","Kootenai National Forest","0114","Kootenai National Forest","6","","5100","PIT","","","","","","2001","2001/03/24 00:00:00+00","83","1625","Human","Debris and open burning","","2001/03/24 00:00:00+00","83","1730","0.1","A","48.90833333","-115.08611111","STATE OR PRIVATE","MT","","",""
"-115.121652761","48.923604627","140257","141652","FS-367862","FED","FS-FIRESTAT","FS","USMTKNF","Kootenai National Forest","0114","Kootenai National Forest","8","","5100","PEACEFUL LODGE","","","","","","2001","2001/04/12 00:00:00+00","102","1500","Human","Debris and open burning","","2001/04/12 00:00:00+00","102","1519","20","C","48.92361111","-115.12166667","STATE OR PRIVATE","MT","","",""
