"ï»¿X","Y","OBJECTID","FOD_ID","FPA_ID","SOURCE_SYSTEM_TYPE","SOURCE_SYSTEM","NWCG_REPORTING_AGENCY","NWCG_REPORTING_UNIT_ID","NWCG_REPORTING_UNIT_NAME","SOURCE_REPORTING_UNIT","SOURCE_REPORTING_UNIT_NAME","LOCAL_FIRE_REPORT_ID","LOCAL_INCIDENT_ID","FIRE_CODE","FIRE_NAME","ICS_209_PLUS_INCIDENT_JOIN_ID","ICS_209_PLUS_COMPLEX_JOIN_ID","MTBS_ID","MTBS_FIRE_NAME","COMPLEX_NAME","FIRE_YEAR","DISCOVERY_DATE","DISCOVERY_DOY","DISCOVERY_TIME","NWCG_CAUSE_CLASSIFICATION","NWCG_GENERAL_CAUSE","NWCG_CAUSE_AGE_CATEGORY","CONT_DATE","CONT_DOY","CONT_TIME","FIRE_SIZE","FIRE_SIZE_CLASS","LATITUDE","LONGITUDE","OWNER_DESCR","STATE","COUNTY","FIPS_CODE","FIPS_NAME"
"-82.2353859","37.613403619","1925001","400048516","SFO-2016KY-KYS19520169002","NONFED","ST-NASF","ST/C&L","USKYKYS","Kentucky Division of Forestry","KYKYS","Kentucky Division of Forestry","","19520169002","","NORMAN STREET (HARDY)","","","","","","2016","2016/02/28 00:00:00+00","59","1545","Human","Recreation and ceremony","","2016/02/28 00:00:00+00","59","1930","18","C","37.61341094","-82.2353897","MISSING/NOT SPECIFIED","KY","Pike","21195","Pike County"
"-82.895732638","38.40509432","1925002","400048517","SFO-2016KY-KYS08920169003","NONFED","ST-NASF","ST/C&L","USKYKYS","Kentucky Division of Forestry","KYKYS","Kentucky Division of Forestry","","08920169003","","DARBY HOLLOW FIRE","","","","","","2016","2016/02/28 00:00:00+00","59","1552","Human","Recreation and ceremony","","2016/02/28 00:00:00+00","59","1949","7","B","38.40510177","-82.89573669","MISSING/NOT SPECIFIED","KY","Greenup","21089","Greenup County"
"-73.879398582","40.876891707","1925003","400048518","SFO-2016NY2401NY2401-2016-0235651","NONFED","ST-NASF","ST/C&L","USNYNYX","Fire Department of New York","NY2401","Fire Department of New York","","NY2401-2016-0235651","","N/A","","","","","","2016","2016/02/28 00:00:00+00","59","1914","Human","Recreation and ceremony","","2016/02/28 00:00:00+00","59","1951","0.1","A","40.8769","-73.8794","MISSING/NOT SPECIFIED","NY","Bronx","36005","Bronx County"
"-73.862898578","41.034891676","1925004","400048519","SFO-2016NY6023NY6023-2016-0000056","NONFED","ST-NASF","ST/C&L","USNYNYX","Fire Department of New York","NY6023","Fire Department of New York","","NY6023-2016-0000056","","N/A","","","","","","2016","2016/02/28 00:00:00+00","59","1932","Human","Recreation and ceremony","","2016/02/28 00:00:00+00","59","1952","0.1","A","41.0349","-73.8629","MISSING/NOT SPECIFIED","NY","Westchester","36119","Westchester County"
"-85.408412005","37.578682393","1925005","400048520","SFO-2016KY-KYS15520169001","NONFED","ST-NASF","ST/C&L","USKYKYS","Kentucky Division of Forestry","KYKYS","Kentucky Division of Forestry","","15520169001","","HAZY DOWNS RD. FIRE","","","","","","2016","2016/02/28 00:00:00+00","59","1930","Human","Recreation and ceremony","","2016/02/28 00:00:00+00","59","2200","12","C","37.57868957","-85.40841674","MISSING/NOT SPECIFIED","KY","Marion","21155","Marion County"
"-82.769862986","37.527851448","1925006","400048521","SFO-2016KY-KYS07120169002","NONFED","ST-NASF","ST/C&L","USKYKYS","Kentucky Division of Forestry","KYKYS","Kentucky Division of Forestry","","07120169002","","LANGLEY HENRYS BR.","","","","","","2016","2016/02/28 00:00:00+00","59","1605","Human","Recreation and ceremony","","2016/02/28 00:00:00+00","59","2222","60","C","37.52785873","-82.76986694","MISSING/NOT SPECIFIED","KY","Floyd","21071","Floyd County"
"-82.624317061","37.655853587","1925007","400048522","SFO-2016KY-KYS07120169003","NONFED","ST-NASF","ST/C&L","USKYKYS","Kentucky Division of Forestry","KYKYS","Kentucky Division of Forestry","","07120169003","","COW CREEK","","","","","","2016","2016/02/28 00:00:00+00","59","2230","Human","Recreation and ceremony","","2016/02/28 00:00:00+00","59","2336","1","B","37.6558609","-82.62432098","MISSING/NOT SPECIFIED","KY","Floyd","21071","Floyd County"
"-87.086847823","37.248604414","1925008","400048523","SFO-2016KY-KYS17720169001","NONFED","ST-NASF","ST/C&L","USKYKYS","Kentucky Division of Forestry","KYKYS","Kentucky Division of Forestry","","17720169001","","HILLVEIW STREET","","","","","","2016","2016/02/29 00:00:00+00","60","1400","Human","Recreation and ceremony","","2016/02/29 00:00:00+00","60","1445","0.5","B","37.24861145","-87.08685302","MISSING/NOT SPECIFIED","KY","Muhlenberg","21177","Muhlenberg County"
"-81.170496939","28.918994561","1925009","400048524","SFO-2016FLFLS2016100117","NONFED","ST-NASF","ST/C&L","USFLFLS","Florida Forest Service","FLFLS","Florida Forest Service","","2016100117","","VAN ALLEN (64)","","","","","","2016","2016/02/29 00:00:00+00","60","1320","Human","Recreation and ceremony","","2016/02/29 00:00:00+00","60","1518","1","B","28.919","-81.1705","MUNICIPAL/LOCAL","FL","Volusia","12127","Volusia County"
"-82.775722375","37.211761882","1925010","400048525","SFO-2016KY-KYS13320169001","NONFED","ST-NASF","ST/C&L","USKYKYS","Kentucky Division of Forestry","KYKYS","Kentucky Division of Forestry","","13320169001","","MILLSTONE","","","","","","2016","2016/02/29 00:00:00+00","60","1400","Human","Recreation and ceremony","","2016/02/29 00:00:00+00","60","1530","1","B","37.2117691","-82.77572631","MISSING/NOT SPECIFIED","KY","Letcher","21133","Letcher County"
"-73.822598608","40.75069173","1925011","400048526","SFO-2016NY2401NY2401-2016-0239554","NONFED","ST-NASF","ST/C&L","USNYNYX","Fire Department of New York","NY2401","Fire Department of New York","","NY2401-2016-0239554","","N/A","","","","","","2016","2016/02/29 00:00:00+00","60","1757","Human","Recreation and ceremony","","2016/02/29 00:00:00+00","60","1844","0.1","A","40.7507","-73.8226","MISSING/NOT SPECIFIED","NY","Queens","36081","Queens County"
"-83.153636687","37.295242711","1925012","400048527","SFO-2016KY-KYS19320169006","NONFED","ST-NASF","ST/C&L","USKYKYS","Kentucky Division of Forestry","KYKYS","Kentucky Division of Forestry","","19320169006","","HARDBURLY","","","","","","2016","2016/02/29 00:00:00+00","60","1657","Human","Recreation and ceremony","","2016/02/29 00:00:00+00","60","1900","2","B","37.29524993","-83.15364074","MISSING/NOT SPECIFIED","KY","Perry","21193","Perry County"
"-86.036995278","34.565993457","1925013","400048528","SFO-2016ALAFC358","NONFED","ST-NASF","ST/C&L","USALALS","Alabama Forestry Commission","ALAFC","Alabama Forestry Commission","","358","","20160229-13","","","","","","2016","2016/02/29 00:00:00+00","60","1856","Human","Recreation and ceremony","","2016/02/29 00:00:00+00","60","1910","1","B","34.566","-86.037","MISSING/NOT SPECIFIED","AL","Jackson","01071","Jackson County"
"-73.878198582","40.878791707","1925014","400048529","SFO-2016NY2401NY2401-2016-0247773","NONFED","ST-NASF","ST/C&L","USNYNYX","Fire Department of New York","NY2401","Fire Department of New York","","NY2401-2016-0247773","","N/A","","","","","","2016","2016/03/02 00:00:00+00","62","2232","Human","Recreation and ceremony","","2016/03/02 00:00:00+00","62","2246","0.1","A","40.8788","-73.8782","MISSING/NOT SPECIFIED","NY","Bronx","36005","Bronx County"
"-81.884602184","31.674143938","1925015","400048530","SFO-2016GAGAS-FY2016-Wayne-017","NONFED","ST-NASF","ST/C&L","USGAGAS","Georgia Forestry Commission","GAGAS","Georgia Forestry Commission","","FY2016-Wayne-017","","FY2016-WAYNE-017","","","","","","2016","2016/03/03 00:00:00+00","63","1225","Human","Recreation and ceremony","","2016/03/03 00:00:00+00","63","1248","0.02","A","31.67415","-81.88460556","PRIVATE","GA","Wayne               ","13305","Wayne County"
"-73.757798573","41.655691552","1925016","400048531","SFO-2016NY1415NY1415-2016-0000362","NONFED","ST-NASF","ST/C&L","USNYNYX","Fire Department of New York","NY1415","Fire Department of New York","","NY1415-2016-0000362","","N/A","","","","","","2016","2016/03/03 00:00:00+00","63","1420","Human","Recreation and ceremony","","2016/03/03 00:00:00+00","63","1436","0.1","A","41.6557","-73.7578","MISSING/NOT SPECIFIED","NY","Dutchess","36027","Dutchess County"
"-73.919998569","40.878691708","1925017","400048532","SFO-2016NY2401NY2401-2016-0250074","NONFED","ST-NASF","ST/C&L","USNYNYX","Fire Department of New York","NY2401","Fire Department of New York","","NY2401-2016-0250074","","N/A","","","","","","2016","2016/03/03 00:00:00+00","63","1552","Human","Recreation and ceremony","","2016/03/03 00:00:00+00","63","1609","0.1","A","40.8787","-73.92","MISSING/NOT SPECIFIED","NY","Bronx","36005","Bronx County"
"-105.993189721","39.221893721","1925018","400048533","SFO-2016930595","NONFED","ST-NASF","ST/C&L","USCONWEX","Northwest Fire Protection District","9305","Northwest Fire Protection District","","95","","UNKNOWN","","","","","","2016","2016/03/04 00:00:00+00","64","1011","Human","Recreation and ceremony","","2016/03/04 00:00:00+00","64","1047","1","B","39.2219","-105.9932","MISSING/NOT SPECIFIED","CO","Park","08093","Park County"
"-105.120689866","39.698593596","1925019","400048534","SFO-201659094706","NONFED","ST-NASF","ST/C&L","USCOWEMX","West Metro Fire Rescue","5909","West Metro Fire Rescue","","4706","","UNKNOWN","","","","","","2016","2016/03/04 00:00:00+00","64","1739","Human","Recreation and ceremony","","2016/03/04 00:00:00+00","64","1803","0.2","A","39.6986","-105.1207","MISSING/NOT SPECIFIED","CO","Jefferson","08059","Jefferson County"
"-73.781298565","41.662091552","1925020","400048535","SFO-2016NY1415NY1415-2016-0000371","NONFED","ST-NASF","ST/C&L","USNYNYX","Fire Department of New York","NY1415","Fire Department of New York","","NY1415-2016-0000371","","N/A","","","","","","2016","2016/03/05 00:00:00+00","65","1350","Human","Recreation and ceremony","","2016/03/05 00:00:00+00","65","1452","0.1","A","41.6621","-73.7813","MISSING/NOT SPECIFIED","NY","Dutchess","36027","Dutchess County"
"-87.135395167","30.643294339","1925021","400048536","SFO-2016FLFLS2016010172","NONFED","ST-NASF","ST/C&L","USFLFLS","Florida Forest Service","FLFLS","Florida Forest Service","","2016010172","","DERBY DR (57)","","","","","","2016","2016/03/05 00:00:00+00","65","1515","Human","Recreation and ceremony","","2016/03/05 00:00:00+00","65","1542","1","B","30.6433","-87.1354","PRIVATE","FL","Santa Rosa","12113","Santa Rosa County"
"-105.071689834","40.069493542","1925022","400048537","SFO-201613631600598","NONFED","ST-NASF","ST/C&L","USCOMVWX","Mountain View Fire Protection District","1363","Mountain View Fire Protection District","","1600598","","UNKNOWN","","","","","","2016","2016/03/05 00:00:00+00","65","1637","Human","Recreation and ceremony","","2016/03/05 00:00:00+00","65","1643","0.01","A","40.0695","-105.0717","UNDEFINED FEDERAL","CO","Boulder","08013","Boulder County"
"-83.098229089","35.256957197","1925023","400048538","SFO-2016NC-NCSNCST-050-FY2016-0010","NONFED","ST-NASF","ST/C&L","USNCNCS","North Carolina Forest Service","NCNCS","North Carolina State Division of Forest Resouces","","NCST-050-FY2016-0010","","CEDAR CLIFF","","","","","","2016","2016/03/05 00:00:00+00","65","1530","Human","Recreation and ceremony","","2016/03/05 00:00:00+00","65","1700","1.15","B","35.256964","-83.098233","MISSING/NOT SPECIFIED","NC","Jackson","37099","Jackson County"
"-75.956897834","42.123091546","1925024","400048539","SFO-2016NY0418NY0418-2016-00391","NONFED","ST-NASF","ST/C&L","USNYNYX","Fire Department of New York","NY0418","Fire Department of New York","","NY0418-2016-00391","","N/A","","","","","","2016","2016/03/05 00:00:00+00","65","2032","Human","Recreation and ceremony","","2016/03/05 00:00:00+00","65","2047","0.1","A","42.1231","-75.9569","PRIVATE","NY","Broome","36007","Broome County"
"-90.290703885","37.403693088","1925025","400048540","SFO-2016MO-MOSMO-06205-2016-136101","NONFED","ST-NASF","ST/C&L","USMOMOS","Missouri Department of Conservation","MOMOS","Missouri Department of Conservation","","MO-06205-2016-136101","","136101-06205-03052016-2005","","","","","","2016","2016/03/05 00:00:00+00","65","2005","Human","Recreation and ceremony","","2016/03/05 00:00:00+00","65","2100","2","B","37.4037","-90.29071","MISSING/NOT SPECIFIED","MO","Madison","29123","Madison County"
"-73.824898606","40.777691725","1925026","400048541","SFO-2016NY2401NY2401-2016-0258385","NONFED","ST-NASF","ST/C&L","USNYNYX","Fire Department of New York","NY2401","Fire Department of New York","","NY2401-2016-0258385","","N/A","","","","","","2016","2016/03/05 00:00:00+00","65","2207","Human","Recreation and ceremony","","2016/03/05 00:00:00+00","65","2223","0.1","A","40.7777","-73.8249","MISSING/NOT SPECIFIED","NY","Queens","36081","Queens County"
"-105.471189891","38.765893749","1925027","400048542","SFO-20169325177615","NONFED","ST-NASF","ST/C&L","USCOSPCX","Southern Park County Fire Protection District","9325","Southern Park County Fire Protection District","","177615","","UNKNOWN","","","","","","2016","2016/03/05 00:00:00+00","65","1210","Human","Recreation and ceremony","","2016/03/05 00:00:00+00","65","2359","50","C","38.7659","-105.4712","MISSING/NOT SPECIFIED","CO","Park","08093","Park County"
"-72.342685751","41.322855468","1925028","400048543","SFO-2016CT_CTS105-2016-0001","NONFED","ST-NASF","ST/C&L","USCTCTS","Connecticut Division of Forestry","CTCTS","Connecticut Division of Forestry","","105-2016-0001","","24 NECK ROAD OLD LYME","","","","","","2016","2016/03/05 00:00:00+00","65","1512","Human","Recreation and ceremony","","2016/03/05 00:00:00+00","65","","0.1","A","41.3228639","-72.3426867","PRIVATE","CT","Middlesex","09007","Middlesex County"
"-70.506185513","43.687967061","1925029","400048544","SFO-2016ME_MES42106004","NONFED","ST-NASF","ST/C&L","USMEMES","Maine Forest Service","MEMES","Maine Forest Service","","42106004","","GARZA","","","","","","2016","2016/03/06 00:00:00+00","66","1030","Human","Recreation and ceremony","","2016/03/06 00:00:00+00","66","1044","1.5","B","43.687976","-70.506186","MISSING/NOT SPECIFIED","ME","Cumberland","23005","Cumberland County"
"-93.691353874","38.346767096","1925030","400048545","SFO-2016MO-MOSMO-02222-2016-133938","NONFED","ST-NASF","ST/C&L","USMOMOS","Missouri Department of Conservation","MOMOS","Missouri Department of Conservation","","MO-02222-2016-133938","","133938-02222-03062016-1044","","","","","","2016","2016/03/06 00:00:00+00","66","1044","Human","Recreation and ceremony","","2016/03/06 00:00:00+00","66","1055","1","B","38.346774","-93.691361","MISSING/NOT SPECIFIED","MO","Henry","29083","Henry County"
"-85.391095659","30.636694284","1925031","400048546","SFO-2016FLFLS2016020166","NONFED","ST-NASF","ST/C&L","USFLFLS","Florida Forest Service","FLFLS","Florida Forest Service","","2016020166","","HIGHLANDS CIRCLE  (32)","","","","","","2016","2016/03/06 00:00:00+00","66","1145","Human","Recreation and ceremony","","2016/03/06 00:00:00+00","66","1233","1","B","30.6367","-85.3911","PRIVATE","FL","Jackson","12063","Jackson County"
"-74.028898493","41.543891583","1925032","400048547","SFO-2016NY3609NY3609-2016-0010063","NONFED","ST-NASF","ST/C&L","USNYNYX","Fire Department of New York","NY3609","Fire Department of New York","","NY3609-2016-0010063","","N/A","","","","","","2016","2016/03/06 00:00:00+00","66","1121","Human","Recreation and ceremony","","2016/03/06 00:00:00+00","66","1246","0.8","B","41.5439","-74.0289","MISSING/NOT SPECIFIED","NY","Orange","36071","Orange County"
"-84.068309746","34.37593786","1925033","400048548","SFO-2016GAGAS-FY2016-Dawson-009","NONFED","ST-NASF","ST/C&L","USGAGAS","Georgia Forestry Commission","GAGAS","Georgia Forestry Commission","","FY2016-Dawson-009","","FY2016-DAWSON-009","","","","","","2016","2016/03/06 00:00:00+00","66","1204","Human","Recreation and ceremony","","2016/03/06 00:00:00+00","66","1316","2.1","B","34.37594444","-84.06831389","PRIVATE","GA","Dawson              ","13085","Dawson County"
"-72.636798978","40.938991652","1925034","400048549","SFO-2016NY5290NY5290-2016-223","NONFED","ST-NASF","ST/C&L","USNYNYX","Fire Department of New York","NY5290","Fire Department of New York","","NY5290-2016-223","","N/A","","","","","","2016","2016/03/06 00:00:00+00","66","1425","Human","Recreation and ceremony","","2016/03/06 00:00:00+00","66","1440","0.1","A","40.939","-72.6368","MUNICIPAL/LOCAL","NY","Suffolk","36103","Suffolk County"
"-95.881592766","31.770594419","1925035","400048550","SFO-2016TXTXS4105","NONFED","ST-NASF","ST/C&L","USTXTXS","Texas A & M Forest Service","TXTXS","Texas Forest Service","","4105","","7045","","","","","","2016","2016/03/06 00:00:00+00","66","1222","Human","Recreation and ceremony","","2016/03/06 00:00:00+00","66","1544","22","C","31.7706","-95.8816","MISSING/NOT SPECIFIED","TX","Anderson","48001","Anderson County"
"-72.589797924","42.098542427","1925036","400048551","SFO-2016MADCRMA110160027","NONFED","ST-NASF","ST/C&L","USMAMAS","Massachusetts Bureau of Forest Fire Control","MADCR","Massachusetts Department of Conservation and Recreation","","MA110160027","","","","","","","","2016","2016/03/06 00:00:00+00","66","1026","Human","Recreation and ceremony","","2016/03/06 00:00:00+00","66","","0.1","A","42.098551","-72.589799","MISSING/NOT SPECIFIED","MA","Hampden","25013","Hampden County"
"-81.509396887","27.489694916","1925037","400048552","SFO-2016FLFLS2016160083","NONFED","ST-NASF","ST/C&L","USFLFLS","Florida Forest Service","FLFLS","Florida Forest Service","","2016160083","","WOOD PECKER (28)","","","","","","2016","2016/03/07 00:00:00+00","67","0930","Human","Recreation and ceremony","","2016/03/07 00:00:00+00","67","1045","1","B","27.4897","-81.5094","PRIVATE","FL","Highlands","12055","Highlands County"
"-87.284685591","37.3163725","1925038","400048553","SFO-2016KY-KYS17720169003","NONFED","ST-NASF","ST/C&L","USKYKYS","Kentucky Division of Forestry","KYKYS","Kentucky Division of Forestry","","17720169003","","CRESENT HAUL ROAD","","","","","","2016","2016/03/07 00:00:00+00","67","1300","Human","Recreation and ceremony","","2016/03/07 00:00:00+00","67","1336","1.05","B","37.31637954","-87.28469085","MISSING/NOT SPECIFIED","KY","Muhlenberg","21177","Muhlenberg County"
"-87.984751009","37.212483093","1925039","400048554","SFO-2016KY-KYS03320169501","NONFED","ST-NASF","ST/C&L","USKYKYS","Kentucky Division of Forestry","KYKYS","Kentucky Division of Forestry","","03320169501","","R WHITE ROAD","","","","","","2016","2016/03/07 00:00:00+00","67","1415","Human","Recreation and ceremony","","2016/03/07 00:00:00+00","67","1500","15","C","37.21249008","-87.98475646","MISSING/NOT SPECIFIED","KY","Caldwell","21033","Caldwell County"
"-81.253307751","32.965436627","1925040","400048555","SFO-2016SCSCS16WF0152","NONFED","ST-NASF","ST/C&L","USSCSCS","South Carolina Forestry Commission","SCSCS","South Carolina Forestry Commission","","16WF0152","","","","","","","","2016","2016/03/07 00:00:00+00","67","1703","Human","Recreation and ceremony","","2016/03/07 00:00:00+00","67","1752","0.5","B","32.965443","-81.253311","PRIVATE","SC","Allendale County","45005","Allendale County"
"-83.188518263","37.359013","1925041","400048556","SFO-2016KY-KYS19320169008","NONFED","ST-NASF","ST/C&L","USKYKYS","Kentucky Division of Forestry","KYKYS","Kentucky Division of Forestry","","19320169008","","JONES CIRCLE","","","","","","2016","2016/03/07 00:00:00+00","67","1550","Human","Recreation and ceremony","","2016/03/07 00:00:00+00","67","1815","3","B","37.35902023","-83.18852233","MISSING/NOT SPECIFIED","KY","Perry","21193","Perry County"
"-73.696198631","41.038991669","1925042","400048557","SFO-2016NY6045NY6045-2016-0000098","NONFED","ST-NASF","ST/C&L","USNYNYX","Fire Department of New York","NY6045","Fire Department of New York","","NY6045-2016-0000098","","N/A","","","","","","2016","2016/03/07 00:00:00+00","67","1721","Human","Recreation and ceremony","","2016/03/07 00:00:00+00","67","1915","0.1","A","41.039","-73.6962","MISSING/NOT SPECIFIED","NY","Westchester","36119","Westchester County"
"-74.005098523","41.186591651","1925043","400048558","SFO-2016NY4409NY4409-2016-0000121","NONFED","ST-NASF","ST/C&L","USNYNYX","Fire Department of New York","NY4409","Fire Department of New York","","NY4409-2016-0000121","","N/A","","","","","","2016","2016/03/07 00:00:00+00","67","2030","Human","Recreation and ceremony","","2016/03/07 00:00:00+00","67","2118","0.1","A","41.1866","-74.0051","MISSING/NOT SPECIFIED","NY","Rockland","36087","Rockland County"
"-82.199207344","37.404663429","1925044","400048559","SFO-2016KY-KYS19520169003","NONFED","ST-NASF","ST/C&L","USKYKYS","Kentucky Division of Forestry","KYKYS","Kentucky Division of Forestry","","19520169003","","DON FREEMAN ROAD","","","","","","2016","2016/03/07 00:00:00+00","67","1911","Human","Recreation and ceremony","","2016/03/07 00:00:00+00","67","2150","1","B","37.40467071","-82.19921112","MISSING/NOT SPECIFIED","KY","Pike","21195","Pike County"
"-75.93879784","42.108291548","1925045","400048560","SFO-2016NY0401NY0401-2016-0001673","NONFED","ST-NASF","ST/C&L","USNYNYX","Fire Department of New York","NY0401","Fire Department of New York","","NY0401-2016-0001673","","N/A","","","","","","2016","2016/03/07 00:00:00+00","67","0947","Human","Recreation and ceremony","","2016/03/07 00:00:00+00","67","0957","0.1","A","42.1083","-75.9388","PRIVATE","NY","Broome","36007","Broome County"
"-83.522166834","37.652214396","1925046","400048561","SFO-2016KY-KYS23720169001","NONFED","ST-NASF","ST/C&L","USKYKYS","Kentucky Division of Forestry","KYKYS","Kentucky Division of Forestry","","23720169001","","KY HWY 746","","","","","","2016","2016/03/08 00:00:00+00","68","1133","Human","Recreation and ceremony","","2016/03/08 00:00:00+00","68","1300","4","B","37.65222167","-83.52217102","MISSING/NOT SPECIFIED","KY","Wolfe","21237","Wolfe County"
"-82.831618534","32.427338239","1925047","400048562","SFO-2016GAGAS-FY2016-Laurens-037","NONFED","ST-NASF","ST/C&L","USGAGAS","Georgia Forestry Commission","GAGAS","Georgia Forestry Commission","","FY2016-Laurens-037","","FY2016-LAURENS-037","","","","","","2016","2016/03/08 00:00:00+00","68","1507","Human","Recreation and ceremony","","2016/03/08 00:00:00+00","68","1528","0.05","A","32.42734444","-82.83162222","STATE","GA","Laurens             ","13175","Laurens County"
"-82.97555897","38.325741009","1925048","400048563","SFO-2016KY-KYS04320169002","NONFED","ST-NASF","ST/C&L","USKYKYS","Kentucky Division of Forestry","KYKYS","Kentucky Division of Forestry","","04320169002","","BOURBON HOLLOW FIRE","","","","","","2016","2016/03/08 00:00:00+00","68","1625","Human","Recreation and ceremony","","2016/03/08 00:00:00+00","68","1738","1.5","B","38.32574844","-82.97556304","MISSING/NOT SPECIFIED","KY","Carter","21043","Carter County"
"-73.691298645","40.838791708","1925049","400048564","SFO-2016NY3053NY3053-2016-0000651","NONFED","ST-NASF","ST/C&L","USNYNYX","Fire Department of New York","NY3053","Fire Department of New York","","NY3053-2016-0000651","","N/A","","","","","","2016","2016/03/08 00:00:00+00","68","1827","Human","Recreation and ceremony","","2016/03/08 00:00:00+00","68","1854","0.1","A","40.8388","-73.6913","MISSING/NOT SPECIFIED","NY","Nassau","36059","Nassau County"
"-83.740832907","36.624313921","1925050","400048565","SFO-2016KY-KYS01320169002","NONFED","ST-NASF","ST/C&L","USKYKYS","Kentucky Division of Forestry","KYKYS","Kentucky Division of Forestry","","01320169002","","DUNLAP HOLLOW","","","","","","2016","2016/03/08 00:00:00+00","68","1540","Human","Recreation and ceremony","","2016/03/08 00:00:00+00","68","1900","2","B","36.62432098","-83.74083709","MISSING/NOT SPECIFIED","KY","Bell","21013","Bell County"
"-86.831195263","30.404594382","1925051","400048566","SFO-2016FLFLS2016010184","NONFED","ST-NASF","ST/C&L","USFLFLS","Florida Forest Service","FLFLS","Florida Forest Service","","2016010184","","BISCAYNE BAY (57)","","","","","","2016","2016/03/08 00:00:00+00","68","1700","Human","Recreation and ceremony","","2016/03/08 00:00:00+00","68","1901","2","B","30.4046","-86.8312","PRIVATE","FL","Santa Rosa","12113","Santa Rosa County"
"-82.385768872","37.353073478","1925052","400048567","SFO-2016KY-KYS19520169005","NONFED","ST-NASF","ST/C&L","USKYKYS","Kentucky Division of Forestry","KYKYS","Kentucky Division of Forestry","","19520169005","","ROAD CREEK","","","","","","2016","2016/03/08 00:00:00+00","68","1500","Human","Recreation and ceremony","","2016/03/08 00:00:00+00","68","1905","5","B","37.35308074","-82.3857727","MISSING/NOT SPECIFIED","KY","Pike","21195","Pike County"
"-82.014940996","32.344549351","1925053","400048568","SFO-2016GAGAS-FY2016-Candler-010","NONFED","ST-NASF","ST/C&L","USGAGAS","Georgia Forestry Commission","GAGAS","Georgia Forestry Commission","","FY2016-Candler-010","","FY2016-CANDLER-010","","","","","","2016","2016/03/08 00:00:00+00","68","1910","Human","Recreation and ceremony","","2016/03/08 00:00:00+00","68","1950","1.1","B","32.34455556","-82.01494444","PRIVATE","GA","Candler             ","13043","Candler County"
"-72.476406852","42.087545495","1925054","400048569","SFO-2016MADCRMA110160032","NONFED","ST-NASF","ST/C&L","USMAMAS","Massachusetts Bureau of Forest Fire Control","MADCR","Massachusetts Department of Conservation and Recreation","","MA110160032","","","","","","","","2016","2016/03/08 00:00:00+00","68","1301","Human","Recreation and ceremony","","2016/03/08 00:00:00+00","68","","0.25","A","42.08755407","-72.47640789","MISSING/NOT SPECIFIED","MA","Hampden","25013","Hampden County"
"-76.943697436","43.203191387","1925055","400048570","SFO-2016NY5912NY5912-2016-1600035","NONFED","ST-NASF","ST/C&L","USNYNYX","Fire Department of New York","NY5912","Fire Department of New York","","NY5912-2016-1600035","","N/A","","","","","","2016","2016/03/09 00:00:00+00","69","1030","Human","Recreation and ceremony","","2016/03/09 00:00:00+00","69","1054","0.1","A","43.2032","-76.9437","MISSING/NOT SPECIFIED","NY","Wayne","36117","Wayne County"
"-73.918498553","41.151791655","1925056","400048571","SFO-2016NY4414NY4414-2016-5","NONFED","ST-NASF","ST/C&L","USNYNYX","Fire Department of New York","NY4414","Fire Department of New York","","NY4414-2016-5","","N/A","","","","","","2016","2016/03/09 00:00:00+00","69","0908","Human","Recreation and ceremony","","2016/03/09 00:00:00+00","69","1125","0.1","A","41.1518","-73.9185","MISSING/NOT SPECIFIED","NY","Rockland","36087","Rockland County"
"-85.453545382","35.618943217","1925057","400048572","SFO-2016TNTNS16-C0033","NONFED","ST-NASF","ST/C&L","USTNTNS","Tennessee Division of Forestry","TNTNS","Tennessee Division of Forestry","","16-C0033","","TEEPEE FIRE","","","","","","2016","2016/03/09 00:00:00+00","69","0011","Human","Recreation and ceremony","","2016/03/09 00:00:00+00","69","0115","0.1","A","35.61895","-85.45355","PRIVATE","TN","VAN BUREN","47175","Van Buren County"
"-84.271708902","36.777893622","1925058","400048573","SFO-2016KY-KYS23520169501","NONFED","ST-NASF","ST/C&L","USKYKYS","Kentucky Division of Forestry","KYKYS","Kentucky Division of Forestry","","23520169501","","BROOKS RD","","","","","","2016","2016/03/09 00:00:00+00","69","1125","Human","Recreation and ceremony","","2016/03/09 00:00:00+00","69","1230","0.5","B","36.77790069","-84.27171325","MISSING/NOT SPECIFIED","KY","Whitley","21235","Whitley County"
"-74.125998461","41.542491587","1925059","400048574","SFO-2016NY3606NY3606-2016-0000052","NONFED","ST-NASF","ST/C&L","USNYNYX","Fire Department of New York","NY3606","Fire Department of New York","","NY3606-2016-0000052","","N/A","","","","","","2016","2016/03/09 00:00:00+00","69","1111","Human","Recreation and ceremony","","2016/03/09 00:00:00+00","69","1244","0.1","A","41.5425","-74.126","MISSING/NOT SPECIFIED","NY","Orange","36071","Orange County"
"-78.881236997","40.8790119","1925060","400048575","SFO-2016PAPAS06(16)1-003","NONFED","ST-NASF","ST/C&L","USPAPAS","Pennsylvania Division of Forest Fire Protection","PAPAS","Pennsylvania Division of Forest Fire Protection","","06(16)1-003","","HEMLOCK LAKE","","","","","","2016","2016/03/09 00:00:00+00","69","1248","Human","Recreation and ceremony","","2016/03/09 00:00:00+00","69","1320","1.3","B","40.87902","-78.88124","MISSING/NOT SPECIFIED","PA","INDIANA","42063","Indiana County"
"-75.35166808","41.364991666","1925061","400048576","SFO-2016PAPAS11(16)1-066","NONFED","ST-NASF","ST/C&L","USPAPAS","Pennsylvania Division of Forest Fire Protection","PAPAS","Pennsylvania Division of Forest Fire Protection","","11(16)1-066","","LEDGEDALE AT RIVER","","","","","","2016","2016/03/09 00:00:00+00","69","1230","Human","Recreation and ceremony","","2016/03/09 00:00:00+00","69","1400","1","B","41.365","-75.35167","MISSING/NOT SPECIFIED","PA","WAYNE","42127","Wayne County"
"-82.381374333","37.511970845","1925062","400048577","SFO-2016KY-KYS19520169006","NONFED","ST-NASF","ST/C&L","USKYKYS","Kentucky Division of Forestry","KYKYS","Kentucky Division of Forestry","","19520169006","","SUNSHINE LANE","","","","","","2016","2016/03/09 00:00:00+00","69","1400","Human","Recreation and ceremony","","2016/03/09 00:00:00+00","69","1609","2","B","37.51197814","-82.38137817","MISSING/NOT SPECIFIED","KY","Pike","21195","Pike County"
"-83.883319387","37.361652799","1925063","400048578","SFO-2016KY-KYS10920169004","NONFED","ST-NASF","ST/C&L","USKYKYS","Kentucky Division of Forestry","KYKYS","Kentucky Division of Forestry","","10920169004","","D CUNNINGHAM RD","","","","","","2016","2016/03/09 00:00:00+00","69","1550","Human","Recreation and ceremony","","2016/03/09 00:00:00+00","69","1659","1","B","37.36166","-83.88332366","MISSING/NOT SPECIFIED","KY","Jackson","21109","Jackson County"
"-75.53839797","42.101291534","1925064","400048579","SFO-2016NY0409NY0409-2016-160089","NONFED","ST-NASF","ST/C&L","USNYNYX","Fire Department of New York","NY0409","Fire Department of New York","","NY0409-2016-160089","","N/A","","","","","","2016","2016/03/09 00:00:00+00","69","1417","Human","Recreation and ceremony","","2016/03/09 00:00:00+00","69","1830","0.1","A","42.1013","-75.5384","MISSING/NOT SPECIFIED","NY","Broome","36007","Broome County"
"-84.102466098","36.680794335","1925065","400048580","SFO-2016KY-KYS23520169001","NONFED","ST-NASF","ST/C&L","USKYKYS","Kentucky Division of Forestry","KYKYS","Kentucky Division of Forestry","","23520169001","","LUCY LAY","","","","","","2016","2016/03/09 00:00:00+00","69","1550","Human","Recreation and ceremony","","2016/03/09 00:00:00+00","69","1900","5","B","36.68080139","-84.10247039","MISSING/NOT SPECIFIED","KY","Whitley","21235","Whitley County"
"-80.23159727","27.159594967","1925066","400048581","SFO-2016FLFLS2016160093","NONFED","ST-NASF","ST/C&L","USFLFLS","Florida Forest Service","FLFLS","Florida Forest Service","","2016160093","","MARKET STREET (43)","","","","","","2016","2016/03/09 00:00:00+00","69","1736","Human","Recreation and ceremony","","2016/03/09 00:00:00+00","69","1918","1","B","27.1596","-80.2316","PRIVATE","FL","Martin","12085","Martin County"
"-73.857298572","41.157691652","1925067","400048582","SFO-2016NY6038NY6038-2016-167","NONFED","ST-NASF","ST/C&L","USNYNYX","Fire Department of New York","NY6038","Fire Department of New York","","NY6038-2016-167","","N/A","","","","","","2016","2016/03/09 00:00:00+00","69","2325","Human","Recreation and ceremony","","2016/03/09 00:00:00+00","69","2349","0.1","A","41.1577","-73.8573","MUNICIPAL/LOCAL","NY","Westchester","36119","Westchester County"
"-72.80458285","42.17172242","1925068","400048583","SFO-2016MADCRMA11016459","NONFED","ST-NASF","ST/C&L","USMAMAS","Massachusetts Bureau of Forest Fire Control","MADCR","Massachusetts Department of Conservation and Recreation","","MA11016459","","WYBEN ","","","","","","2016","2016/03/08 00:00:00+00","68","1600","Human","Recreation and ceremony","","2016/03/09 00:00:00+00","69","","51","C","42.171731","-72.804584","MISSING/NOT SPECIFIED","MA","Hampden","25013","Hampden County"
"-85.810545305","35.192810318","1925069","400048584","SFO-2016TNTNS16-C0036","NONFED","ST-NASF","ST/C&L","USTNTNS","Tennessee Division of Forestry","TNTNS","Tennessee Division of Forestry","","16-C0036","","ALPINE POINT FIRE","","","","","","2016","2016/03/09 00:00:00+00","69","2349","Human","Recreation and ceremony","","2016/03/10 00:00:00+00","70","1012","14.2","C","35.192817","-85.81055","PRIVATE","TN","MARION","47115","Marion County"
"-105.101489816","40.160193531","1925070","400048585","SFO-201613631600643","NONFED","ST-NASF","ST/C&L","USCOMVWX","Mountain View Fire Protection District","1363","Mountain View Fire Protection District","","1600643","","UNKNOWN","","","","","","2016","2016/03/10 00:00:00+00","70","1222","Human","Recreation and ceremony","","2016/03/10 00:00:00+00","70","1230","20","C","40.1602","-105.1015","UNDEFINED FEDERAL","CO","Boulder","08013","Boulder County"
"-74.495398465","39.536291994","1925071","400048586","SFO-2016NJDEPB030802","NONFED","ST-NASF","ST/C&L","USNJNJS","New Jersey Forest Fire Service","NJDEP","New Jersey Department of Environmental Protection","","B030802","","","","","","","","2016","2016/03/08 00:00:00+00","68","1030","Human","Recreation and ceremony","","2016/03/10 00:00:00+00","70","1230","0.25","A","39.5363","-74.4954","MUNICIPAL/LOCAL","NJ","Burlington","34005","Burlington County"
"-77.317317546","40.028062001","1925072","400048587","SFO-2016PAPAS01(16)1-010","NONFED","ST-NASF","ST/C&L","USPAPAS","Pennsylvania Division of Forest Fire Protection","PAPAS","Pennsylvania Division of Forest Fire Protection","","01(16)1-010","","PINE GROVE RD","","","","","","2016","2016/03/10 00:00:00+00","70","1530","Human","Recreation and ceremony","","2016/03/10 00:00:00+00","70","1540","0.1","A","40.02807","-77.31732","MISSING/NOT SPECIFIED","PA","CUMBERLAND","42041","Cumberland County"
"-73.726998637","40.78539172","1925073","400048588","SFO-2016NY3038NY3038-2016-532","NONFED","ST-NASF","ST/C&L","USNYNYX","Fire Department of New York","NY3038","Fire Department of New York","","NY3038-2016-532","","N/A","","","","","","2016","2016/03/10 00:00:00+00","70","1555","Human","Recreation and ceremony","","2016/03/10 00:00:00+00","70","1607","0.1","A","40.7854","-73.727","MISSING/NOT SPECIFIED","NY","Nassau","36059","Nassau County"
"-84.024089309","37.307861766","1925074","400048589","SFO-2016KY-KYS10920169005","NONFED","ST-NASF","ST/C&L","USKYKYS","Kentucky Division of Forestry","KYKYS","Kentucky Division of Forestry","","10920169005","","TUCKY'S","","","","","","2016","2016/03/10 00:00:00+00","70","1509","Human","Recreation and ceremony","","2016/03/10 00:00:00+00","70","1631","2","B","37.30786895","-84.02409362","MISSING/NOT SPECIFIED","KY","Jackson","21109","Jackson County"
"-82.754817811","37.673252419","1925075","400048590","SFO-2016KY-KYS07120169008","NONFED","ST-NASF","ST/C&L","USKYKYS","Kentucky Division of Forestry","KYKYS","Kentucky Division of Forestry","","07120169008","","SOUTH LAKE","","","","","","2016","2016/03/10 00:00:00+00","70","1658","Human","Recreation and ceremony","","2016/03/10 00:00:00+00","70","1800","1","B","37.67325973","-82.75482177","MISSING/NOT SPECIFIED","KY","Floyd","21071","Floyd County"
"-82.528629248","37.22101251","1925076","400048591","SFO-2016KY-KYS19520169007","NONFED","ST-NASF","ST/C&L","USKYKYS","Kentucky Division of Forestry","KYKYS","Kentucky Division of Forestry","","19520169007","","KELLY MOUNTAIN ROAD","","","","","","2016","2016/03/10 00:00:00+00","70","1701","Human","Recreation and ceremony","","2016/03/10 00:00:00+00","70","1825","1","B","37.22101974","-82.52863311","MISSING/NOT SPECIFIED","KY","Pike","21195","Pike County"
"-73.831598592","40.965791688","1925077","400048592","SFO-2016NY6061NY6061-2016-0004730","NONFED","ST-NASF","ST/C&L","USNYNYX","Fire Department of New York","NY6061","Fire Department of New York","","NY6061-2016-0004730","","N/A","","","","","","2016","2016/03/10 00:00:00+00","70","1833","Human","Recreation and ceremony","","2016/03/10 00:00:00+00","70","1905","6.3","B","40.9658","-73.8316","PRIVATE","NY","Westchester","36119","Westchester County"
"-82.452136921","37.827831535","1925078","400048593","SFO-2016KY-KYS15920169001","NONFED","ST-NASF","ST/C&L","USKYKYS","Kentucky Division of Forestry","KYKYS","Kentucky Division of Forestry","","15920169001","","BEAUTY RIDGE","","","","","","2016","2016/03/10 00:00:00+00","70","1330","Human","Recreation and ceremony","","2016/03/10 00:00:00+00","70","1930","30","C","37.82783889","-82.4521408","MISSING/NOT SPECIFIED","KY","Martin","21159","Martin County"
"-82.297407596","32.07619386","1925079","400048594","SFO-2016GAGAS-FY2016-Toombs-015","NONFED","ST-NASF","ST/C&L","USGAGAS","Georgia Forestry Commission","GAGAS","Georgia Forestry Commission","","FY2016-Toombs-015","","FY2016-TOOMBS-015","","","","","","2016","2016/03/10 00:00:00+00","70","2208","Human","Recreation and ceremony","","2016/03/10 00:00:00+00","70","2340","6.2","B","32.0762","-82.29741111","PRIVATE","GA","Toombs              ","13279","Toombs County"
"-70.944089473","41.895869412","1925080","400048595","SFO-2016MADCRMA020160362","NONFED","ST-NASF","ST/C&L","USMAMAS","Massachusetts Bureau of Forest Fire Control","MADCR","Massachusetts Department of Conservation and Recreation","","MA020160362","","MIDDLEBOROUGH","","","","","","2016","2016/03/10 00:00:00+00","70","1752","Human","Recreation and ceremony","","2016/03/10 00:00:00+00","70","","0.25","A","41.895878","-70.94409","MISSING/NOT SPECIFIED","MA","Plymouth","25023","Plymouth County"
"-82.315871519","31.19517739","1925081","400048596","SFO-2016GAGAS-FY2016-Ware-019","NONFED","ST-NASF","ST/C&L","USGAGAS","Georgia Forestry Commission","GAGAS","Georgia Forestry Commission","","FY2016-Ware-019","","FY2016-WARE-019","","","","","","2016","2016/03/11 00:00:00+00","71","2249","Human","Recreation and ceremony","","2016/03/11 00:00:00+00","71","","3.86","B","31.19518333","-82.315875","PRIVATE","GA","Ware                ","13299","Ware County"
"-74.756698303","40.849991744","1925082","400048597","SFO-2016NJDEPA030912","NONFED","ST-NASF","ST/C&L","USNJNJS","New Jersey Forest Fire Service","NJDEP","New Jersey Department of Environmental Protection","","A030912","","","","","","","","2016","2016/03/09 00:00:00+00","69","2015","Human","Recreation and ceremony","","2016/03/11 00:00:00+00","71","1200","1","B","40.85","-74.7567","MUNICIPAL/LOCAL","NJ","Morris","34027","Morris County"
"-74.27349844","41.133991671","1925083","400048598","SFO-2016NJDEPA031001","NONFED","ST-NASF","ST/C&L","USNJNJS","New Jersey Forest Fire Service","NJDEP","New Jersey Department of Environmental Protection","","A031001","","","","","","","","2016","2016/03/10 00:00:00+00","70","1100","Human","Recreation and ceremony","","2016/03/11 00:00:00+00","71","1200","0.25","A","41.134","-74.2735","PRIVATE","NJ","Passaic","34031","Passaic County"
"-75.000698235","40.698391782","1925084","400048599","SFO-2016NJDEPA030906","NONFED","ST-NASF","ST/C&L","USNJNJS","New Jersey Forest Fire Service","NJDEP","New Jersey Department of Environmental Protection","","A030906","","","","","","","","2016","2016/03/09 00:00:00+00","69","1350","Human","Recreation and ceremony","","2016/03/11 00:00:00+00","71","1200","0.5","B","40.6984","-75.0007","PRIVATE","NJ","Warren","34041","Warren County"
"-81.443671765","31.392027318","1925085","400048600","SFO-2016GAGAS-FY2016-McIntosh-009","NONFED","ST-NASF","ST/C&L","USGAGAS","Georgia Forestry Commission","GAGAS","Georgia Forestry Commission","","FY2016-McIntosh-009","","FY2016-MCINTOSH-009","","","","","","2016","2016/03/11 00:00:00+00","71","1303","Human","Recreation and ceremony","","2016/03/11 00:00:00+00","71","1352","0.25","A","31.39203333","-81.443675","MISSING/NOT SPECIFIED","GA","McIntosh            ","13191","McIntosh County"
"-73.926298568","40.86829171","1925086","400048602","SFO-2016NY2401NY2401-2016-0280546","NONFED","ST-NASF","ST/C&L","USNYNYX","Fire Department of New York","NY2401","Fire Department of New York","","NY2401-2016-0280546","","N/A","","","","","","2016","2016/03/11 00:00:00+00","71","1415","Human","Recreation and ceremony","","2016/03/11 00:00:00+00","71","1701","0.1","A","40.8683","-73.9263","MISSING/NOT SPECIFIED","NY","New York","36061","New York County"
"-74.488898361","41.291891648","1925087","400048603","SFO-2016NY3601NY3601-2016-0000020","NONFED","ST-NASF","ST/C&L","USNYNYX","Fire Department of New York","NY3601","Fire Department of New York","","NY3601-2016-0000020","","N/A","","","","","","2016","2016/03/11 00:00:00+00","71","1929","Human","Recreation and ceremony","","2016/03/11 00:00:00+00","71","2036","6.3","B","41.2919","-74.4889","MISSING/NOT SPECIFIED","NY","Orange","36071","Orange County"
"-76.921667648","40.36110192","1925088","400048604","SFO-2016PAPAS18(16)1-019","NONFED","ST-NASF","ST/C&L","USPAPAS","Pennsylvania Division of Forest Fire Protection","PAPAS","Pennsylvania Division of Forest Fire Protection","","18(16)1-019","","STATUE OF LIBERTY NARROWS","","","","","","2016","2016/03/10 00:00:00+00","70","1748","Human","Recreation and ceremony","","2016/03/12 00:00:00+00","72","1217","7.05","B","40.36111","-76.92167","MISSING/NOT SPECIFIED","PA","DAUPHIN","42043","Dauphin County"
"-73.803098375","44.343191057","1925089","400048605","SFO-2016NY1627NY1627-2016-16.068","NONFED","ST-NASF","ST/C&L","USNYNYX","Fire Department of New York","NY1627","Fire Department of New York","","NY1627-2016-16.068","","N/A","","","","","","2016","2016/03/12 00:00:00+00","72","1212","Human","Recreation and ceremony","","2016/03/12 00:00:00+00","72","1306","0.1","A","44.3432","-73.8031","MISSING/NOT SPECIFIED","NY","Essex","36031","Essex County"
"-88.421833661","45.045871676","1925090","400048606","SFO-2016WI-WIS44110042016","NONFED","ST-NASF","ST/C&L","USWIWIS","Wisconsin Department of Natural Resources","WIWIS","Wisconsin Department of Natural Resources","","44110042016","","SAGEBRUSH LN. FIRE","","","","","","2016","2016/03/12 00:00:00+00","72","1303","Human","Recreation and ceremony","","2016/03/12 00:00:00+00","72","1322","0.4","B","45.04588","-88.42184","PRIVATE","WI","Oconto","55083","Oconto County"
"-105.193789987","38.454693774","1925091","400048607","SFO-201643059000433","NONFED","ST-NASF","ST/C&L","USCOCCIX","Canon City Area Fire Protection District","4305","Canon City Area Fire Protection District","","9000433","","UNKNOWN","","","","","","2016","2016/03/12 00:00:00+00","72","1355","Human","Recreation and ceremony","","2016/03/12 00:00:00+00","72","1417","1","B","38.4547","-105.1938","UNDEFINED FEDERAL","CO","Fremont","08043","Fremont County"
"-84.989873507","31.686671816","1925092","400048608","SFO-2016GAGAS-FY2016-Clay-002","NONFED","ST-NASF","ST/C&L","USGAGAS","Georgia Forestry Commission","GAGAS","Georgia Forestry Commission","","FY2016-Clay-002","","FY2016-CLAY-002","","","","","","2016","2016/03/12 00:00:00+00","72","1407","Human","Recreation and ceremony","","2016/03/12 00:00:00+00","72","1533","10.16","C","31.68667778","-84.98987778","PRIVATE","GA","Clay                ","13061","Clay County"
"-74.06279844","42.181491463","1925093","400048609","SFO-2016NY2012NY2012-2016-10","NONFED","ST-NASF","ST/C&L","USNYNYX","Fire Department of New York","NY2012","Fire Department of New York","","NY2012-2016-10","","N/A","","","","","","2016","2016/03/12 00:00:00+00","72","1531","Human","Recreation and ceremony","","2016/03/12 00:00:00+00","72","1609","0.1","A","42.1815","-74.0628","MISSING/NOT SPECIFIED","NY","Greene","36039","Greene County"
"-83.334596289","29.563594468","1925094","400048610","SFO-2016FLFLS2016050062","NONFED","ST-NASF","ST/C&L","USFLFLS","Florida Forest Service","FLFLS","Florida Forest Service","","2016050062","","BOWLEGGS ROCKPIT (15)","","","","","","2016","2016/03/12 00:00:00+00","72","1506","Human","Recreation and ceremony","","2016/03/12 00:00:00+00","72","1619","2","B","29.5636","-83.3346","PRIVATE","FL","Dixie","12029","Dixie County"
"-105.632389608","40.852093477","1925095","400048611","SFO-201669201216","NONFED","ST-NASF","ST/C&L","USCOCRLX","Crystal Lakes Volunteer Fire Department","6920","Crystal Lakes Volunteer Fire Department","","1216","","UNKNOWN","","","","","","2016","2016/03/12 00:00:00+00","72","1618","Human","Recreation and ceremony","","2016/03/12 00:00:00+00","72","1630","1","B","40.8521","-105.6324","PRIVATE","CO","Larimer","08069","Larimer County"
"-79.867926052","35.177695094","1925096","400048612","SFO-2016NC-NCSNCST-062-FY2016-0049","NONFED","ST-NASF","ST/C&L","USNCNCS","North Carolina Forest Service","NCNCS","North Carolina State Division of Forest Resouces","","NCST-062-FY2016-0049","","COUNTY LINE","","","","","","2016","2016/03/12 00:00:00+00","72","1551","Human","Recreation and ceremony","","2016/03/12 00:00:00+00","72","1714","9.76","B","35.177702","-79.867929","MISSING/NOT SPECIFIED","NC","Montgomery","37123","Montgomery County"
"-83.712787202","37.586471927","1925097","400048613","SFO-2016KY-KYS12920169006","NONFED","ST-NASF","ST/C&L","USKYKYS","Kentucky Division of Forestry","KYKYS","Kentucky Division of Forestry","","12920169006","","FAIRGROUNDS RIDGE ROAD","","","","","","2016","2016/03/12 00:00:00+00","72","1800","Human","Recreation and ceremony","","2016/03/12 00:00:00+00","72","1952","1","B","37.58647918","-83.71279144","MISSING/NOT SPECIFIED","KY","Lee","21129","Lee County"
"-79.721772092","35.249520073","1925098","400048614","SFO-2016NC-NCSNCST-062-FY2016-0051","NONFED","ST-NASF","ST/C&L","USNCNCS","North Carolina Forest Service","NCNCS","North Carolina State Division of Forest Resouces","","NCST-062-FY2016-0051","","BLUEJAY","","","","","","2016","2016/03/12 00:00:00+00","72","0845","Human","Recreation and ceremony","","2016/03/12 00:00:00+00","72","0945","0.08","A","35.249527","-79.721775","MISSING/NOT SPECIFIED","NC","Montgomery","37123","Montgomery County"
"-74.022098498","41.485791594","1925099","400048615","SFO-2016NY3633NY3633-2016-3300024","NONFED","ST-NASF","ST/C&L","USNYNYX","Fire Department of New York","NY3633","Fire Department of New York","","NY3633-2016-3300024","","N/A","","","","","","2016","2016/03/13 00:00:00+00","73","1324","Human","Recreation and ceremony","","2016/03/13 00:00:00+00","73","1357","0.1","A","41.4858","-74.0221","MISSING/NOT SPECIFIED","NY","Orange","36071","Orange County"
"-73.697998614","41.304391618","1925100","400048616","SFO-2017NY6049NY6049-2017-2075","NONFED","ST-NASF","ST/C&L","USNYNYX","Fire Department of New York","NY6049","Fire Department of New York","","NY6049-2017-2075","","N/A","","","","","","2017","2017/11/25 00:00:00+00","329","1557","Natural","Natural","","2017/11/25 00:00:00+00","329","1619","0.1","A","41.3044","-73.698","MISSING/NOT SPECIFIED","NY","Westchester","36119","Westchester County"
"-73.500198518","43.746791153","1925101","400048617","SFO-2016NY5708NY5708-2016-8279","NONFED","ST-NASF","ST/C&L","USNYNYX","Fire Department of New York","NY5708","Fire Department of New York","","NY5708-2016-8279","","N/A","","","","","","2016","2016/03/13 00:00:00+00","73","1428","Human","Recreation and ceremony","","2016/03/13 00:00:00+00","73","1453","0.1","A","43.7468","-73.5002","PRIVATE","NY","Warren","36113","Warren County"
"-73.582898525","43.252091246","1925102","400048618","SFO-2016NY5807NY5807-2016-16040","NONFED","ST-NASF","ST/C&L","USNYNYX","Fire Department of New York","NY5807","Fire Department of New York","","NY5807-2016-16040","","N/A","","","","","","2016","2016/03/13 00:00:00+00","73","1614","Human","Recreation and ceremony","","2016/03/13 00:00:00+00","73","1723","2.5","B","43.2521","-73.5829","MISSING/NOT SPECIFIED","NY","Washington","36115","Washington County"
"-71.64516427","41.453936519","1925103","400048619","SFO-2016RI-RISRI-16-009","NONFED","ST-NASF","ST/C&L","USRIRIS","Rhode Island Division of Forest Environment","RIRIS","Rhode Island Division of Forest Environment","","RI-16-009","","","","","","","","2016","2016/03/13 00:00:00+00","73","1633","Human","Recreation and ceremony","","2016/03/13 00:00:00+00","73","1730","0.2","A","41.453945","-71.645165","PRIVATE","RI","Washington","44009","Washington County"
"-73.878198582","40.878791707","1925104","400048620","SFO-2016NY2401NY2401-2016-0289065","NONFED","ST-NASF","ST/C&L","USNYNYX","Fire Department of New York","NY2401","Fire Department of New York","","NY2401-2016-0289065","","N/A","","","","","","2016","2016/03/13 00:00:00+00","73","2000","Human","Recreation and ceremony","","2016/03/13 00:00:00+00","73","2013","0.1","A","40.8788","-73.8782","MUNICIPAL/LOCAL","NY","Bronx","36005","Bronx County"
"-74.009298529","41.056091677","1925105","400048621","SFO-2016NY4412NY4412-2016-0000055","NONFED","ST-NASF","ST/C&L","USNYNYX","Fire Department of New York","NY4412","Fire Department of New York","","NY4412-2016-0000055","","N/A","","","","","","2016","2016/03/13 00:00:00+00","73","2109","Human","Recreation and ceremony","","2016/03/13 00:00:00+00","73","2132","0.1","A","41.0561","-74.0093","PRIVATE","NY","Rockland","36087","Rockland County"
"-74.03139852","41.09309167","1925106","400048622","SFO-2016NY4408NY4408-2016-0000122","NONFED","ST-NASF","ST/C&L","USNYNYX","Fire Department of New York","NY4408","Fire Department of New York","","NY4408-2016-0000122","","N/A","","","","","","2016","2016/03/14 00:00:00+00","74","1249","Human","Recreation and ceremony","","2016/03/14 00:00:00+00","74","1322","3","B","41.0931","-74.0314","MISSING/NOT SPECIFIED","NY","Rockland","36087","Rockland County"
"-74.809798348","39.834791946","1925107","400048623","SFO-2016NJDEPB031301","NONFED","ST-NASF","ST/C&L","USNJNJS","New Jersey Forest Fire Service","NJDEP","New Jersey Department of Environmental Protection","","B031301","","","","","","","","2016","2016/03/13 00:00:00+00","73","1115","Human","Recreation and ceremony","","2016/03/14 00:00:00+00","74","0930","0.25","A","39.8348","-74.8098","STATE","NJ","Burlington","34005","Burlington County"
"-80.089566971","35.456611042","1925108","400048624","SFO-2016NC-NCSNCST-062-FY2016-0052","NONFED","ST-NASF","ST/C&L","USNCNCS","North Carolina Forest Service","NCNCS","North Carolina State Division of Forest Resouces","","NCST-062-FY2016-0052","","BADIN ISLAND","","","","","","2016","2016/03/15 00:00:00+00","75","1451","Human","Recreation and ceremony","","2016/03/15 00:00:00+00","75","1600","21.19","C","35.456618","-80.08957","MISSING/NOT SPECIFIED","NC","Montgomery","37123","Montgomery County"
"-74.126198461","41.542791587","1925109","400048625","SFO-2016NY3606NY3606-2016-0000057","NONFED","ST-NASF","ST/C&L","USNYNYX","Fire Department of New York","NY3606","Fire Department of New York","","NY3606-2016-0000057","","N/A","","","","","","2016","2016/03/15 00:00:00+00","75","1626","Human","Recreation and ceremony","","2016/03/15 00:00:00+00","75","1809","0.1","A","41.5428","-74.1262","MISSING/NOT SPECIFIED","NY","Orange","36071","Orange County"
"-83.312045761","37.277172502","1925110","400048626","SFO-2016KY-KYS19320169013","NONFED","ST-NASF","ST/C&L","USKYKYS","Kentucky Division of Forestry","KYKYS","Kentucky Division of Forestry","","19320169013","","LAUREL MOUNTAIN","","","","","","2016","2016/03/16 00:00:00+00","76","1745","Human","Recreation and ceremony","","2016/03/16 00:00:00+00","76","","35","C","37.27717971","-83.31204986","MISSING/NOT SPECIFIED","KY","Perry","21193","Perry County"
"-82.8876074","37.381641763","1925111","400048627","SFO-2016KY-KYS11920169006","NONFED","ST-NASF","ST/C&L","USKYKYS","Kentucky Division of Forestry","KYKYS","Kentucky Division of Forestry","","11920169006","","PINETREE","","","","","","2016","2016/03/16 00:00:00+00","76","1500","Human","Recreation and ceremony","","2016/03/16 00:00:00+00","76","","25","C","37.38164901","-82.88761138","MISSING/NOT SPECIFIED","KY","Knott","21119","Knott County"
"-105.191689989","38.439393777","1925112","400048628","SFO-201643059000473","NONFED","ST-NASF","ST/C&L","USCOCCIX","Canon City Area Fire Protection District","4305","Canon City Area Fire Protection District","","9000473","","UNKNOWN","","","","","","2016","2016/03/16 00:00:00+00","76","1340","Human","Recreation and ceremony","","2016/03/16 00:00:00+00","76","1416","0.1","A","38.4394","-105.1917","PRIVATE","CO","Fremont","08043","Fremont County"
"-81.817404954","32.129554942","1925113","400048629","SFO-2016GAGAS-FY2016-Evans-013","NONFED","ST-NASF","ST/C&L","USGAGAS","Georgia Forestry Commission","GAGAS","Georgia Forestry Commission","","FY2016-Evans-013","","FY2016-EVANS-013","","","","","","2016","2016/03/16 00:00:00+00","76","1526","Human","Recreation and ceremony","","2016/03/16 00:00:00+00","76","1541","0.05","A","32.12956111","-81.81740833","PRIVATE","GA","Evans               ","13109","Evans County"
"-94.898822856","34.46782386","1925114","400048630","SFO-2016OKOKS10168A","NONFED","ST-NASF","ST/C&L","USOKOKS","Oklahoma Division of Forestry","OKOKS","Oklahoma Division of Forestry","","10168A","","","","","","","","2016","2016/03/16 00:00:00+00","76","1437","Human","Recreation and ceremony","","2016/03/16 00:00:00+00","76","1700","5","B","34.46783","-94.89883","PRIVATE","OK","45","40089","McCurtain County"
"-82.85043697","37.849731728","1925115","400048631","SFO-2016KY-KYS11520169002","NONFED","ST-NASF","ST/C&L","USKYKYS","Kentucky Division of Forestry","KYKYS","Kentucky Division of Forestry","","11520169002","","WALKER HILL","","","","","","2016","2016/03/16 00:00:00+00","76","1515","Human","Recreation and ceremony","","2016/03/16 00:00:00+00","76","1721","2","B","37.84973907","-82.85044097","MISSING/NOT SPECIFIED","KY","Johnson","21115","Johnson County"
"-73.909398571","40.902191703","1925116","400048633","SFO-2016NY2401NY2401-2016-0300648","NONFED","ST-NASF","ST/C&L","USNYNYX","Fire Department of New York","NY2401","Fire Department of New York","","NY2401-2016-0300648","","N/A","","","","","","2016","2016/03/16 00:00:00+00","76","1821","Human","Recreation and ceremony","","2016/03/16 00:00:00+00","76","1859","0.1","A","40.9022","-73.9094","MISSING/NOT SPECIFIED","NY","Bronx","36005","Bronx County"
"-82.924632839","37.545681341","1925117","400048634","SFO-2016KY-KYS15320169009","NONFED","ST-NASF","ST/C&L","USKYKYS","Kentucky Division of Forestry","KYKYS","Kentucky Division of Forestry","","15320169009","","GUNLOCK","2016_4272717_GUNLOCK","","","","","2016","2016/03/16 00:00:00+00","76","1449","Human","Recreation and ceremony","","2016/03/16 00:00:00+00","76","2200","124","D","37.54568862","-82.92463684","MISSING/NOT SPECIFIED","KY","Magoffin","21153","Magoffin County"
"-77.263297662","38.440442316","1925118","400048635","SFO-2016MDMDS4782","NONFED","ST-NASF","ST/C&L","USMDMDS","Maryland Department of Natural Resources Forest Service","MDMDS","Maryland Department of Natural Resources Forest Service","","4782","","NANJEMOY NRMA","","","","","","2016","2016/03/17 00:00:00+00","77","0900","Human","Recreation and ceremony","","2016/03/17 00:00:00+00","77","1000","0.1","A","38.44045","-77.2633","STATE","MD","Charles","24017","Charles County"
"-82.808727059","38.189651699","1925119","400048636","SFO-2016KY-KYS12720169001","NONFED","ST-NASF","ST/C&L","USKYKYS","Kentucky Division of Forestry","KYKYS","Kentucky Division of Forestry","","12720169001","","CALICO FORK","","","","","","2016","2016/03/17 00:00:00+00","77","2130","Human","Recreation and ceremony","","2016/03/17 00:00:00+00","77","","3","B","38.18965911","-82.80873107","MISSING/NOT SPECIFIED","KY","Lawrence","21127","Lawrence County"
"-88.372931025","34.92348637","1925120","400048637","SFO-2016MSMFC3571","NONFED","ST-NASF","ST/C&L","USMSMSS","Mississippi Forestry Commission","MSMFC","Mississippi Forestry Commission","","3571","","1959","","","","","","2016","2016/03/17 00:00:00+00","77","1329","Human","Recreation and ceremony","","2016/03/17 00:00:00+00","77","1448","1","B","34.92349289","-88.37293643","PRIVATE","MS","Tishomingo","28141","Tishomingo County"
"-83.568309453","36.713093346","1925121","400048638","SFO-2016KY-KYS01320169005","NONFED","ST-NASF","ST/C&L","USKYKYS","Kentucky Division of Forestry","KYKYS","Kentucky Division of Forestry","","01320169005","","BROWNIES CK","","","","","","2016","2016/03/17 00:00:00+00","77","1245","Human","Recreation and ceremony","","2016/03/17 00:00:00+00","77","1500","4","B","36.71310043","-83.56831359","MISSING/NOT SPECIFIED","KY","Bell","21013","Bell County"
"-73.822598608","40.75069173","1925122","400048639","SFO-2016NY2401NY2401-2016-0304069","NONFED","ST-NASF","ST/C&L","USNYNYX","Fire Department of New York","NY2401","Fire Department of New York","","NY2401-2016-0304069","","N/A","","","","","","2016","2016/03/17 00:00:00+00","77","1544","Human","Recreation and ceremony","","2016/03/17 00:00:00+00","77","1620","0.1","A","40.7507","-73.8226","MISSING/NOT SPECIFIED","NY","Queens","36081","Queens County"
"-83.936843109","34.472568395","1925123","400048640","SFO-2016GAGAS-FY2016-Lumpkin-014","NONFED","ST-NASF","ST/C&L","USGAGAS","Georgia Forestry Commission","GAGAS","Georgia Forestry Commission","","FY2016-Lumpkin-014","","FY2016-LUMPKIN-014","","","","","","2016","2016/03/17 00:00:00+00","77","1528","Human","Recreation and ceremony","","2016/03/17 00:00:00+00","77","1623","0.6","B","34.472575","-83.93684722","PRIVATE","GA","Lumpkin             ","13187","Lumpkin County"
"-86.038995277","34.563993457","1925124","400048641","SFO-2016ALAFC543","NONFED","ST-NASF","ST/C&L","USALALS","Alabama Forestry Commission","ALAFC","Alabama Forestry Commission","","543","","20160317-5","","","","","","2016","2016/03/17 00:00:00+00","77","1446","Human","Recreation and ceremony","","2016/03/17 00:00:00+00","77","1709","10","C","34.564","-86.039","MISSING/NOT SPECIFIED","AL","Jackson","01071","Jackson County"
"-86.334803385","36.881603872","1925125","400048642","SFO-2016KY-KYS22720169001","NONFED","ST-NASF","ST/C&L","USKYKYS","Kentucky Division of Forestry","KYKYS","Kentucky Division of Forestry","","22720169001","","COSBY FIRE","","","","","","2016","2016/03/17 00:00:00+00","77","1712","Human","Recreation and ceremony","","2016/03/17 00:00:00+00","77","1807","4","B","36.88161087","-86.33480834","MISSING/NOT SPECIFIED","KY","Warren","21227","Warren County"
"-86.712221743","37.629002113","1925126","400048643","SFO-2016KY-KYS18320169001","NONFED","ST-NASF","ST/C&L","USKYKYS","Kentucky Division of Forestry","KYKYS","Kentucky Division of Forestry","","18320169001","","WATER TOWER","","","","","","2016","2016/03/17 00:00:00+00","77","1510","Human","Recreation and ceremony","","2016/03/17 00:00:00+00","77","1930","5","B","37.62900924","-86.71222686","MISSING/NOT SPECIFIED","KY","Ohio","21183","Ohio County"
"-72.436663395","42.082455975","1925127","400048644","SFO-2016MADCRMA110160054","NONFED","ST-NASF","ST/C&L","USMAMAS","Massachusetts Bureau of Forest Fire Control","MADCR","Massachusetts Department of Conservation and Recreation","","MA110160054","","","","","","","","2016","2016/03/17 00:00:00+00","77","1650","Human","Recreation and ceremony","","2016/03/17 00:00:00+00","77","","1","B","42.08246455","-72.43666442","MISSING/NOT SPECIFIED","MA","Hampden","25013","Hampden County"
"-82.702496515","28.34039474","1925128","400048645","SFO-2016FLFLS2016110176","NONFED","ST-NASF","ST/C&L","USFLFLS","Florida Forest Service","FLFLS","Florida Forest Service","","2016110176","","BOWLING (51)","","","","","","2016","2016/03/18 00:00:00+00","78","0420","Human","Recreation and ceremony","","2016/03/18 00:00:00+00","78","0812","1","B","28.3404","-82.7025","PRIVATE","FL","Pasco","12101","Pasco County"
"-84.788058537","36.829884144","1925129","400048646","SFO-2016KY-KYS23120169004","NONFED","ST-NASF","ST/C&L","USKYKYS","Kentucky Division of Forestry","KYKYS","Kentucky Division of Forestry","","23120169004","","DEAD WOLF RD.","","","","","","2016","2016/03/17 00:00:00+00","77","2200","Human","Recreation and ceremony","","2016/03/18 00:00:00+00","78","1100","1","B","36.8298912","-84.78806304","MISSING/NOT SPECIFIED","KY","Wayne","21231","Wayne County"
"-74.076398506","41.089791673","1925130","400048647","SFO-2016NY4407NY4407-2016-0000150","NONFED","ST-NASF","ST/C&L","USNYNYX","Fire Department of New York","NY4407","Fire Department of New York","","NY4407-2016-0000150","","N/A","","","","","","2016","2016/03/18 00:00:00+00","78","1412","Human","Recreation and ceremony","","2016/03/18 00:00:00+00","78","1446","6.3","B","41.0898","-74.0764","MISSING/NOT SPECIFIED","NY","Rockland","36087","Rockland County"
"-84.358951387","33.330504765","1925131","400048648","SFO-2016GAGAS-FY2016-Spalding-004","NONFED","ST-NASF","ST/C&L","USGAGAS","Georgia Forestry Commission","GAGAS","Georgia Forestry Commission","","FY2016-Spalding-004","","FY2016-SPALDING-004","","","","","","2016","2016/03/18 00:00:00+00","78","1400","Human","Recreation and ceremony","","2016/03/18 00:00:00+00","78","1459","0.1","A","33.33051111","-84.35895556","PRIVATE","GA","Spalding            ","13255","Spalding County"
"-84.380765194","34.583240608","1925132","400048649","SFO-2016GAGAS-FY2016-Gilmer-006","NONFED","ST-NASF","ST/C&L","USGAGAS","Georgia Forestry Commission","GAGAS","Georgia Forestry Commission","","FY2016-Gilmer-006","","FY2016-GILMER-006","","","","","","2016","2016/03/18 00:00:00+00","78","1450","Human","Recreation and ceremony","","2016/03/18 00:00:00+00","78","1603","0.3","B","34.58324722","-84.38076944","PRIVATE","GA","Gilmer              ","13123","Gilmer County"
"-78.7473988","38.972664745","1925133","400048650","SFO-2016WVDOF2016-35881","NONFED","ST-NASF","ST/C&L","USWVWVS","West Virginia Division of Forestry","WVDOF","West Virginia Division of Forestry","","2016-35881","","BRUSHY HOLLOW","","","","","","2016","2016/03/18 00:00:00+00","78","1555","Human","Recreation and ceremony","","2016/03/18 00:00:00+00","78","1623","0.2","A","38.97267248","-78.74740163","PRIVATE","WV","Hardy","54031","Hardy County"
"-84.2396153","33.362571423","1925134","400048651","SFO-2016GAGAS-FY2016-Henry-001","NONFED","ST-NASF","ST/C&L","USGAGAS","Georgia Forestry Commission","GAGAS","Georgia Forestry Commission","","FY2016-Henry-001","","FY2016-HENRY-001","","","","","","2016","2016/03/18 00:00:00+00","78","1600","Human","Recreation and ceremony","","2016/03/18 00:00:00+00","78","1826","2.7","B","33.36257778","-84.23961944","PRIVATE","GA","Henry               ","13151","Henry County"
"-83.777438699","37.194553828","1925135","400048652","SFO-2016KY-KYS05120169014","NONFED","ST-NASF","ST/C&L","USKYKYS","Kentucky Division of Forestry","KYKYS","Kentucky Division of Forestry","","05120169014","","THOMPSON BR","","","","","","2016","2016/03/18 00:00:00+00","78","1410","Human","Recreation and ceremony","","2016/03/18 00:00:00+00","78","1858","15","C","37.194561","-83.77744293","MISSING/NOT SPECIFIED","KY","Clay","21051","Clay County"
"-81.441757675","38.114814226","1925136","400048653","SFO-2016WVDOF2016-35410","NONFED","ST-NASF","ST/C&L","USWVWVS","West Virginia Division of Forestry","WVDOF","West Virginia Division of Forestry","","2016-35410","","OHLEY HOLLOW","2016_4291293_OHLEY HOLLOW","","","","","2016","2016/03/18 00:00:00+00","78","1245","Human","Recreation and ceremony","","2016/03/18 00:00:00+00","78","2000","145","D","38.11482168","-81.44176127","PRIVATE","WV","Kanawha","54039","Kanawha County"
"-83.862529323","36.911762748","1925137","400048654","SFO-2016KY-KYS12120169006","NONFED","ST-NASF","ST/C&L","USKYKYS","Kentucky Division of Forestry","KYKYS","Kentucky Division of Forestry","","12120169006","","JOHNNY DISNEY LN.","","","","","","2016","2016/03/18 00:00:00+00","78","1833","Human","Recreation and ceremony","","2016/03/18 00:00:00+00","78","2000","2","B","36.91176986","-83.86253356","MISSING/NOT SPECIFIED","KY","Knox","21121","Knox County"
"-83.096812969","37.378521352","1925138","400048655","SFO-2016KY-KYS11920169009","NONFED","ST-NASF","ST/C&L","USKYKYS","Kentucky Division of Forestry","KYKYS","Kentucky Division of Forestry","","11920169009","","VEST TALCUM","","","","","","2016","2016/03/18 00:00:00+00","78","1640","Human","Recreation and ceremony","","2016/03/18 00:00:00+00","78","2052","12","C","37.37852859","-83.09681701","MISSING/NOT SPECIFIED","KY","Knott","21119","Knott County"
"-83.34935347","37.589104051","1925139","400048656","SFO-2016KY-KYS02520169009","NONFED","ST-NASF","ST/C&L","USKYKYS","Kentucky Division of Forestry","KYKYS","Kentucky Division of Forestry","","02520169009","","BIRCH LANE","","","","","","2016","2016/03/18 00:00:00+00","78","1600","Human","Recreation and ceremony","","2016/03/18 00:00:00+00","78","2100","11","C","37.58911132","-83.3493576","MISSING/NOT SPECIFIED","KY","Breathitt","21025","Breathitt County"
"-82.40126416","37.465153076","1925140","400048657","SFO-2016KY-KYS19520169013","NONFED","ST-NASF","ST/C&L","USKYKYS","Kentucky Division of Forestry","KYKYS","Kentucky Division of Forestry","","19520169013","","RIDGE LINE RD.","","","","","","2016","2016/03/18 00:00:00+00","78","1630","Human","Recreation and ceremony","","2016/03/18 00:00:00+00","78","2200","24","C","37.46516036","-82.401268","MISSING/NOT SPECIFIED","KY","Pike","21195","Pike County"
"-81.475239632","34.050622395","1925141","400048658","SFO-2016SCSCS16FF0303","NONFED","ST-NASF","ST/C&L","USSCSCS","South Carolina Forestry Commission","SCSCS","South Carolina Forestry Commission","","16FF0303","","","","","","","","2016","2016/03/18 00:00:00+00","78","1851","Human","Recreation and ceremony","","2016/03/18 00:00:00+00","78","2220","25","C","34.050629","-81.475243","PRIVATE","SC","Lexington County","45063","Lexington County"
"-82.973605899","37.626102777","1925142","400048659","SFO-2016KY-KYS15320169012","NONFED","ST-NASF","ST/C&L","USKYKYS","Kentucky Division of Forestry","KYKYS","Kentucky Division of Forestry","","15320169012","","SALTLICK","","","","","","2016","2016/03/18 00:00:00+00","78","1810","Human","Recreation and ceremony","","2016/03/18 00:00:00+00","78","2230","5","B","37.62611007","-82.97360992","MISSING/NOT SPECIFIED","KY","Magoffin","21153","Magoffin County"
"-82.66871253","37.156650959","1925143","400048660","SFO-2016KY-KYS13320169006","NONFED","ST-NASF","ST/C&L","USKYKYS","Kentucky Division of Forestry","KYKYS","Kentucky Division of Forestry","","13320169006","","INDUSTRIAL PARK","","","","","","2016","2016/03/18 00:00:00+00","78","1400","Human","Recreation and ceremony","","2016/03/18 00:00:00+00","78","2300","50","C","37.15665817","-82.66871643","MISSING/NOT SPECIFIED","KY","Letcher","21133","Letcher County"
"-83.112369217","38.630203386","1925144","400048661","SFO-2016KY-KYS13520169001","NONFED","ST-NASF","ST/C&L","USKYKYS","Kentucky Division of Forestry","KYKYS","Kentucky Division of Forestry","","13520169001","","VANCE CREEK","","","","","","2016","2016/03/18 00:00:00+00","78","1835","Human","Recreation and ceremony","","2016/03/18 00:00:00+00","78","","15","C","38.63021087","-83.11237335","MISSING/NOT SPECIFIED","KY","Lewis","21135","Lewis County"
"-83.265804014","37.296551166","1925145","400048662","SFO-2016KY-KYS19320169018","NONFED","ST-NASF","ST/C&L","USKYKYS","Kentucky Division of Forestry","KYKYS","Kentucky Division of Forestry","","19320169018","","FLAT GAP","","","","","","2016","2016/03/19 00:00:00+00","79","1330","Human","Recreation and ceremony","","2016/03/19 00:00:00+00","79","1356","1","B","37.29655838","-83.2658081","MISSING/NOT SPECIFIED","KY","Perry","21193","Perry County"
"-73.913198574","40.837491716","1925146","400048663","SFO-2016NY2401NY2401-2016-0311676","NONFED","ST-NASF","ST/C&L","USNYNYX","Fire Department of New York","NY2401","Fire Department of New York","","NY2401-2016-0311676","","N/A","","","","","","2016","2016/03/19 00:00:00+00","79","1433","Human","Recreation and ceremony","","2016/03/19 00:00:00+00","79","1442","0.1","A","40.8375","-73.9132","MISSING/NOT SPECIFIED","NY","Bronx","36005","Bronx County"
"-85.092384489","33.654410282","1925147","400048664","SFO-2016GAGAS-FY2016-Carroll-010","NONFED","ST-NASF","ST/C&L","USGAGAS","Georgia Forestry Commission","GAGAS","Georgia Forestry Commission","","FY2016-Carroll-010","","FY2016-CARROLL-010","","","","","","2016","2016/03/19 00:00:00+00","79","1141","Human","Recreation and ceremony","","2016/03/19 00:00:00+00","79","1558","1.3","B","33.65441667","-85.09238889","PRIVATE","GA","Carroll             ","13045","Carroll County"
"-75.082398136","41.81459157","1925148","400048665","SFO-2016NY-NYSNYS-2016-0016","NONFED","ST-NASF","ST/C&L","USNYNYS","New York Forest Rangers","NYNYS","New York Forest Rangers","","NYS-2016-0016","","CALICOON CREEK FIRE","","","","","","2016","2016/03/19 00:00:00+00","79","1300","Human","Recreation and ceremony","","2016/03/19 00:00:00+00","79","2000","3","B","41.8146","-75.0824","PRIVATE","NY","SULLIVAN","36105","Sullivan County"
"-83.885768416","37.50966302","1925149","400048666","SFO-2016KY-KYS18920169501","NONFED","ST-NASF","ST/C&L","USKYKYS","Kentucky Division of Forestry","KYKYS","Kentucky Division of Forestry","","18920169501","","OLD ORCHARD MISSIONARY CHURCH","","","","","","2016","2016/03/19 00:00:00+00","79","1830","Human","Recreation and ceremony","","2016/03/19 00:00:00+00","79","2015","2","B","37.50967025","-83.8857727","MISSING/NOT SPECIFIED","KY","Owsley","21189","Owsley County"
"-74.162498508","40.60469177","1925150","400048667","SFO-2016NY2401NY2401-2016-0312919","NONFED","ST-NASF","ST/C&L","USNYNYX","Fire Department of New York","NY2401","Fire Department of New York","","NY2401-2016-0312919","","N/A","","","","","","2016","2016/03/19 00:00:00+00","79","2043","Human","Recreation and ceremony","","2016/03/19 00:00:00+00","79","2056","3.8","B","40.6047","-74.1625","MISSING/NOT SPECIFIED","NY","Richmond","36085","Richmond County"
"-84.890828946","34.414993443","1925151","400048668","SFO-2016GAGAS-FY2016-Gordon-003","NONFED","ST-NASF","ST/C&L","USGAGAS","Georgia Forestry Commission","GAGAS","Georgia Forestry Commission","","FY2016-Gordon-003","","FY2016-GORDON-003","","","","","","2016","2016/03/19 00:00:00+00","79","2117","Human","Recreation and ceremony","","2016/03/19 00:00:00+00","79","2315","7.15","B","34.415","-84.89083333","PRIVATE","GA","Gordon              ","13129","Gordon County"
"-74.079198502","41.134591664","1925152","400048669","SFO-2016NY4407NY4407-2016-0000154","NONFED","ST-NASF","ST/C&L","USNYNYX","Fire Department of New York","NY4407","Fire Department of New York","","NY4407-2016-0000154","","N/A","","","","","","2016","2016/03/20 00:00:00+00","80","1300","Human","Recreation and ceremony","","2016/03/20 00:00:00+00","80","","0.1","A","41.1346","-74.0792","MISSING/NOT SPECIFIED","NY","Rockland","36087","Rockland County"
"-75.599998038","40.789991786","1925153","400048670","SFO-2016PAPAS18(16)1-028","NONFED","ST-NASF","ST/C&L","USPAPAS","Pennsylvania Division of Forest Fire Protection","PAPAS","Pennsylvania Division of Forest Fire Protection","","18(16)1-028","","HONEY JACK","","","","","","2016","2016/03/20 00:00:00+00","80","0930","Human","Recreation and ceremony","","2016/03/20 00:00:00+00","80","1145","1","B","40.79","-75.6","MISSING/NOT SPECIFIED","PA","CARBON","42025","Carbon County"
"-82.428264559","37.812073027","1925154","400048671","SFO-2016KY-KYS15920169003","NONFED","ST-NASF","ST/C&L","USKYKYS","Kentucky Division of Forestry","KYKYS","Kentucky Division of Forestry","","15920169003","","PETER CAVE","","","","","","2016","2016/03/20 00:00:00+00","80","1805","Human","Recreation and ceremony","","2016/03/20 00:00:00+00","80","","50.1","C","37.81208038","-82.42826843","MISSING/NOT SPECIFIED","KY","Martin","21159","Martin County"
"-73.940398565","40.831391718","1925155","400048672","SFO-2016NY2401NY2401-2016-0315261","NONFED","ST-NASF","ST/C&L","USNYNYX","Fire Department of New York","NY2401","Fire Department of New York","","NY2401-2016-0315261","","N/A","","","","","","2016","2016/03/20 00:00:00+00","80","1608","Human","Recreation and ceremony","","2016/03/20 00:00:00+00","80","1734","1.3","B","40.8314","-73.9404","MUNICIPAL/LOCAL","NY","New York","36061","New York County"
"-74.946398178","41.837991561","1925156","400048673","SFO-2016NY5304NY5304-2016-11","NONFED","ST-NASF","ST/C&L","USNYNYX","Fire Department of New York","NY5304","Fire Department of New York","","NY5304-2016-11","","N/A","","","","","","2016","2016/03/20 00:00:00+00","80","1542","Human","Recreation and ceremony","","2016/03/20 00:00:00+00","80","1825","1.3","B","41.838","-74.9464","MISSING/NOT SPECIFIED","NY","Sullivan","36105","Sullivan County"
"-83.255862922","37.216103021","1925157","400048674","SFO-2016KY-KYS19320169020","NONFED","ST-NASF","ST/C&L","USKYKYS","Kentucky Division of Forestry","KYKYS","Kentucky Division of Forestry","","19320169020","","POLLY HOLLOW #2","","","","","","2016","2016/03/20 00:00:00+00","80","2200","Human","Recreation and ceremony","","2016/03/20 00:00:00+00","80","2247","1","B","37.21611022","-83.255867","MISSING/NOT SPECIFIED","KY","Perry","21193","Perry County"
"-75.058798207","40.839091757","1925158","400048675","SFO-2016NJDEPA031801","NONFED","ST-NASF","ST/C&L","USNJNJS","New Jersey Forest Fire Service","NJDEP","New Jersey Department of Environmental Protection","","A031801","","","","","","","","2016","2016/03/18 00:00:00+00","78","0923","Human","Recreation and ceremony","","2016/03/20 00:00:00+00","80","0800","0.25","A","40.8391","-75.0588","PRIVATE","NJ","Warren","34041","Warren County"
"-74.595598394","40.201991865","1925159","400048676","SFO-2016NJDEPB031802","NONFED","ST-NASF","ST/C&L","USNJNJS","New Jersey Forest Fire Service","NJDEP","New Jersey Department of Environmental Protection","","B031802","","","","","","","","2016","2016/03/18 00:00:00+00","78","1400","Human","Recreation and ceremony","","2016/03/21 00:00:00+00","81","1130","1.5","B","40.202","-74.5956","PRIVATE","NJ","Mercer","34021","Mercer County"
"-107.790289538","37.198494118","1925160","400048677","SFO-201667701077","NONFED","ST-NASF","ST/C&L","USCODFRX","Durango Fire Rescue Authority","6770","Durango Fire Rescue Authority","","1077","","UNKNOWN","","","","","","2016","2016/03/21 00:00:00+00","81","1217","Human","Recreation and ceremony","","2016/03/21 00:00:00+00","81","1252","0.2","A","37.1985","-107.7903","MISSING/NOT SPECIFIED","CO","La Plata","08067","La Plata County"
"-82.762103884","37.594074575","1925161","400048678","SFO-2016KY-KYS07120169012","NONFED","ST-NASF","ST/C&L","USKYKYS","Kentucky Division of Forestry","KYKYS","Kentucky Division of Forestry","","07120169012","","WHITE DEER LANE","","","","","","2016","2016/03/21 00:00:00+00","81","1500","Human","Recreation and ceremony","","2016/03/21 00:00:00+00","81","1540","1","B","37.59408187","-82.76210784","MISSING/NOT SPECIFIED","KY","Floyd","21071","Floyd County"
"-85.156206683","33.806924142","1925162","400048679","SFO-2016GAGAS-FY2016-Haralson-020","NONFED","ST-NASF","ST/C&L","USGAGAS","Georgia Forestry Commission","GAGAS","Georgia Forestry Commission","","FY2016-Haralson-020","","FY2016-HARALSON-020","","","","","","2016","2016/03/21 00:00:00+00","81","1529","Human","Recreation and ceremony","","2016/03/21 00:00:00+00","81","1557","0.5","B","33.80693056","-85.15621111","PRIVATE","GA","Haralson            ","13143","Haralson County"
"-74.067898572","40.043191878","1925163","400048680","SFO-2016NJDEPB031801","NONFED","ST-NASF","ST/C&L","USNJNJS","New Jersey Forest Fire Service","NJDEP","New Jersey Department of Environmental Protection","","B031801","","","","","","","","2016","2016/03/18 00:00:00+00","78","1500","Human","Recreation and ceremony","","2016/03/21 00:00:00+00","81","1600","0.25","A","40.0432","-74.0679","MUNICIPAL/LOCAL","NJ","Ocean","34029","Ocean County"
"-73.76029845","43.48809121","1925164","400048681","SFO-2016NY5723NY5723-2016-0030006","NONFED","ST-NASF","ST/C&L","USNYNYX","Fire Department of New York","NY5723","Fire Department of New York","","NY5723-2016-0030006","","N/A","","","","","","2016","2016/03/21 00:00:00+00","81","1552","Human","Recreation and ceremony","","2016/03/21 00:00:00+00","81","1613","1.3","B","43.4881","-73.7603","MUNICIPAL/LOCAL","NY","Warren","36113","Warren County"
"-81.906296796","26.684895123","1925165","400048682","SFO-2016FLFLS2016170056","NONFED","ST-NASF","ST/C&L","USFLFLS","Florida Forest Service","FLFLS","Florida Forest Service","","2016170056","","BEALLS (36)","","","","","","2016","2016/03/21 00:00:00+00","81","1501","Human","Recreation and ceremony","","2016/03/21 00:00:00+00","81","1615","2","B","26.6849","-81.9063","PRIVATE","FL","Lee","12071","Lee County"
"-82.894649313","37.761112517","1925166","400048683","SFO-2016KY-KYS11520169003","NONFED","ST-NASF","ST/C&L","USKYKYS","Kentucky Division of Forestry","KYKYS","Kentucky Division of Forestry","","11520169003","","ASA CREEK","","","","","","2016","2016/03/21 00:00:00+00","81","1215","Human","Recreation and ceremony","","2016/03/21 00:00:00+00","81","1706","7","B","37.76111984","-82.89465332","MISSING/NOT SPECIFIED","KY","Johnson","21115","Johnson County"
"-74.061698482","41.542991585","1925167","400048684","SFO-2016NY3609NY3609-2016-0010091","NONFED","ST-NASF","ST/C&L","USNYNYX","Fire Department of New York","NY3609","Fire Department of New York","","NY3609-2016-0010091","","N/A","","","","","","2016","2016/03/21 00:00:00+00","81","1504","Human","Recreation and ceremony","","2016/03/21 00:00:00+00","81","1739","1.3","B","41.543","-74.0617","MISSING/NOT SPECIFIED","NY","Orange","36071","Orange County"
"-83.903186296","37.873642289","1925168","400048685","SFO-2016KY-KYS19720169001","NONFED","ST-NASF","ST/C&L","USKYKYS","Kentucky Division of Forestry","KYKYS","Kentucky Division of Forestry","","19720169001","","BEECHFORK RD","","","","","","2016","2016/03/21 00:00:00+00","81","1614","Human","Recreation and ceremony","","2016/03/21 00:00:00+00","81","1745","1","B","37.87364959","-83.90319061","MISSING/NOT SPECIFIED","KY","Powell","21197","Powell County"
"-83.130908733","37.301933689","1925169","400048686","SFO-2016KY-KYS19320169022","NONFED","ST-NASF","ST/C&L","USKYKYS","Kentucky Division of Forestry","KYKYS","Kentucky Division of Forestry","","19320169022","","HILL AVENUE","","","","","","2016","2016/03/21 00:00:00+00","81","1751","Human","Recreation and ceremony","","2016/03/21 00:00:00+00","81","1820","1","B","37.30194091","-83.13091278","MISSING/NOT SPECIFIED","KY","Perry","21193","Perry County"
"-81.192698621","35.818986006","1925170","400048687","SFO-2016NC-NCSNCST-018-FY2016-0027","NONFED","ST-NASF","ST/C&L","USNCNCS","North Carolina Forest Service","NCNCS","North Carolina State Division of Forest Resouces","","NCST-018-FY2016-0027","","OXFORD DAM","","","","","","2016","2016/03/21 00:00:00+00","81","1930","Human","Recreation and ceremony","","2016/03/21 00:00:00+00","81","1942","0.2","A","35.818993","-81.192702","MISSING/NOT SPECIFIED","NC","Catawba","37035","Catawba County"
"-73.896798575","40.909491701","1925171","400048688","SFO-2016NY2401NY2401-2016-0319761","NONFED","ST-NASF","ST/C&L","USNYNYX","Fire Department of New York","NY2401","Fire Department of New York","","NY2401-2016-0319761","","N/A","","","","","","2016","2016/03/21 00:00:00+00","81","1956","Human","Recreation and ceremony","","2016/03/21 00:00:00+00","81","2012","0.1","A","40.9095","-73.8968","MISSING/NOT SPECIFIED","NY","Bronx","36005","Bronx County"
"-103.671189939","41.8508832","1925172","400048689","SFO-2016NENFS21360","NONFED","ST-NASF","ST/C&L","USNENES","Nebraska Forest Service","NENFS","Nebraska Forest Service","","21360","","","","","","","","2016","2016/03/21 00:00:00+00","81","1916","Human","Recreation and ceremony","","2016/03/21 00:00:00+00","81","2012","0.01","A","41.85089","-103.6712","PRIVATE","NE","Scotts Bluff","31157","Scotts Bluff County"
"-93.362594709","40.963332634","1925173","400048690","SFO-2016IAIAS16039","NONFED","ST-NASF","ST/C&L","USIAIAS","Iowa Department of Natural Resources","IAIAS","Iowa Department of Natural Resources","","16039","","CHARITON VOL FD","","","","","","2016","2016/03/21 00:00:00+00","81","","Human","Recreation and ceremony","","2016/03/21 00:00:00+00","81","","2","B","40.96334","-93.362602","PRIVATE","IA","Lucas","19117","Lucas County"
"-83.926578003","37.953842474","1925174","400048691","SFO-2016KY-KYS17320169002","NONFED","ST-NASF","ST/C&L","USKYKYS","Kentucky Division of Forestry","KYKYS","Kentucky Division of Forestry","","17320169002","","OLD RT 11","","","","","","2016","2016/03/22 00:00:00+00","82","2040","Human","Recreation and ceremony","","2016/03/22 00:00:00+00","82","","11","C","37.95384979","-83.92658233","MISSING/NOT SPECIFIED","KY","Montgomery","21173","Montgomery County"
"-78.577396931","42.9701915","1925175","400048692","SFO-2016NY1561NY1561-2016-0003679","NONFED","ST-NASF","ST/C&L","USNYNYX","Fire Department of New York","NY1561","Fire Department of New York","","NY1561-2016-0003679","","N/A","","","","","","2016","2016/03/22 00:00:00+00","82","1215","Human","Recreation and ceremony","","2016/03/22 00:00:00+00","82","1233","0.1","A","42.9702","-78.5774","MISSING/NOT SPECIFIED","NY","Erie","36029","Erie County"
"-73.486098557","43.239291245","1925176","400048693","SFO-2016NY5801NY5801-2016-16024","NONFED","ST-NASF","ST/C&L","USNYNYX","Fire Department of New York","NY5801","Fire Department of New York","","NY5801-2016-16024","","N/A","","","","","","2016","2016/03/22 00:00:00+00","82","1140","Human","Recreation and ceremony","","2016/03/22 00:00:00+00","82","1315","0.1","A","43.2393","-73.4861","MISSING/NOT SPECIFIED","NY","Washington","36115","Washington County"
"-84.245662622","31.401910745","1925177","400048694","SFO-2016GAGAS-FY2016-Baker-012","NONFED","ST-NASF","ST/C&L","USGAGAS","Georgia Forestry Commission","GAGAS","Georgia Forestry Commission","","FY2016-Baker-012","","FY2016-BAKER-012","","","","","","2016","2016/03/22 00:00:00+00","82","1256","Human","Recreation and ceremony","","2016/03/22 00:00:00+00","82","1324","1.71","B","31.40191667","-84.24566667","PRIVATE","GA","Baker               ","13007","Baker County"
"-73.92659855","41.147291656","1925178","400048695","SFO-2016NY4414NY4414-2016-8","NONFED","ST-NASF","ST/C&L","USNYNYX","Fire Department of New York","NY4414","Fire Department of New York","","NY4414-2016-8","","N/A","","","","","","2016","2016/03/22 00:00:00+00","82","1548","Human","Recreation and ceremony","","2016/03/22 00:00:00+00","82","1634","6.3","B","41.1473","-73.9266","MISSING/NOT SPECIFIED","NY","Rockland","36087","Rockland County"
"-86.51767225","37.479980983","1925179","400048696","SFO-2016KY-KYS08520169001","NONFED","ST-NASF","ST/C&L","USKYKYS","Kentucky Division of Forestry","KYKYS","Kentucky Division of Forestry","","08520169001","","PINE DR.","","","","","","2016","2016/03/22 00:00:00+00","82","1611","Human","Recreation and ceremony","","2016/03/22 00:00:00+00","82","1642","2","B","37.47998809","-86.5176773","MISSING/NOT SPECIFIED","KY","Grayson","21085","Grayson County"
"-84.559817971","33.682601916","1925180","400048697","SFO-2016GAGAS-FY2016-Fulton South-002","NONFED","ST-NASF","ST/C&L","USGAGAS","Georgia Forestry Commission","GAGAS","Georgia Forestry Commission","","FY2016-Fulton South-002","","FY2016-FULTON SOUTH-002","","","","","","2016","2016/03/22 00:00:00+00","82","1446","Human","Recreation and ceremony","","2016/03/22 00:00:00+00","82","1719","15","C","33.68260833","-84.55982222","MISSING/NOT SPECIFIED","GA","Fulton South        ","13121","Fulton County"
"-73.890498508","42.000091491","1925181","400048698","SFO-2016NY1425NY1425-2016-0000188","NONFED","ST-NASF","ST/C&L","USNYNYX","Fire Department of New York","NY1425","Fire Department of New York","","NY1425-2016-0000188","","N/A","","","","","","2016","2016/03/22 00:00:00+00","82","1640","Human","Recreation and ceremony","","2016/03/22 00:00:00+00","82","1733","0.1","A","42.0001","-73.8905","MISSING/NOT SPECIFIED","NY","Dutchess","36027","Dutchess County"
"-84.97644348","37.009052816","1925182","400048699","SFO-2016KY-KYS20720169001","NONFED","ST-NASF","ST/C&L","USKYKYS","Kentucky Division of Forestry","KYKYS","Kentucky Division of Forestry","","20720169001","","GRIDER FIRE","","","","","","2016","2016/03/22 00:00:00+00","82","1530","Human","Recreation and ceremony","","2016/03/22 00:00:00+00","82","1846","5","B","37.0090599","-84.97644805","MISSING/NOT SPECIFIED","KY","Russell","21207","Russell County"
"-83.825839559","37.280083143","1925183","400048700","SFO-2016KY-KYS05120169024","NONFED","ST-NASF","ST/C&L","USKYKYS","Kentucky Division of Forestry","KYKYS","Kentucky Division of Forestry","","05120169024","","PONDER BR","","","","","","2016","2016/03/22 00:00:00+00","82","1745","Human","Recreation and ceremony","","2016/03/22 00:00:00+00","82","1917","1","B","37.28009033","-83.82584381","MISSING/NOT SPECIFIED","KY","Clay","21051","Clay County"
"-82.849468042","37.827541642","1925184","400048701","SFO-2016KY-KYS11520169004","NONFED","ST-NASF","ST/C&L","USKYKYS","Kentucky Division of Forestry","KYKYS","Kentucky Division of Forestry","","11520169004","","CROSS CREEK","","","","","","2016","2016/03/22 00:00:00+00","82","1830","Human","Recreation and ceremony","","2016/03/22 00:00:00+00","82","2005","0.5","B","37.82754898","-82.84947204","MISSING/NOT SPECIFIED","KY","Johnson","21115","Johnson County"
"-75.058898056","43.071591335","1925185","400048703","SFO-2016NY2219NY2219-2016-2016116","NONFED","ST-NASF","ST/C&L","USNYNYX","Fire Department of New York","NY2219","Fire Department of New York","","NY2219-2016-2016116","","N/A","","","","","","2016","2016/03/22 00:00:00+00","82","2033","Human","Recreation and ceremony","","2016/03/22 00:00:00+00","82","2221","0.1","A","43.0716","-75.0589","MISSING/NOT SPECIFIED","NY","Herkimer","36043","Herkimer County"
"-74.286298471","40.560191783","1925186","400048704","SFO-2016NJDEPA032203","NONFED","ST-NASF","ST/C&L","USNJNJS","New Jersey Forest Fire Service","NJDEP","New Jersey Department of Environmental Protection","","A032203","","","","","","","","2016","2016/03/22 00:00:00+00","82","1440","Human","Recreation and ceremony","","2016/03/23 00:00:00+00","83","1030","0.25","A","40.5602","-74.2863","PRIVATE","NJ","Morris","34027","Morris County"
"-73.619198667","40.852291703","1925187","400048705","SFO-2016NY3022NY3022-2016-227","NONFED","ST-NASF","ST/C&L","USNYNYX","Fire Department of New York","NY3022","Fire Department of New York","","NY3022-2016-227","","N/A","","","","","","2016","2016/03/23 00:00:00+00","83","1022","Human","Recreation and ceremony","","2016/03/23 00:00:00+00","83","1125","1.3","B","40.8523","-73.6192","MISSING/NOT SPECIFIED","NY","Nassau","36059","Nassau County"
"-86.677675844","37.74301195","1925188","400048706","SFO-2016KY-KYS09120169002","NONFED","ST-NASF","ST/C&L","USKYKYS","Kentucky Division of Forestry","KYKYS","Kentucky Division of Forestry","","09120169002","","TRUKEY NEST","","","","","","2016","2016/03/23 00:00:00+00","83","1130","Human","Recreation and ceremony","","2016/03/23 00:00:00+00","83","1200","100","D","37.7430191","-86.67768096","MISSING/NOT SPECIFIED","KY","Hancock","21091","Hancock County"
"-74.025798523","41.068191675","1925189","400048707","SFO-2016NY4412NY4412-2016-0000066","NONFED","ST-NASF","ST/C&L","USNYNYX","Fire Department of New York","NY4412","Fire Department of New York","","NY4412-2016-0000066","","N/A","","","","","","2016","2016/03/23 00:00:00+00","83","1353","Human","Recreation and ceremony","","2016/03/23 00:00:00+00","83","1427","0.1","A","41.0682","-74.0258","MISSING/NOT SPECIFIED","NY","Rockland","36087","Rockland County"
"-82.50173564","37.302254103","1925190","400048708","SFO-2016KY-KYS19520169021","NONFED","ST-NASF","ST/C&L","USKYKYS","Kentucky Division of Forestry","KYKYS","Kentucky Division of Forestry","","19520169021","","BOWLING FORK","2016_4422008_BOWLING FORK","","","","","2016","2016/03/23 00:00:00+00","83","1715","Human","Recreation and ceremony","","2016/03/23 00:00:00+00","83","","300","E","37.30226135","-82.5017395","MISSING/NOT SPECIFIED","KY","Pike","21195","Pike County"
"-83.230374006","31.820255058","1925191","400048709","SFO-2016GAGAS-FY2016-Ben Hill-014","NONFED","ST-NASF","ST/C&L","USGAGAS","Georgia Forestry Commission","GAGAS","Georgia Forestry Commission","","FY2016-Ben Hill-014","","FY2016-BEN HILL-014","","","","","","2016","2016/03/23 00:00:00+00","83","1528","Human","Recreation and ceremony","","2016/03/23 00:00:00+00","83","1614","4.17","B","31.82026111","-83.23037778","PRIVATE","GA","Ben Hill            ","13017","Ben Hill County"
"-83.713672218","37.501263054","1925192","400048710","SFO-2016KY-KYS18920169008","NONFED","ST-NASF","ST/C&L","USKYKYS","Kentucky Division of Forestry","KYKYS","Kentucky Division of Forestry","","18920169008","","FOX HUNTERS KNOB","","","","","","2016","2016/03/23 00:00:00+00","83","1515","Human","Recreation and ceremony","","2016/03/23 00:00:00+00","83","1630","2","B","37.50127029","-83.71367645","MISSING/NOT SPECIFIED","KY","Owsley","21189","Owsley County"
"-83.068858852","37.752231906","1925193","400048711","SFO-2016KY-KYS15320169015","NONFED","ST-NASF","ST/C&L","USKYKYS","Kentucky Division of Forestry","KYKYS","Kentucky Division of Forestry","","15320169015","","COAL BR RD","","","","","","2016","2016/03/23 00:00:00+00","83","1904","Human","Recreation and ceremony","","2016/03/23 00:00:00+00","83","","51","C","37.75223922","-83.06886291","MISSING/NOT SPECIFIED","KY","Magoffin","21153","Magoffin County"
"-82.532414245","35.438180137","1925194","400048712","SFO-2016NC-NCSNCST-045-FY2016-0069","NONFED","ST-NASF","ST/C&L","USNCNCS","North Carolina Forest Service","NCNCS","North Carolina State Division of Forest Resouces","","NCST-045-FY2016-0069","","KNIGHTS","","","","","","2016","2016/03/23 00:00:00+00","83","1757","Human","Recreation and ceremony","","2016/03/23 00:00:00+00","83","1811","0.26","B","35.438187","-82.532418","MISSING/NOT SPECIFIED","NC","Henderson","37089","Henderson County"
"-73.750298631","40.748691728","1925195","400048713","SFO-2016NY2401NY2401-2016-0327264","NONFED","ST-NASF","ST/C&L","USNYNYX","Fire Department of New York","NY2401","Fire Department of New York","","NY2401-2016-0327264","","N/A","","","","","","2016","2016/03/23 00:00:00+00","83","1925","Human","Recreation and ceremony","","2016/03/23 00:00:00+00","83","1941","0.1","A","40.7487","-73.7503","MISSING/NOT SPECIFIED","NY","Queens","36081","Queens County"
"-73.758398611","41.04599167","1925196","400048714","SFO-2016NY6060NY6060-2016-1024","NONFED","ST-NASF","ST/C&L","USNYNYX","Fire Department of New York","NY6060","Fire Department of New York","","NY6060-2016-1024","","N/A","","","","","","2016","2016/03/23 00:00:00+00","83","1932","Human","Recreation and ceremony","","2016/03/23 00:00:00+00","83","2004","0.1","A","41.046","-73.7584","MISSING/NOT SPECIFIED","NY","Westchester","36119","Westchester County"
"-117.702766337","45.619994026","1925197","400048715","SFO-2016ORODF1697405616","NONFED","ST-NASF","ST/C&L","USORORS","Oregon Department of Forestry Salem Headquarters","ORODF","Oregon Department of Forestry","","1697405616","","FISHERMAN","","","","","","2016","2016/03/24 00:00:00+00","84","0903","Human","Recreation and ceremony","","2016/03/24 00:00:00+00","84","1003","0.01","A","45.62","-117.70278","COUNTY","OR","Wallowa","41063","Wallowa County"
"-73.76289861","41.032591673","1925198","400048716","SFO-2016NY6060NY6060-2016-1031","NONFED","ST-NASF","ST/C&L","USNYNYX","Fire Department of New York","NY6060","Fire Department of New York","","NY6060-2016-1031","","N/A","","","","","","2016","2016/03/24 00:00:00+00","84","1000","Human","Recreation and ceremony","","2016/03/24 00:00:00+00","84","1011","6.3","B","41.0326","-73.7629","MISSING/NOT SPECIFIED","NY","Westchester","36119","Westchester County"
"-83.890223993","37.392303883","1925199","400048717","SFO-2016KY-KYS10920169006","NONFED","ST-NASF","ST/C&L","USKYKYS","Kentucky Division of Forestry","KYKYS","Kentucky Division of Forestry","","10920169006","","BLACKWATER","","","","","","2016","2016/03/23 00:00:00+00","83","0015","Human","Recreation and ceremony","","2016/03/24 00:00:00+00","84","1035","1","B","37.39231109","-83.89022827","MISSING/NOT SPECIFIED","KY","Jackson","21109","Jackson County"
"-78.293327166","41.093601834","1925200","400048718","SFO-2016PAPAS09(16)1-012","NONFED","ST-NASF","ST/C&L","USPAPAS","Pennsylvania Division of Forest Fire Protection","PAPAS","Pennsylvania Division of Forest Fire Protection","","09(16)1-012","","THE SLOPE","","","","","","2016","2016/03/24 00:00:00+00","84","1304","Human","Recreation and ceremony","","2016/03/24 00:00:00+00","84","1345","0.1","A","41.09361","-78.29333","MISSING/NOT SPECIFIED","PA","CLEARFIELD","42033","Clearfield County"
"-74.353798457","40.430891811","1925201","400048719","SFO-2016NJDEPB032302","NONFED","ST-NASF","ST/C&L","USNJNJS","New Jersey Forest Fire Service","NJDEP","New Jersey Department of Environmental Protection","","B032302","","","","","","","","2016","2016/03/23 00:00:00+00","83","1320","Human","Recreation and ceremony","","2016/03/24 00:00:00+00","84","1400","2","B","40.4309","-74.3538","PRIVATE","NJ","Middlesex","34023","Middlesex County"
"-74.029998494","41.50939159","1925202","400048720","SFO-2016NY3631NY3631-2016-0000552","NONFED","ST-NASF","ST/C&L","USNYNYX","Fire Department of New York","NY3631","Fire Department of New York","","NY3631-2016-0000552","","N/A","","","","","","2016","2016/03/24 00:00:00+00","84","1436","Human","Recreation and ceremony","","2016/03/24 00:00:00+00","84","1452","0.8","B","41.5094","-74.03","PRIVATE","NY","Orange","36071","Orange County"
"-84.68766795","33.382776985","1925203","400048721","SFO-2016GAGAS-FY2016-Coweta-006","NONFED","ST-NASF","ST/C&L","USGAGAS","Georgia Forestry Commission","GAGAS","Georgia Forestry Commission","","FY2016-Coweta-006","","FY2016-COWETA-006","","","","","","2016","2016/03/24 00:00:00+00","84","1440","Human","Recreation and ceremony","","2016/03/24 00:00:00+00","84","1612","4.8","B","33.38278333","-84.68767222","PRIVATE","GA","Coweta              ","13077","Coweta County"
"-76.890990722","39.359945116","1925204","400048722","SFO-2016MDMDS4793","NONFED","ST-NASF","ST/C&L","USMDMDS","Maryland Department of Natural Resources Forest Service","MDMDS","Maryland Department of Natural Resources Forest Service","","4793","","SHELTER 512","","","","","","2016","2016/03/24 00:00:00+00","84","1710","Human","Recreation and ceremony","","2016/03/24 00:00:00+00","84","","0.1","A","39.359953","-76.890993","STATE","MD","Carroll","24013","Carroll County"
"-83.435329121","37.187393625","1925205","400048723","SFO-2016KY-KYS13120169007","NONFED","ST-NASF","ST/C&L","USKYKYS","Kentucky Division of Forestry","KYKYS","Kentucky Division of Forestry","","13120169007","","PEEBLE CREEK","","","","","","2016","2016/03/24 00:00:00+00","84","1345","Human","Recreation and ceremony","","2016/03/24 00:00:00+00","84","1630","20","C","37.18740081","-83.43533325","MISSING/NOT SPECIFIED","KY","Leslie","21131","Leslie County"
"-73.767298603","41.131991653","1925206","400048724","SFO-2016NY6041NY6041-2016-0000093","NONFED","ST-NASF","ST/C&L","USNYNYX","Fire Department of New York","NY6041","Fire Department of New York","","NY6041-2016-0000093","","N/A","","","","","","2016","2016/03/24 00:00:00+00","84","1515","Human","Recreation and ceremony","","2016/03/24 00:00:00+00","84","1638","3.8","B","41.132","-73.7673","MISSING/NOT SPECIFIED","NY","Westchester","36119","Westchester County"
"-93.912798949","45.647052756","1925207","400048725","SFO-2016MNDNR2016-312-034","NONFED","ST-NASF","ST/C&L","USMNMNS","Minnesota Department of Natural Resources","MNDNR","Minnesota Department of Natural Resources","","2016-312-034","","","","","","","","2016","2016/03/24 00:00:00+00","84","1713","Human","Recreation and ceremony","","2016/03/24 00:00:00+00","84","1722","0.5","B","45.6470608","-93.91280698","PRIVATE","MN","Benton","27009","Benton County"
"-84.001995928","33.372438073","1925208","400048726","SFO-2016GAGAS-FY2016-Henry-003","NONFED","ST-NASF","ST/C&L","USGAGAS","Georgia Forestry Commission","GAGAS","Georgia Forestry Commission","","FY2016-Henry-003","","FY2016-HENRY-003","","","","","","2016","2016/03/24 00:00:00+00","84","1604","Human","Recreation and ceremony","","2016/03/24 00:00:00+00","84","1813","58.3","C","33.37244444","-84.002","MISSING/NOT SPECIFIED","GA","Henry               ","13151","Henry County"
"-79.66309665","42.208591686","1925209","400048727","SFO-2016NY0733NY0733-2016-4828","NONFED","ST-NASF","ST/C&L","USNYNYX","Fire Department of New York","NY0733","Fire Department of New York","","NY0733-2016-4828","","N/A","","","","","","2016","2016/03/24 00:00:00+00","84","1853","Human","Recreation and ceremony","","2016/03/24 00:00:00+00","84","2010","0.1","A","42.2086","-79.6631","MISSING/NOT SPECIFIED","NY","Chautauqua","36013","Chautauqua County"
"-108.51588937","37.327194147","1925210","400048728","SFO-20168310424","NONFED","ST-NASF","ST/C&L","USCOCFDX","Cortez Fire Protection District","8310","Cortez Fire Protection District","","424","","UNKNOWN","","","","","","2016","2016/03/24 00:00:00+00","84","2153","Human","Recreation and ceremony","","2016/03/24 00:00:00+00","84","2240","0.01","A","37.3272","-108.5159","UNDEFINED FEDERAL","CO","Montezuma","08083","Montezuma County"
"-74.120598491","41.106591671","1925211","400048729","SFO-2016NY4420NY4420-2016-145","NONFED","ST-NASF","ST/C&L","USNYNYX","Fire Department of New York","NY4420","Fire Department of New York","","NY4420-2016-145","","N/A","","","","","","2016","2016/03/24 00:00:00+00","84","2326","Human","Recreation and ceremony","","2016/03/24 00:00:00+00","84","2346","3.8","B","41.1066","-74.1206","PRIVATE","NY","Rockland","36087","Rockland County"
"-87.705994882","33.200993807","1925212","400048730","SFO-2016ALAFC630","NONFED","ST-NASF","ST/C&L","USALALS","Alabama Forestry Commission","ALAFC","Alabama Forestry Commission","","630","","20160322-27","","","","","","2016","2016/03/22 00:00:00+00","82","1838","Human","Recreation and ceremony","","2016/03/24 00:00:00+00","84","","25","C","33.201","-87.706","MISSING/NOT SPECIFIED","AL","Tuscaloosa","01125","Tuscaloosa County"
"-78.351347149","41.073881841","1925213","400048731","SFO-2016PAPAS09(16)1-021","NONFED","ST-NASF","ST/C&L","USPAPAS","Pennsylvania Division of Forest Fire Protection","PAPAS","Pennsylvania Division of Forest Fire Protection","","09(16)1-021","","GREASY","","","","","","2016","2016/03/25 00:00:00+00","85","1720","Human","Recreation and ceremony","","2016/03/25 00:00:00+00","85","1732","0.1","A","41.07389","-78.35135","MISSING/NOT SPECIFIED","PA","CLEARFIELD","42033","Clearfield County"
"-80.28154089","35.879289959","1925214","400048732","SFO-2016NC-NCSNCST-029-FY2016-0024","NONFED","ST-NASF","ST/C&L","USNCNCS","North Carolina Forest Service","NCNCS","North Carolina State Division of Forest Resouces","","NCST-029-FY2016-0024","","ED BYRLERY RD.","","","","","","2016","2016/03/25 00:00:00+00","85","1819","Human","Recreation and ceremony","","2016/03/25 00:00:00+00","85","1840","0.23","A","35.879297","-80.281544","MISSING/NOT SPECIFIED","NC","Davidson","37057","Davidson County"
"-73.988698531","41.14049166","1925215","400048733","SFO-2016NY4409NY4409-2016-0000142","NONFED","ST-NASF","ST/C&L","USNYNYX","Fire Department of New York","NY4409","Fire Department of New York","","NY4409-2016-0000142","","N/A","","","","","","2016","2016/03/25 00:00:00+00","85","1827","Human","Recreation and ceremony","","2016/03/25 00:00:00+00","85","1847","6.3","B","41.1405","-73.9887","MISSING/NOT SPECIFIED","NY","Rockland","36087","Rockland County"
"-80.161860948","35.48115904","1925216","400048734","SFO-2016NC-NCSNCST-062-FY2016-0059","NONFED","ST-NASF","ST/C&L","USNCNCS","North Carolina Forest Service","NCNCS","North Carolina State Division of Forest Resouces","","NCST-062-FY2016-0059","","BAD ONE","","","","","","2016","2016/03/25 00:00:00+00","85","1430","Human","Recreation and ceremony","","2016/03/25 00:00:00+00","85","1930","7.6","B","35.481166","-80.161864","MISSING/NOT SPECIFIED","NC","Montgomery","37123","Montgomery County"
